[{"mapped_location": "(36.0473783, -86.6582112)", "address": "5255 Hickory Hollow Pkwy, Antioch", "results": [{"business_status": "OPERATIONAL", "geometry": {"location": {"lat": 36.0473783, "lng": -86.6582111}, "viewport": {"northeast": {"lat": 36.0488511302915, "lng": -86.65689706970849}, "southwest": {"lat": 36.0461531697085, "lng": -86.65959503029151}}}, "icon": "https://maps.gstatic.com/mapfiles/place_api/icons/v1/png_71/generic_business-71.png", "name": "Cavalry Logistics", "photos": [{"height": 3853, "html_attributions": ["<a href=\"https://maps.google.com/maps/contrib/113998803679463035394\">Heather Hoover</a>"], "photo_reference": "CmRaAAAAy53ep-Op0m4AF45X5O2PL8d-pbjQVOWvgRmvoSCf8gmgecvQoFNLjs9iSmQiBOF8NwgpwuTIo3QQqRHqOpenIAurJW_AUekS-soZrjDLm0vhRK2uvvuSM2_zUfCug14mEhBq4s9abLDfxyyEi9MrNiCrGhSgju1z_OlxxVliu9WGJvvf8fyhgA", "width": 2978}], "place_id": "ChIJkZWjjv5tZIgRgoWyMP-Po_8", "plus_code": {"compound_code": "28WR+XP Nashville, TN, USA", "global_code": "868M28WR+XP"}, "rating": 3, "reference": "ChIJkZWjjv5tZIgRgoWyMP-Po_8", "scope": "GOOGLE", "types": ["point_of_interest", "establishment"], "user_ratings_total": 2, "vicinity": "5255 Hickory Hollow Parkway, Antioch"}, {"business_status": "OPERATIONAL", "geometry": {"location": {"lat": 36.0475514, "lng": -86.6582918}, "viewport": {"northeast": {"lat": 36.04893768029149, "lng": -86.6569076697085}, "southwest": {"lat": 36.0462397197085, "lng": -86.65960563029151}}}, "icon": "https://maps.gstatic.com/mapfiles/place_api/icons/v1/png_71/generic_business-71.png", "name": "Universal Capacity Solutions", "opening_hours": {"open_now": true}, "photos": [{"height": 3229, "html_attributions": ["<a href=\"https://maps.google.com/maps/contrib/106181222026320520915\">Universal Capacity Solutions</a>"], "photo_reference": "CmRaAAAAtL2P5p8OFqpyfXEzG7mOQefYXA08amibb47Z2vgJdGRcFNEt0DVmIMVJk8yPBhpv4Lm_eg0WUEdWxAJRGc56a44cVjqkiUT1sCniuZ6Qgbft4kRYwQ3KmvhaqK1l5OgGEhAS8vQHlSRNLrP1C9YE-KGcGhSJcmxbsVK0FFPBxg50jpyOhVVwnA", "width": 5741}], "place_id": "ChIJK7-qxIxuZIgRHa23RJiWJ4c", "plus_code": {"compound_code": "28XR+2M Nashville, TN, USA", "global_code": "868M28XR+2M"}, "rating": 2.5, "reference": "ChIJK7-qxIxuZIgRHa23RJiWJ4c", "scope": "GOOGLE", "types": ["point_of_interest", "establishment"], "user_ratings_total": 142, "vicinity": "5255 Hickory Hollow Parkway, Antioch"}, {"business_status": "OPERATIONAL", "geometry": {"location": {"lat": 36.0475387, "lng": -86.65763079999999}, "viewport": {"northeast": {"lat": 36.0488794802915, "lng": -86.65635431970848}, "southwest": {"lat": 36.0461815197085, "lng": -86.65905228029149}}}, "icon": "https://maps.gstatic.com/mapfiles/place_api/icons/v1/png_71/shopping-71.png", "name": "ERA Clothing", "opening_hours": {"open_now": true}, "photos": [{"height": 4032, "html_attributions": ["<a href=\"https://maps.google.com/maps/contrib/101212501521774269870\">Kevin Deas</a>"], "photo_reference": "CmRaAAAA9E0DRSo4giCBqeZ_hxeJ-omwiw8xvvVw34CARIhm-hfUdxg3fwESzOlMB5jDzTDnZ8nf8PdP8jwuXedo1AVGDSKYvzgclZo83ff9r1nEli_1PPSiJTiJnzF2i_EjM-TjEhDMav-M2XtmPdgzlvr5TAM5GhTY7hK1jhi_eFanKC66eJ1AI-cUww", "width": 3024}], "place_id": "ChIJp0ZsmP5tZIgRpYrMt6Ami-4", "plus_code": {"compound_code": "28XR+2W Nashville, TN, USA", "global_code": "868M28XR+2W"}, "rating": 4, "reference": "ChIJp0ZsmP5tZIgRpYrMt6Ami-4", "scope": "GOOGLE", "types": ["point_of_interest", "clothing_store", "store", "establishment"], "user_ratings_total": 28, "vicinity": "5243 Hickory Hollow Parkway, Antioch"}, {"business_status": "OPERATIONAL", "geometry": {"location": {"lat": 36.0474424, "lng": -86.6575867}, "viewport": {"northeast": {"lat": 36.0487448802915, "lng": -86.6561852697085}, "southwest": {"lat": 36.0460469197085, "lng": -86.65888323029151}}}, "icon": "https://maps.gstatic.com/mapfiles/place_api/icons/v1/png_71/generic_business-71.png", "name": "Nails & More", "opening_hours": {"open_now": true}, "photos": [{"height": 4032, "html_attributions": ["<a href=\"https://maps.google.com/maps/contrib/106812544709618649295\">Fleeta World</a>"], "photo_reference": "CmRaAAAA4LmBo1sgqRnUlg_1r1DOw2xOL29LlyuDf4Sspj5DuVNDMc3_kO41vXOuZYngUi2XR2KMqt36SWAXrkIF_p_peZh8vVtX9Rpz8WhJkM5iOm_T0PIXnplkMmv7fJJ0SWxAEhC_CFpLEnDG7ZIeYnYH1cR_GhRk4ykbQUTf9DGYUE2r6OQRUW1F4g", "width": 3024}], "place_id": "ChIJTzobdv5tZIgRqleHivw4FJM", "plus_code": {"compound_code": "28WR+XX Nashville, TN, USA", "global_code": "868M28WR+XX"}, "rating": 3.2, "reference": "ChIJTzobdv5tZIgRqleHivw4FJM", "scope": "GOOGLE", "types": ["beauty_salon", "point_of_interest", "establishment"], "user_ratings_total": 33, "vicinity": "5241 Hickory Hollow Parkway, Antioch"}, {"business_status": "OPERATIONAL", "geometry": {"location": {"lat": 36.0476684, "lng": -86.6575895}, "viewport": {"northeast": {"lat": 36.0491443802915, "lng": -86.6559003197085}, "southwest": {"lat": 36.0464464197085, "lng": -86.6585982802915}}}, "icon": "https://maps.gstatic.com/mapfiles/place_api/icons/v1/png_71/shopping-71.png", "name": "Treasures Fine Jewelry", "opening_hours": {"open_now": true}, "photos": [{"height": 649, "html_attributions": ["<a href=\"https://maps.google.com/maps/contrib/101858620451317048080\">Treasures Fine Jewelry</a>"], "photo_reference": "CmRaAAAAiqnOOIwrv1E3SAUa3hMF1Ow4-FaMunnqq-WLWyoElMM5fegF7KoPjmiaBa7GlVsbzrD_t0xXc5ZRt86yQWNd5PZEXB2LDfy0mGIExGGMx9nu6ELsqnRB5Wt0WbC8aRqCEhC6fjsvUkMB3L5Qp8KgK1MmGhRmjYiURN5Gg92G3WT0LBB5zMJpLw", "width": 856}], "place_id": "ChIJz7a9NPBtZIgRTSdLlb6GUhk", "plus_code": {"compound_code": "28XR+3X Nashville, TN, USA", "global_code": "868M28XR+3X"}, "rating": 4.6, "reference": "ChIJz7a9NPBtZIgRTSdLlb6GUhk", "scope": "GOOGLE", "types": ["jewelry_store", "point_of_interest", "store", "establishment"], "user_ratings_total": 113, "vicinity": "5247 Hickory Hollow Parkway, Antioch"}]}, {"mapped_location": "(36.2886821, -86.70456)", "address": "1536 Gallatin Pike N, Madison", "results": [{"business_status": "OPERATIONAL", "geometry": {"location": {"lat": 36.288439, "lng": -86.704139}, "viewport": {"northeast": {"lat": 36.2898569802915, "lng": -86.70302431970849}, "southwest": {"lat": 36.2871590197085, "lng": -86.7057222802915}}}, "icon": "https://maps.gstatic.com/mapfiles/place_api/icons/v1/png_71/shopping-71.png", "name": "Eagle Auto Sales Inc", "opening_hours": {"open_now": true}, "photos": [{"height": 1932, "html_attributions": ["<a href=\"https://maps.google.com/maps/contrib/114198726815432296325\">Brigida Jimenez</a>"], "photo_reference": "CmRaAAAADJ1nFYnbx72GnfsWW6tafIG9411qYIsVTT2XYyMVPLG3bgu27xs7kUEizUqn5ordquUBum_B-AZNiTXgUzDsXSJOwqf3B2aIVbeAKORs-RqN-j9v3VDEOTk4noUC6RLmEhAowlYEoTo4m-ow5fx-EoOfGhQCEytPk6V20Csy3obeZ9WR5ofFAA", "width": 2576}], "place_id": "ChIJ26KWgXZDZIgRFEZaI1eAf8A", "plus_code": {"compound_code": "77QW+98 Nashville, TN, USA", "global_code": "868M77QW+98"}, "rating": 3.3, "reference": "ChIJ26KWgXZDZIgRFEZaI1eAf8A", "scope": "GOOGLE", "types": ["car_dealer", "point_of_interest", "store", "establishment"], "user_ratings_total": 28, "vicinity": "1521 Gallatin Pike North, Madison"}, {"business_status": "OPERATIONAL", "geometry": {"location": {"lat": 36.28875599999999, "lng": -86.703634}, "viewport": {"northeast": {"lat": 36.2902195302915, "lng": -86.70268046970848}, "southwest": {"lat": 36.2875215697085, "lng": -86.7053784302915}}}, "icon": "https://maps.gstatic.com/mapfiles/place_api/icons/v1/png_71/shopping-71.png", "name": "Byrider Madison", "opening_hours": {"open_now": true}, "photos": [{"height": 3120, "html_attributions": ["<a href=\"https://maps.google.com/maps/contrib/100591643474366447672\">Byrider Madison</a>"], "photo_reference": "CmRaAAAA-Dm5mi4ZbqaHRHPLkF5iWyR3b-2pk2dT0IjkDFmRa4TXkyjIfz5tqwjH50nxOaAmMY78B-0Mf7EY5nOlD2dx45SIUEv71xanuMVsYAg7okj8jYlIiGBVB36Oo0K5fHwLEhBhs46rldywRl8gdkmecIKcGhSqiEoXsh5DlJ-Z-QsBDw30UB1OTQ", "width": 4160}], "place_id": "ChIJrcGSdHZDZIgRKDzN1lsZZnk", "plus_code": {"compound_code": "77QW+GG Nashville, TN, USA", "global_code": "868M77QW+GG"}, "price_level": 2, "rating": 4.3, "reference": "ChIJrcGSdHZDZIgRKDzN1lsZZnk", "scope": "GOOGLE", "types": ["finance", "car_dealer", "car_repair", "point_of_interest", "store", "establishment"], "user_ratings_total": 653, "vicinity": "1525 Gallatin Pike North, Madison"}, {"business_status": "OPERATIONAL", "geometry": {"location": {"lat": 36.28930280000001, "lng": -86.70523829999999}, "viewport": {"northeast": {"lat": 36.29060928029151, "lng": -86.7037557197085}, "southwest": {"lat": 36.28791131970851, "lng": -86.7064536802915}}}, "icon": "https://maps.gstatic.com/mapfiles/place_api/icons/v1/png_71/shopping-71.png", "name": "Greenway Kia of Rivergate", "opening_hours": {"open_now": true}, "photos": [{"height": 2322, "html_attributions": ["<a href=\"https://maps.google.com/maps/contrib/104489024516796653319\">Arthur Williamson</a>"], "photo_reference": "CmRaAAAAyfmdPKd5e6h-ecrEl7EiYNUw3abSEbg7PHSQ5KwFEpZzbUrm_52tWHRjMkU4zA7lrSkWfjYH59hmcB6EZ7Tvj0Rp3KTyLBSpf-pckh3iHlzVwbwM2Ne-AZ9BMbhQvj31EhA4hplzorGpribGDR-vvfjnGhRNI2Y7puWXyZqfM9pAaxv1kTWdLA", "width": 4128}], "place_id": "ChIJ4bVy_QxDZIgRjn5r3osmZic", "plus_code": {"compound_code": "77QV+PW Nashville, TN, USA", "global_code": "868M77QV+PW"}, "rating": 4.3, "reference": "ChIJ4bVy_QxDZIgRjn5r3osmZic", "scope": "GOOGLE", "types": ["finance", "car_dealer", "point_of_interest", "store", "establishment"], "user_ratings_total": 794, "vicinity": "1536 Gallatin Pike North, Madison"}, {"business_status": "OPERATIONAL", "geometry": {"location": {"lat": 36.2886749, "lng": -86.7033716}, "viewport": {"northeast": {"lat": 36.29017673029149, "lng": -86.7025502697085}, "southwest": {"lat": 36.28747876970849, "lng": -86.70524823029152}}}, "icon": "https://maps.gstatic.com/mapfiles/place_api/icons/v1/png_71/generic_business-71.png", "name": "Budget Truck Rental", "opening_hours": {"open_now": true}, "photos": [{"height": 270, "html_attributions": ["<a href=\"https://maps.google.com/maps/contrib/108634799513443271446\">Budget Truck Rental</a>"], "photo_reference": "CmRaAAAAxyJVNtLtOzXhHE4ATiekGVvScCkiZIKe1bStUHELZTzheqqUcCLEuq2kZJcQyIIsSWR8R7wMpnvf0f97DA6g693th1WO1HjVn2bBoZKjHMNPfLUhyiZEz4QQEsALer5tEhAn-KQpNTwervRXw8nqwSAHGhS4FYFvWMwaJZleIKlLRdtofgo6uQ", "width": 480}], "place_id": "ChIJrcGSdHZDZIgRc_xX72mmkYY", "plus_code": {"compound_code": "77QW+FM Nashville, TN, USA", "global_code": "868M77QW+FM"}, "rating": 1.1, "reference": "ChIJrcGSdHZDZIgRc_xX72mmkYY", "scope": "GOOGLE", "types": ["point_of_interest", "establishment"], "user_ratings_total": 8, "vicinity": "1525 Gallatin Pike North, Madison"}, {"business_status": "OPERATIONAL", "geometry": {"location": {"lat": 36.288754, "lng": -86.703323}, "viewport": {"northeast": {"lat": 36.2902575302915, "lng": -86.7025075697085}, "southwest": {"lat": 36.2875595697085, "lng": -86.70520553029151}}}, "icon": "https://maps.gstatic.com/mapfiles/place_api/icons/v1/png_71/generic_business-71.png", "name": "Avis Car Rental", "opening_hours": {"open_now": true}, "photos": [{"height": 630, "html_attributions": ["<a href=\"https://maps.google.com/maps/contrib/108834791701304382180\">Avis Car Rental</a>"], "photo_reference": "CmRaAAAAgJGbx1cYj3paOJsteO15YzZsaoboHbgkwSDvIjENdMmh05wNA-0JNfd5gpd2rAprqGfI5OHF1TO-TkE7t8Q74hL1mFwpw4nxtCQuz4-l9JTcGEiLu9hDiokkoayQCLS5EhDHtiaJlPGkW6Z49sgQ5_jAGhSooE6FiKLWNRQXr3mSz_NFQOuDRg", "width": 1120}], "place_id": "ChIJVcZedHZDZIgRjbxU3d3i144", "plus_code": {"compound_code": "77QW+GM Nashville, TN, USA", "global_code": "868M77QW+GM"}, "rating": 3.7, "reference": "ChIJVcZedHZDZIgRjbxU3d3i144", "scope": "GOOGLE", "types": ["car_rental", "point_of_interest", "establishment"], "user_ratings_total": 21, "vicinity": "J. D. Byrider Used Cars, 1525 Gallatin Pike North, Madison"}]}, {"mapped_location": "(36.1036206, -86.798965)", "address": "1 University Park Dr, Nashville", "results": [{"business_status": "OPERATIONAL", "geometry": {"location": {"lat": 36.1036206, "lng": -86.798965}, "viewport": {"northeast": {"lat": 36.1049695802915, "lng": -86.7976160197085}, "southwest": {"lat": 36.1022716197085, "lng": -86.8003139802915}}}, "icon": "https://maps.gstatic.com/mapfiles/place_api/icons/v1/png_71/generic_business-71.png", "name": "Pieter Valk Counseling", "place_id": "ChIJq6qqB0NkZIgRErzqrVEAc0E", "reference": "ChIJq6qqB0NkZIgRErzqrVEAc0E", "scope": "GOOGLE", "types": ["health", "point_of_interest", "establishment"], "vicinity": "1 University Park Drive, Nashville"}, {"business_status": "OPERATIONAL", "geometry": {"location": {"lat": 36.103621, "lng": -86.798965}, "viewport": {"northeast": {"lat": 36.1049699802915, "lng": -86.7976160197085}, "southwest": {"lat": 36.1022720197085, "lng": -86.8003139802915}}}, "icon": "https://maps.gstatic.com/mapfiles/place_api/icons/v1/png_71/generic_business-71.png", "name": "Leadership Tennessee", "photos": [{"height": 1735, "html_attributions": ["<a href=\"https://maps.google.com/maps/contrib/106315687949934893609\">Leadership Tennessee</a>"], "photo_reference": "CmRaAAAALwRE3w87tjvZeFxqmfs-aIA8WrM4Ds240F5xYU4nmxTEh_zdFYVzn9i38-hSvJ2Gfaq5UC4-9RLHfH_VgooBWAgLRDR1kjOUbKubv1YAH1rIv1AZ9ObfCwF4dT7gHqABEhDyjGNFx7Kf1wwa1IJY0vt-GhQNwwe12EGP2h1G9SPWgyg-wzkfyQ", "width": 2600}], "place_id": "ChIJCXM5XkJkZIgRom_9_OspHMQ", "plus_code": {"compound_code": "4632+CC Nashville, TN, USA", "global_code": "868M4632+CC"}, "reference": "ChIJCXM5XkJkZIgRom_9_OspHMQ", "scope": "GOOGLE", "types": ["point_of_interest", "establishment"], "vicinity": "1 University Park Drive, Nashville"}, {"business_status": "OPERATIONAL", "geometry": {"location": {"lat": 36.10368769999999, "lng": -86.7990102}, "viewport": {"northeast": {"lat": 36.1050366802915, "lng": -86.79766121970849}, "southwest": {"lat": 36.1023387197085, "lng": -86.8003591802915}}}, "icon": "https://maps.gstatic.com/mapfiles/place_api/icons/v1/png_71/school-71.png", "name": "Lipscomb University College of Pharmacy and Health Sciences", "opening_hours": {"open_now": true}, "place_id": "ChIJaSMSB0NkZIgRqHpKQc99sHQ", "plus_code": {"compound_code": "4632+F9 Nashville, TN, USA", "global_code": "868M4632+F9"}, "rating": 5, "reference": "ChIJaSMSB0NkZIgRqHpKQc99sHQ", "scope": "GOOGLE", "types": ["university", "point_of_interest", "establishment"], "user_ratings_total": 1, "vicinity": "1 University Park Drive, Nashville"}, {"business_status": "OPERATIONAL", "geometry": {"location": {"lat": 36.10368769999999, "lng": -86.7990102}, "viewport": {"northeast": {"lat": 36.1050366802915, "lng": -86.79766121970849}, "southwest": {"lat": 36.1023387197085, "lng": -86.8003591802915}}}, "icon": "https://maps.gstatic.com/mapfiles/place_api/icons/v1/png_71/generic_business-71.png", "name": "Amazon Hub Locker - Karlek", "opening_hours": {"open_now": true}, "place_id": "ChIJaSMSB0NkZIgRrHgaFLvL8Mw", "plus_code": {"compound_code": "4632+F9 Nashville, TN, USA", "global_code": "868M4632+F9"}, "reference": "ChIJaSMSB0NkZIgRrHgaFLvL8Mw", "scope": "GOOGLE", "types": ["point_of_interest", "establishment"], "vicinity": "at Lipscomb University, 1 University Park Drive, Nashville"}, {"business_status": "OPERATIONAL", "geometry": {"location": {"lat": 36.1038143, "lng": -86.79895909999999}, "viewport": {"northeast": {"lat": 36.1051632802915, "lng": -86.79761011970848}, "southwest": {"lat": 36.1024653197085, "lng": -86.80030808029149}}}, "icon": "https://maps.gstatic.com/mapfiles/place_api/icons/v1/png_71/generic_business-71.png", "name": "Electric Vehicle Charging Station", "place_id": "ChIJG8ev6UNkZIgRm5BSgYFB9AA", "plus_code": {"compound_code": "4632+GC Nashville, TN, USA", "global_code": "868M4632+GC"}, "reference": "ChIJG8ev6UNkZIgRm5BSgYFB9AA", "scope": "GOOGLE", "types": ["point_of_interest", "establishment"], "vicinity": "1 University Park Drive, Nashville"}]}, {"mapped_location": "(36.16896, -86.76132)", "address": "525 Shelby Ave, Nashville", "results": [{"business_status": "OPERATIONAL", "geometry": {"location": {"lat": 36.16899389999999, "lng": -86.7612944}, "viewport": {"northeast": {"lat": 36.1704195302915, "lng": -86.76001141970849}, "southwest": {"lat": 36.1677215697085, "lng": -86.7627093802915}}}, "icon": "https://maps.gstatic.com/mapfiles/place_api/icons/v1/png_71/civic_building-71.png", "name": "Edgefield Manor & Annex", "opening_hours": {"open_now": true}, "place_id": "ChIJH5WsJjZmZIgRhfIWP7MRIAk", "plus_code": {"compound_code": "569Q+HF Nashville, TN, USA", "global_code": "868M569Q+HF"}, "rating": 5, "reference": "ChIJH5WsJjZmZIgRhfIWP7MRIAk", "scope": "GOOGLE", "types": ["local_government_office", "point_of_interest", "establishment"], "user_ratings_total": 2, "vicinity": "525 Shelby Avenue, Nashville"}, {"business_status": "OPERATIONAL", "geometry": {"location": {"lat": 36.16899389999999, "lng": -86.7612944}, "viewport": {"northeast": {"lat": 36.1704195302915, "lng": -86.76001141970849}, "southwest": {"lat": 36.1677215697085, "lng": -86.7627093802915}}}, "icon": "https://maps.gstatic.com/mapfiles/place_api/icons/v1/png_71/generic_business-71.png", "name": "Mental Health Co-Op Shelby", "place_id": "ChIJH5WsJjZmZIgRAaopjcrkX58", "plus_code": {"compound_code": "569Q+HF Nashville, TN, USA", "global_code": "868M569Q+HF"}, "reference": "ChIJH5WsJjZmZIgRAaopjcrkX58", "scope": "GOOGLE", "types": ["health", "point_of_interest", "establishment"], "vicinity": "525 Shelby Avenue, Nashville"}, {"business_status": "OPERATIONAL", "geometry": {"location": {"lat": 36.1684205, "lng": -86.7609373}, "viewport": {"northeast": {"lat": 36.16978103029149, "lng": -86.7595520197085}, "southwest": {"lat": 36.16708306970849, "lng": -86.7622499802915}}}, "icon": "https://maps.gstatic.com/mapfiles/place_api/icons/v1/png_71/generic_business-71.png", "name": "Dr. Braxton M. Elian, DDS", "place_id": "ChIJWSp6C_5nZIgRSQR_dpjucj0", "plus_code": {"compound_code": "569Q+9J Nashville, TN, USA", "global_code": "868M569Q+9J"}, "reference": "ChIJWSp6C_5nZIgRSQR_dpjucj0", "scope": "GOOGLE", "types": ["doctor", "health", "point_of_interest", "establishment"], "vicinity": "Unnamed Road, Nashville"}, {"business_status": "OPERATIONAL", "geometry": {"location": {"lat": 36.16797529999999, "lng": -86.7618483}, "viewport": {"northeast": {"lat": 36.1692224802915, "lng": -86.76043371970849}, "southwest": {"lat": 36.1665245197085, "lng": -86.7631316802915}}}, "icon": "https://maps.gstatic.com/mapfiles/place_api/icons/v1/png_71/generic_business-71.png", "name": "Dr. Abraham M. Deacon, DDS", "place_id": "ChIJu79fBflnZIgR9mKRl3bDRIQ", "plus_code": {"compound_code": "569Q+57 Nashville, TN, USA", "global_code": "868M569Q+57"}, "reference": "ChIJu79fBflnZIgR9mKRl3bDRIQ", "scope": "GOOGLE", "types": ["doctor", "health", "point_of_interest", "establishment"], "vicinity": "503 Shelby Avenue, Nashville"}, {"business_status": "OPERATIONAL", "geometry": {"location": {"lat": 36.16797529999999, "lng": -86.7618483}, "viewport": {"northeast": {"lat": 36.1692224802915, "lng": -86.76043371970849}, "southwest": {"lat": 36.1665245197085, "lng": -86.7631316802915}}}, "icon": "https://maps.gstatic.com/mapfiles/place_api/icons/v1/png_71/generic_business-71.png", "name": "Dr. Anthony M. Kobe, DDS", "place_id": "ChIJN7qVvTBnZIgRHvC5pdfA1tQ", "plus_code": {"compound_code": "569Q+57 Nashville, TN, USA", "global_code": "868M569Q+57"}, "reference": "ChIJN7qVvTBnZIgRHvC5pdfA1tQ", "scope": "GOOGLE", "types": ["doctor", "health", "point_of_interest", "establishment"], "vicinity": "503 Shelby Avenue, Nashville"}]}, {"mapped_location": "(36.1896449, -86.626111)", "address": "3435 Lebanon Pike, Hermitage", "results": [{"business_status": "OPERATIONAL", "geometry": {"location": {"lat": 36.1896449, "lng": -86.626111}, "viewport": {"northeast": {"lat": 36.19121938029149, "lng": -86.6250025697085}, "southwest": {"lat": 36.18852141970849, "lng": -86.6277005302915}}}, "icon": "https://maps.gstatic.com/mapfiles/place_api/icons/v1/png_71/generic_business-71.png", "name": "El gorila raspado 3", "photos": [{"height": 4032, "html_attributions": ["<a href=\"https://maps.google.com/maps/contrib/105729343593908361049\">Carlos Narvaez</a>"], "photo_reference": "CmRaAAAATg70Kc4hBkCu33cvTU9KOxXdxd1DLINkLkES6E01LApeFobD2_fq9BAuMX8bVGlt_OcConma8qoPhyocG-ftQ7-EE62VbK6VSaosFWSogSAPa6wJWiVPjGuk7Q57nbnOEhA7RKBHs6nHP2R05fSGGDyzGhQLpGjLBx9z9vleVAbn2_ljLWLHqg", "width": 3024}], "place_id": "ChIJ8XOVxDJrZIgRxY-EWWi56Ys", "plus_code": {"compound_code": "59QF+VH Nashville, TN, USA", "global_code": "868M59QF+VH"}, "rating": 5, "reference": "ChIJ8XOVxDJrZIgRxY-EWWi56Ys", "scope": "GOOGLE", "types": ["point_of_interest", "establishment"], "user_ratings_total": 1, "vicinity": "3435 Lebanon Pike, Hermitage"}, {"business_status": "OPERATIONAL", "geometry": {"location": {"lat": 36.1896449, "lng": -86.626111}, "viewport": {"northeast": {"lat": 36.19121938029149, "lng": -86.6250025697085}, "southwest": {"lat": 36.18852141970849, "lng": -86.6277005302915}}}, "icon": "https://maps.gstatic.com/mapfiles/place_api/icons/v1/png_71/generic_business-71.png", "name": "MoneyGram", "opening_hours": {"open_now": true}, "place_id": "ChIJmQJWCAhrZIgRGkdRtXy4Rz8", "plus_code": {"compound_code": "59QF+VH Nashville, TN, USA", "global_code": "868M59QF+VH"}, "reference": "ChIJmQJWCAhrZIgRGkdRtXy4Rz8", "scope": "GOOGLE", "types": ["finance", "point_of_interest", "establishment"], "vicinity": "3435 Lebanon Pike, Hermitage"}, {"business_status": "OPERATIONAL", "geometry": {"location": {"lat": 36.1897457, "lng": -86.6260266}, "viewport": {"northeast": {"lat": 36.1911080302915, "lng": -86.62462826970851}, "southwest": {"lat": 36.1884100697085, "lng": -86.62732623029152}}}, "icon": "https://maps.gstatic.com/mapfiles/place_api/icons/v1/png_71/shopping-71.png", "name": "Ch\u1ee3 M\u1ec5 hermitage", "place_id": "ChIJBQk1vuRrZIgRyWj9QC8GZNo", "plus_code": {"compound_code": "59QF+VH Nashville, TN, USA", "global_code": "868M59QF+VH"}, "reference": "ChIJBQk1vuRrZIgRyWj9QC8GZNo", "scope": "GOOGLE", "types": ["shopping_mall", "point_of_interest", "establishment"], "vicinity": "3435 Lebanon Pike, Hermitage"}, {"business_status": "OPERATIONAL", "geometry": {"location": {"lat": 36.1897777, "lng": -86.6260825}, "viewport": {"northeast": {"lat": 36.19131653029149, "lng": -86.62494576970849}, "southwest": {"lat": 36.1886185697085, "lng": -86.6276437302915}}}, "icon": "https://maps.gstatic.com/mapfiles/place_api/icons/v1/png_71/generic_business-71.png", "name": "Vigo", "opening_hours": {"open_now": true}, "photos": [{"height": 1000, "html_attributions": ["<a href=\"https://maps.google.com/maps/contrib/106149864471215804746\">Vigo</a>"], "photo_reference": "CmRaAAAAh7WQwgdQduHpvapqwqZj_TebWe8Gh55WMouHdUmgKRUb-SNXpdcvEy3AXS_SQqcjVGG5GKcQgnFUI-R3ESfQFkQGjF7_lsDuq_qnRFG133h7GQfycXHd9SdmmpnAYehREhDZiYxEscokkhwwbulq6jW0GhRhc2LIR0c_CVjJaVrX4nVK8QoOmw", "width": 1000}], "place_id": "ChIJ6xhvv3NrZIgRLcEwctHCeK0", "plus_code": {"compound_code": "59QF+WH Nashville, TN, USA", "global_code": "868M59QF+WH"}, "reference": "ChIJ6xhvv3NrZIgRLcEwctHCeK0", "scope": "GOOGLE", "types": ["finance", "point_of_interest", "establishment"], "vicinity": "Los Paisanos Market, 3435 Lebanon Pike, Hermitage"}, {"business_status": "OPERATIONAL", "geometry": {"location": {"lat": 36.189804, "lng": -86.6262435}, "viewport": {"northeast": {"lat": 36.19129893029149, "lng": -86.6250688197085}, "southwest": {"lat": 36.18860096970849, "lng": -86.62776678029151}}}, "icon": "https://maps.gstatic.com/mapfiles/place_api/icons/v1/png_71/shopping-71.png", "name": "LOS PAISANOS WORLD MARKET", "opening_hours": {"open_now": true}, "photos": [{"height": 3024, "html_attributions": ["<a href=\"https://maps.google.com/maps/contrib/109025203305171759456\">Weston Hall</a>"], "photo_reference": "CmRaAAAA_T_ek5xwgfnWg3Pnh56Q3AHV7mDeIhA7-hzhpfH09fiFAni7-9VVN67BM2qO0K9PqtUJRoaNdOVcdXCUAirtwEk3X7d4cOFRwJaNh7W7WTKQcB61oDj4rERaXn_uCAOWEhA5MaRUc1xk1G4IITxvWNH6GhSH7WxVhTEPidFRf7hLp6IuP9CXiw", "width": 4032}], "place_id": "ChIJ_eGY3lBrZIgR_-bZk7kaxy0", "plus_code": {"compound_code": "59QF+WG Nashville, TN, USA", "global_code": "868M59QF+WG"}, "rating": 4.8, "reference": "ChIJ_eGY3lBrZIgR_-bZk7kaxy0", "scope": "GOOGLE", "types": ["supermarket", "grocery_or_supermarket", "restaurant", "food", "point_of_interest", "store", "establishment"], "user_ratings_total": 60, "vicinity": "3435 Lebanon Pike, Hermitage"}]}, {"mapped_location": "(36.032676, -86.7898129)", "address": "207 Franklin Rd, Nan", "results": [{"business_status": "OPERATIONAL", "geometry": {"location": {"lat": 36.032676, "lng": -86.7898129}, "viewport": {"northeast": {"lat": 36.03402498029149, "lng": -86.78846391970849}, "southwest": {"lat": 36.03132701970849, "lng": -86.7911618802915}}}, "icon": "https://maps.gstatic.com/mapfiles/place_api/icons/v1/png_71/restaurant-71.png", "name": "Del Frisco's Grille", "opening_hours": {"open_now": true}, "photos": [{"height": 720, "html_attributions": ["<a href=\"https://maps.google.com/maps/contrib/102960859481270753736\">Del Frisco&#39;s Grille</a>"], "photo_reference": "CmRaAAAAcI8R1ujQHoKa3TB1Oafogz191R8DVSZmq-dDfbZFHNKzhIN2wLqEx7__cULsIvm4mtGzrLsfo6a2eYkBe-c6U3R1YrjqSr59IL0adgO3rFu3voaiqcy5iL760YqPhb8mEhBXHRlwKL7_abdvn7CK5T1eGhQVxFAumm5uR0A33jQxd5t3GtfbNQ", "width": 720}], "place_id": "ChIJGaP3ACV7ZIgRHP45EDHvhXQ", "plus_code": {"compound_code": "26M6+33 Brentwood, TN, USA", "global_code": "868M26M6+33"}, "price_level": 3, "rating": 4.3, "reference": "ChIJGaP3ACV7ZIgRHP45EDHvhXQ", "scope": "GOOGLE", "types": ["bar", "restaurant", "food", "point_of_interest", "establishment"], "user_ratings_total": 437, "vicinity": "207 Franklin Road, Brentwood"}, {"business_status": "OPERATIONAL", "geometry": {"location": {"lat": 36.03270699999999, "lng": -86.78959139999999}, "viewport": {"northeast": {"lat": 36.03410288029149, "lng": -86.78821596970849}, "southwest": {"lat": 36.03140491970849, "lng": -86.7909139302915}}}, "icon": "https://maps.gstatic.com/mapfiles/place_api/icons/v1/png_71/generic_business-71.png", "name": "Element Salon Brentwood", "opening_hours": {"open_now": true}, "photos": [{"height": 2209, "html_attributions": ["<a href=\"https://maps.google.com/maps/contrib/100304468980488165149\">Element Salon Brentwood</a>"], "photo_reference": "CmRaAAAAfA3AtV75t3S7Q9KN1yzqKhwJMrRS4nnMirzA9hHMcsQSKbCsJFUD2uNfi-q6AILN4mG9VEcOoG59xd3QvLnpo3w87buB1-nVvZmKgGqPCkFZ0maYuDsTNHTty1sstPbEEhDJZpaK-iuNdY1kFH9uJ5AGGhT34iNrjRVXPiwyQ31WmzvkfFUSWQ", "width": 3000}], "place_id": "ChIJ32iSASV7ZIgR6eK6TUySv0Q", "plus_code": {"compound_code": "26M6+35 Brentwood, TN, USA", "global_code": "868M26M6+35"}, "rating": 4.4, "reference": "ChIJ32iSASV7ZIgR6eK6TUySv0Q", "scope": "GOOGLE", "types": ["beauty_salon", "point_of_interest", "establishment"], "user_ratings_total": 33, "vicinity": "201 Franklin Road, Brentwood"}, {"business_status": "OPERATIONAL", "geometry": {"location": {"lat": 36.0331102, "lng": -86.7897216}, "viewport": {"northeast": {"lat": 36.0343168302915, "lng": -86.78801631970849}, "southwest": {"lat": 36.0316188697085, "lng": -86.7907142802915}}}, "icon": "https://maps.gstatic.com/mapfiles/place_api/icons/v1/png_71/shopping-71.png", "name": "Dress Up Brentwood", "opening_hours": {"open_now": true}, "photos": [{"height": 2368, "html_attributions": ["<a href=\"https://maps.google.com/maps/contrib/106410233497430193287\">Brian Oberlander</a>"], "photo_reference": "CmRaAAAAUYbPq8yMZhbV34VF8-iqUCo_7m3tuNyj7UrTeopHUVu6u4xi8O1vGUeyTfH43esz0vZu_3FDMAzs-mKtJs-g66V4_CF6kIbDJ-oOIS7eidhS468FQCOIUZRQerNtjLmeEhCEjbw_0QjMx8VaoYHfS0tyGhRbURaPKFNBU6-IqX7mALQ1RygI2g", "width": 4208}], "place_id": "ChIJNcHJxiR7ZIgRIA7AVp-Dt2M", "plus_code": {"compound_code": "26M6+64 Brentwood, TN, USA", "global_code": "868M26M6+64"}, "rating": 4.9, "reference": "ChIJNcHJxiR7ZIgRIA7AVp-Dt2M", "scope": "GOOGLE", "types": ["point_of_interest", "clothing_store", "store", "establishment"], "user_ratings_total": 16, "vicinity": "201 Franklin Road #120, Brentwood"}, {"business_status": "OPERATIONAL", "geometry": {"location": {"lat": 36.0330461, "lng": -86.7895137}, "viewport": {"northeast": {"lat": 36.0342923802915, "lng": -86.7879077197085}, "southwest": {"lat": 36.0315944197085, "lng": -86.7906056802915}}}, "icon": "https://maps.gstatic.com/mapfiles/place_api/icons/v1/png_71/atm-71.png", "name": "suntrust atm", "place_id": "ChIJk6dPACV7ZIgRMWIARiLiP2c", "plus_code": {"compound_code": "26M6+65 Brentwood, TN, USA", "global_code": "868M26M6+65"}, "reference": "ChIJk6dPACV7ZIgRMWIARiLiP2c", "scope": "GOOGLE", "types": ["atm", "finance", "point_of_interest", "establishment"], "vicinity": "201 Franklin Road Suite 100, Brentwood"}, {"business_status": "OPERATIONAL", "geometry": {"location": {"lat": 36.03300160000001, "lng": -86.7894359}, "viewport": {"northeast": {"lat": 36.0342647802915, "lng": -86.7878721197085}, "southwest": {"lat": 36.0315668197085, "lng": -86.79057008029152}}}, "icon": "https://maps.gstatic.com/mapfiles/place_api/icons/v1/png_71/civic_building-71.png", "name": "LBMC Staffing Solutions, LLC - Nashville", "opening_hours": {"open_now": true}, "place_id": "ChIJzZ4ZNUR7ZIgRLVShlCJNuW4", "plus_code": {"compound_code": "26M6+66 Brentwood, TN, USA", "global_code": "868M26M6+66"}, "reference": "ChIJzZ4ZNUR7ZIgRLVShlCJNuW4", "scope": "GOOGLE", "types": ["point_of_interest", "establishment"], "vicinity": "201 Franklin Road, Brentwood"}]}, {"mapped_location": "(36.10733342353022, -86.931193456028)", "address": "7555 Sawyer Brown Rd, Nashville", "results": [{"business_status": "OPERATIONAL", "geometry": {"location": {"lat": 36.106847, "lng": -86.9321159}, "viewport": {"northeast": {"lat": 36.1079657802915, "lng": -86.93012726970849}, "southwest": {"lat": 36.1052678197085, "lng": -86.93282523029151}}}, "icon": "https://maps.gstatic.com/mapfiles/place_api/icons/v1/png_71/school-71.png", "name": "Nashville Christian School", "opening_hours": {"open_now": true}, "photos": [{"height": 794, "html_attributions": ["<a href=\"https://maps.google.com/maps/contrib/112970961097038024100\">Nashville Christian School</a>"], "photo_reference": "CmRaAAAAdmeoVC9yZMHitRObXqiNulXOh5R02c7SR1KAV0z4UaMhnFVWxMzetyNfKH4WrQk3ExMUy4TxgU4PV9FVXyMBp2anOm5me09h3Ko0YdJn-XVffpQLqX6n0N5dsA3v0oFsEhBgXwt2J9KjZTnlIhkRx8d4GhRrElyigvR82vLbcMfW3qavlqm-Ng", "width": 1440}], "place_id": "ChIJEa3VFJSJZIgR0xWJ5k_DVks", "plus_code": {"compound_code": "4349+P5 Nashville, TN, USA", "global_code": "868M4349+P5"}, "rating": 3.9, "reference": "ChIJEa3VFJSJZIgR0xWJ5k_DVks", "scope": "GOOGLE", "types": ["school", "point_of_interest", "establishment"], "user_ratings_total": 11, "vicinity": "7555 Sawyer Brown Road, Nashville"}, {"business_status": "OPERATIONAL", "geometry": {"location": {"lat": 36.10876889999999, "lng": -86.9323539}, "viewport": {"northeast": {"lat": 36.10999733029149, "lng": -86.9310616697085}, "southwest": {"lat": 36.1072993697085, "lng": -86.9337596302915}}}, "icon": "https://maps.gstatic.com/mapfiles/place_api/icons/v1/png_71/worship_general-71.png", "name": "Western Hills Church of Christ", "photos": [{"height": 1080, "html_attributions": ["<a href=\"https://maps.google.com/maps/contrib/116347331851501651150\">alan osborne</a>"], "photo_reference": "CmRaAAAABU_QpsW40dwi_Mkjcv_HV3O2O-HbXyLrh3_6hsqxe1mpw6G6noCyJUb2zCN9fEjbQwWqVpAXzXQ1in90AKnDv5YZDDRf5KUbIE9X6x0F5dXMlm8ePxY5zKBZD78lY_GGEhDLIFiNLxPAV9TaDOjJIWCdGhQDmtGAZ5FO3YB_Q3vnwB0cJGfdQA", "width": 1920}], "place_id": "ChIJmV4YoqSJZIgRiJyCr4EhjRY", "plus_code": {"compound_code": "4359+G3 Nashville, TN, USA", "global_code": "868M4359+G3"}, "rating": 4.9, "reference": "ChIJmV4YoqSJZIgRiJyCr4EhjRY", "scope": "GOOGLE", "types": ["church", "place_of_worship", "point_of_interest", "establishment"], "user_ratings_total": 18, "vicinity": "7565 Charlotte Pike, Nashville"}, {"business_status": "OPERATIONAL", "geometry": {"location": {"lat": 36.1052833, "lng": -86.93347779999999}, "viewport": {"northeast": {"lat": 36.10677593029151, "lng": -86.93213776970849}, "southwest": {"lat": 36.10407796970851, "lng": -86.93483573029151}}}, "icon": "https://maps.gstatic.com/mapfiles/place_api/icons/v1/png_71/generic_business-71.png", "name": "Super Earth Communications", "place_id": "ChIJH6psSL2JZIgRr5w7GlsJLEI", "plus_code": {"compound_code": "4348+4J Nashville, TN, USA", "global_code": "868M4348+4J"}, "reference": "ChIJH6psSL2JZIgRr5w7GlsJLEI", "scope": "GOOGLE", "types": ["point_of_interest", "establishment"], "vicinity": "112 Hunters Run, Nashville"}, {"business_status": "OPERATIONAL", "geometry": {"location": {"lat": 36.1043885, "lng": -86.92969959999999}, "viewport": {"northeast": {"lat": 36.10573283029149, "lng": -86.92887574999999}, "southwest": {"lat": 36.10303486970849, "lng": -86.93217115}}}, "icon": "https://maps.gstatic.com/mapfiles/place_api/icons/v1/png_71/generic_business-71.png", "name": "Premier Tree Pros", "opening_hours": {"open_now": true}, "photos": [{"height": 1640, "html_attributions": ["<a href=\"https://maps.google.com/maps/contrib/115979252691672092433\">Dollie Jens</a>"], "photo_reference": "CmRaAAAAWkwee4xKiVY3GS78DQIlaltIjcm7iLLBezqTHGX6az2-QlvAWzSab1AiTxy04mg_pGOHKVPwjrEh6prUE2KlBvhJ9cTbPCqcrEfvAYjy_q5e-94Kq-unHYyjKbaTAFkDEhAudClYU_rQ8n8YBiDv9t8UGhQkoe73UcmMaEm51mA9Zbskq-RvQw", "width": 2048}], "place_id": "ChIJneADTPOJZIgR4cFIPrnJ4Vk", "plus_code": {"compound_code": "433C+Q4 Nashville, TN, USA", "global_code": "868M433C+Q4"}, "reference": "ChIJneADTPOJZIgR4cFIPrnJ4Vk", "scope": "GOOGLE", "types": ["point_of_interest", "establishment"], "vicinity": "7620 Sawyer Brown Road, Nashville"}, {"business_status": "OPERATIONAL", "geometry": {"location": {"lat": 36.11121490000001, "lng": -86.93043109999999}, "viewport": {"northeast": {"lat": 36.1127274802915, "lng": -86.92925321970849}, "southwest": {"lat": 36.1100295197085, "lng": -86.9319511802915}}}, "icon": "https://maps.gstatic.com/mapfiles/place_api/icons/v1/png_71/worship_general-71.png", "name": "CRBC Nashville", "place_id": "ChIJwQYV7LyJZIgRyfNqbVV_4-o", "plus_code": {"compound_code": "4369+FR Nashville, TN, USA", "global_code": "868M4369+FR"}, "rating": 5, "reference": "ChIJwQYV7LyJZIgRyfNqbVV_4-o", "scope": "GOOGLE", "types": ["church", "place_of_worship", "point_of_interest", "establishment"], "user_ratings_total": 9, "vicinity": "7511 Charlotte Pike, Nashville"}]}, {"mapped_location": "(36.13803486159629, -86.80053619325409)", "address": "1620 21st Ave S, Nashville", "results": [{"business_status": "OPERATIONAL", "geometry": {"location": {"lat": 36.138027, "lng": -86.8005201}, "viewport": {"northeast": {"lat": 36.1393838302915, "lng": -86.79925896970849}, "southwest": {"lat": 36.13668586970851, "lng": -86.8019569302915}}}, "icon": "https://maps.gstatic.com/mapfiles/place_api/icons/v1/png_71/generic_business-71.png", "name": "Village 21", "opening_hours": {"open_now": true}, "photos": [{"height": 750, "html_attributions": ["<a href=\"https://maps.google.com/maps/contrib/113618240405972401139\">Village 21</a>"], "photo_reference": "CmRaAAAAZM15KGuHBztyPWYSLQ4ie40o5qqOpURMmYdUs6oh_KSlGdD6ls_J8WnIDS708ZgfWe-3n_tH8D5VncKvqsscJ3JwCowsxxPj-csyKW8UNTUSlFoPVIiSh6X0GjIGEgLjEhA8ZFWdubgZ8cB9UPcLWqCZGhRz_Gk5ONgzJcKoE-e7ujw0K7Fprg", "width": 1400}], "place_id": "ChIJoU5VP59mZIgRPZuK25fB9ps", "plus_code": {"compound_code": "45QX+6Q Nashville, TN, USA", "global_code": "868M45QX+6Q"}, "rating": 4.5, "reference": "ChIJoU5VP59mZIgRPZuK25fB9ps", "scope": "GOOGLE", "types": ["real_estate_agency", "point_of_interest", "establishment"], "user_ratings_total": 11, "vicinity": "1620 21st Avenue South, Nashville"}, {"business_status": "OPERATIONAL", "geometry": {"location": {"lat": 36.1379796, "lng": -86.80051809999999}, "viewport": {"northeast": {"lat": 36.1392494802915, "lng": -86.79915891970849}, "southwest": {"lat": 36.1365515197085, "lng": -86.8018568802915}}}, "icon": "https://maps.gstatic.com/mapfiles/place_api/icons/v1/png_71/bank-71.png", "name": "Regions Bank", "opening_hours": {"open_now": true}, "photos": [{"height": 4032, "html_attributions": ["<a href=\"https://maps.google.com/maps/contrib/112891854882835855722\">Vasan Serca</a>"], "photo_reference": "CmRaAAAAiklKRFCGvQDdDsZJdAy-L_OGWQM3txCBS_OWZ116ZcU4ESOPTHMxD_Q6Iq3An2kNdbyqfsB-kkh5swgvPBJNjN0uINqxR07XO15LwBUvA3ZgQsRUGLvFzJqWi0YNmszXEhCWVhEwvPqP1fXzanQSCxTsGhQhgUOHtIoXAxo1A9ofp4JEDH_g_A", "width": 3024}], "place_id": "ChIJXXvgOZ9mZIgR-RhriOBnaWg", "plus_code": {"compound_code": "45QX+5Q Nashville, TN, USA", "global_code": "868M45QX+5Q"}, "rating": 4.2, "reference": "ChIJXXvgOZ9mZIgR-RhriOBnaWg", "scope": "GOOGLE", "types": ["bank", "atm", "finance", "point_of_interest", "establishment"], "user_ratings_total": 9, "vicinity": "1624 21st Avenue South, Nashville"}, {"business_status": "OPERATIONAL", "geometry": {"location": {"lat": 36.1381113, "lng": -86.800608}, "viewport": {"northeast": {"lat": 36.1394640302915, "lng": -86.7992974197085}, "southwest": {"lat": 36.1367660697085, "lng": -86.8019953802915}}}, "icon": "https://maps.gstatic.com/mapfiles/place_api/icons/v1/png_71/restaurant-71.png", "name": "The Urban Juicer", "opening_hours": {"open_now": true}, "photos": [{"height": 720, "html_attributions": ["<a href=\"https://maps.google.com/maps/contrib/112091523708386076890\">The Urban Juicer</a>"], "photo_reference": "CmRaAAAAJxOo6xlAeKdgIyfOxGtOaj8uXDDPNpxBdbdu7zu406xlr-BSeNpKhKXPIuV7R3MTa0YykxHd-Vzhr2xGgGBD1nVJssOSy4evDZzSLhGWuA_8z-RkaSqkrxobHd9eblcyEhDo611U4tgjUIchW9jyzRueGhRFQilpAsZqjDZfJUVykto0RGvnvA", "width": 720}], "place_id": "ChIJrVpTP59mZIgROjjWXwwcDyk", "plus_code": {"compound_code": "45QX+6Q Nashville, TN, USA", "global_code": "868M45QX+6Q"}, "rating": 4.4, "reference": "ChIJrVpTP59mZIgROjjWXwwcDyk", "scope": "GOOGLE", "types": ["food", "health", "point_of_interest", "store", "establishment"], "user_ratings_total": 36, "vicinity": "1622 21st Avenue South, Nashville"}, {"business_status": "OPERATIONAL", "geometry": {"location": {"lat": 36.138069, "lng": -86.80040799999999}, "viewport": {"northeast": {"lat": 36.1393075802915, "lng": -86.79905941970848}, "southwest": {"lat": 36.1366096197085, "lng": -86.8017573802915}}}, "icon": "https://maps.gstatic.com/mapfiles/place_api/icons/v1/png_71/generic_business-71.png", "name": "Western Union", "opening_hours": {"open_now": true}, "photos": [{"height": 1000, "html_attributions": ["<a href=\"https://maps.google.com/maps/contrib/108221682249847288982\">Western Union</a>"], "photo_reference": "CmRaAAAASLXz4DqHH4WwfGmkHdQ175WdyaW1-IVY7KIkKxUaIZitzWkmGCYRKQQJNEMXVWxnFaXKfecGyfkhHq6wiZAofwV5QP_eVFIQkOynuWcwl0WrbYVGnpebe9QEdQoRv1ugEhAZghkta52P480sTTE1Rw_aGhRiLgtYK9XVazVqATRQepjqyU0tHg", "width": 1000}], "place_id": "ChIJKwcyKDpnZIgRpeYfzu8pfp4", "plus_code": {"compound_code": "45QX+6R Nashville, TN, USA", "global_code": "868M45QX+6R"}, "reference": "ChIJKwcyKDpnZIgRpeYfzu8pfp4", "scope": "GOOGLE", "types": ["finance", "point_of_interest", "establishment"], "vicinity": "1624 21st Avenue South, Nashville"}, {"business_status": "OPERATIONAL", "geometry": {"location": {"lat": 36.1380954, "lng": -86.8006886}, "viewport": {"northeast": {"lat": 36.1394478302915, "lng": -86.79937836970849}, "southwest": {"lat": 36.1367498697085, "lng": -86.8020763302915}}}, "icon": "https://maps.gstatic.com/mapfiles/place_api/icons/v1/png_71/restaurant-71.png", "name": "Subway", "place_id": "ChIJS89exF9nZIgRHrhTPb4EuK8", "plus_code": {"compound_code": "45QX+6P Nashville, TN, USA", "global_code": "868M45QX+6P"}, "reference": "ChIJS89exF9nZIgRHrhTPb4EuK8", "scope": "GOOGLE", "types": ["restaurant", "food", "point_of_interest", "establishment"], "vicinity": "21st Avenue South, Nashville"}]}, {"mapped_location": "(36.11353689198222, -86.79942291229963)", "address": "3414 Belmont Blvd, Nashville", "results": [{"business_status": "OPERATIONAL", "geometry": {"location": {"lat": 36.1133788, "lng": -86.799433}, "viewport": {"northeast": {"lat": 36.1147510302915, "lng": -86.79835361970848}, "southwest": {"lat": 36.1120530697085, "lng": -86.8010515802915}}}, "icon": "https://maps.gstatic.com/mapfiles/place_api/icons/v1/png_71/school-71.png", "name": "Green Hills Child Development", "opening_hours": {"open_now": true}, "place_id": "ChIJTxruoj9kZIgRjrVgMcv0guE", "plus_code": {"compound_code": "4672+96 Nashville, TN, USA", "global_code": "868M4672+96"}, "rating": 3.7, "reference": "ChIJTxruoj9kZIgRjrVgMcv0guE", "scope": "GOOGLE", "types": ["school", "point_of_interest", "establishment"], "user_ratings_total": 6, "vicinity": "3420 Belmont Boulevard, Nashville"}, {"business_status": "OPERATIONAL", "geometry": {"location": {"lat": 36.113987, "lng": -86.79894399999999}, "viewport": {"northeast": {"lat": 36.1155458302915, "lng": -86.79753176970848}, "southwest": {"lat": 36.1128478697085, "lng": -86.80022973029149}}}, "icon": "https://maps.gstatic.com/mapfiles/place_api/icons/v1/png_71/generic_business-71.png", "name": "Pulley Cad Services", "place_id": "ChIJnaJKAz9kZIgRz7FiWOaAQwg", "plus_code": {"compound_code": "4672+HC Nashville, TN, USA", "global_code": "868M4672+HC"}, "reference": "ChIJnaJKAz9kZIgRz7FiWOaAQwg", "scope": "GOOGLE", "types": ["point_of_interest", "establishment"], "vicinity": "1511 Clifton Lane, Nashville"}, {"business_status": "OPERATIONAL", "geometry": {"location": {"lat": 36.1134885, "lng": -86.8005195}, "viewport": {"northeast": {"lat": 36.1148138302915, "lng": -86.79889581970848}, "southwest": {"lat": 36.1121158697085, "lng": -86.8015937802915}}}, "icon": "https://maps.gstatic.com/mapfiles/place_api/icons/v1/png_71/civic_building-71.png", "name": "RIP-Regional Intervention Program Nashville", "place_id": "ChIJAUH4vj9kZIgRMjc9HqKJ2PQ", "plus_code": {"compound_code": "457X+9Q Nashville, TN, USA", "global_code": "868M457X+9Q"}, "rating": 4.2, "reference": "ChIJAUH4vj9kZIgRMjc9HqKJ2PQ", "scope": "GOOGLE", "types": ["local_government_office", "point_of_interest", "establishment"], "user_ratings_total": 5, "vicinity": "3411 Belmont Boulevard, Nashville"}, {"business_status": "OPERATIONAL", "geometry": {"location": {"lat": 36.11467399999999, "lng": -86.7989113}, "viewport": {"northeast": {"lat": 36.11616078029149, "lng": -86.79782516970849}, "southwest": {"lat": 36.1134628197085, "lng": -86.8005231302915}}}, "icon": "https://maps.gstatic.com/mapfiles/place_api/icons/v1/png_71/school-71.png", "name": "Children's House of Nashville", "opening_hours": {"open_now": true}, "place_id": "ChIJmU1c_T5kZIgR2oARq6JnOsY", "plus_code": {"compound_code": "4672+VC Nashville, TN, USA", "global_code": "868M4672+VC"}, "rating": 5, "reference": "ChIJmU1c_T5kZIgR2oARq6JnOsY", "scope": "GOOGLE", "types": ["school", "point_of_interest", "establishment"], "user_ratings_total": 1, "vicinity": "3404 Belmont Boulevard, Nashville"}, {"business_status": "OPERATIONAL", "geometry": {"location": {"lat": 36.1150451, "lng": -86.7998909}, "viewport": {"northeast": {"lat": 36.11630143029149, "lng": -86.79835006970849}, "southwest": {"lat": 36.1136034697085, "lng": -86.80104803029151}}}, "icon": "https://maps.gstatic.com/mapfiles/place_api/icons/v1/png_71/shopping-71.png", "name": "The Cowboy Arms Hotel and Recording Spa", "opening_hours": {"open_now": true}, "photos": [{"height": 507, "html_attributions": ["<a href=\"https://maps.google.com/maps/contrib/111320161648676391321\">The Cowboy Arms Hotel and Recording Spa</a>"], "photo_reference": "CmRaAAAA_fv8mkZchlusyh-a456vxUyNwwhKRjDMZKrPAJio5iOmlHfiBM8dGhjIGlpqRqg0HAFjqlxj7S5KehDM89beqJFmpendmwNuaqUZ6lvr7MJ69w-Uigv78pjfAR_JBODEEhBehOI3bcSkC4MMNbaQo5lRGhQ99Hr1MCPABZmJ2iPw2Gz5swySEw", "width": 765}], "place_id": "ChIJz1qaI5FlZIgRW3g275oBoEU", "plus_code": {"compound_code": "4682+22 Nashville, TN, USA", "global_code": "868M4682+22"}, "rating": 5, "reference": "ChIJz1qaI5FlZIgRW3g275oBoEU", "scope": "GOOGLE", "types": ["electronics_store", "home_goods_store", "point_of_interest", "store", "establishment"], "user_ratings_total": 2, "vicinity": "3405 Belmont Boulevard, Nashville"}]}, {"mapped_location": "(36.23547001163774, -86.67001009325409)", "address": "1345 Neelys Bend Rd, Madison", "results": [{"business_status": "OPERATIONAL", "geometry": {"location": {"lat": 36.2354879, "lng": -86.669994}, "viewport": {"northeast": {"lat": 36.23681898029149, "lng": -86.66870246970849}, "southwest": {"lat": 36.2341210197085, "lng": -86.67140043029151}}}, "icon": "https://maps.gstatic.com/mapfiles/place_api/icons/v1/png_71/generic_business-71.png", "name": "Neely's Bend Baptist Church", "place_id": "ChIJM5vsyRlCZIgRBsZiBDf2Fdo", "plus_code": {"compound_code": "68PJ+52 Nashville, TN, USA", "global_code": "868M68PJ+52"}, "rating": 5, "reference": "ChIJM5vsyRlCZIgRBsZiBDf2Fdo", "scope": "GOOGLE", "types": ["place_of_worship", "point_of_interest", "establishment"], "user_ratings_total": 2, "vicinity": "1345 Neelys Bend Road, Madison"}, {"business_status": "OPERATIONAL", "geometry": {"location": {"lat": 36.2367155, "lng": -86.6702687}, "viewport": {"northeast": {"lat": 36.2380137802915, "lng": -86.6691972197085}, "southwest": {"lat": 36.2353158197085, "lng": -86.6718951802915}}}, "icon": "https://maps.gstatic.com/mapfiles/place_api/icons/v1/png_71/shopping-71.png", "name": "Neely's Bend Auto Parts & Sale", "opening_hours": {"open_now": true}, "photos": [{"height": 1836, "html_attributions": ["<a href=\"https://maps.google.com/maps/contrib/110555993664376454024\">daniel fusco</a>"], "photo_reference": "CmRaAAAAZ70NiFozN5dxsd1uPt15NKuqSQLP7WJo7lsV53AFDEnoIE50TbwjgdmPBdzhnhPTZhcWwqEexcZsyvqmVZFkrJM37kxLzhbZ0A_yCbUCE_3UuksKP44Jh2ibIC54M6hfEhBb9jc5BsczYM2166RvKW6HGhSoUGIK-zaMk69k5ovZnaza5AAgaw", "width": 3264}], "place_id": "ChIJW3ufRhhCZIgR3PaFNf9BkiM", "plus_code": {"compound_code": "68PH+MV Nashville, TN, USA", "global_code": "868M68PH+MV"}, "rating": 3.5, "reference": "ChIJW3ufRhhCZIgR3PaFNf9BkiM", "scope": "GOOGLE", "types": ["car_repair", "point_of_interest", "store", "establishment"], "user_ratings_total": 33, "vicinity": "1327 Neelys Bend Road, Madison"}, {"business_status": "OPERATIONAL", "geometry": {"location": {"lat": 36.2347825, "lng": -86.6656635}, "viewport": {"northeast": {"lat": 36.23695974999998, "lng": -86.66462866970849}, "southwest": {"lat": 36.23405675000001, "lng": -86.6673266302915}}}, "icon": "https://maps.gstatic.com/mapfiles/place_api/icons/v1/png_71/shopping-71.png", "name": "All State Auto Salvage", "opening_hours": {"open_now": true}, "photos": [{"height": 2988, "html_attributions": ["<a href=\"https://maps.google.com/maps/contrib/111597054821947141208\">Jedediah Lee Hope</a>"], "photo_reference": "CmRaAAAAMCP3Ue40egGxnFBUdrZayHJQTP_K7f7RB1TXuuticUmec0FBaPXqyPeK-uSsex-sJFlMttBOQwCRkMAsB_vvzfrC9-B4eLvScKo2-sMLI3ewNJWYwgLo3i0W-KBLLenDEhBLKwU1pXZGospswGCc_d_UGhSYENtJBLkvowfGKtED80UtnE-2-w", "width": 5312}], "place_id": "ChIJg-Zpzx5CZIgRv9MFMLsUCYo", "plus_code": {"compound_code": "68MM+WP Nashville, TN, USA", "global_code": "868M68MM+WP"}, "rating": 2.6, "reference": "ChIJg-Zpzx5CZIgRv9MFMLsUCYo", "scope": "GOOGLE", "types": ["car_repair", "point_of_interest", "store", "establishment"], "user_ratings_total": 5, "vicinity": "515 Nawakwa Trail, Madison"}, {"business_status": "OPERATIONAL", "geometry": {"location": {"lat": 36.2390541, "lng": -86.6683709}, "viewport": {"northeast": {"lat": 36.2402822802915, "lng": -86.66709176970848}, "southwest": {"lat": 36.2375843197085, "lng": -86.6697897302915}}}, "icon": "https://maps.gstatic.com/mapfiles/place_api/icons/v1/png_71/generic_business-71.png", "name": "John England and the Western Swingers", "place_id": "ChIJs8R9fCJCZIgRM8QRBULUZdk", "plus_code": {"compound_code": "68QJ+JM Nashville, TN, USA", "global_code": "868M68QJ+JM"}, "rating": 3, "reference": "ChIJs8R9fCJCZIgRM8QRBULUZdk", "scope": "GOOGLE", "types": ["point_of_interest", "establishment"], "user_ratings_total": 2, "vicinity": "209 Chesterton Court, Madison"}, {"business_status": "OPERATIONAL", "geometry": {"location": {"lat": 36.2392639, "lng": -86.6722538}, "viewport": {"northeast": {"lat": 36.2406795302915, "lng": -86.67078106970848}, "southwest": {"lat": 36.2379815697085, "lng": -86.67347903029149}}}, "icon": "https://maps.gstatic.com/mapfiles/place_api/icons/v1/png_71/generic_business-71.png", "name": "Neely's Bend Haircutters", "opening_hours": {"open_now": true}, "place_id": "ChIJUQhkXD1CZIgR9M5oWkNoECk", "plus_code": {"compound_code": "68QH+P3 Nashville, TN, USA", "global_code": "868M68QH+P3"}, "rating": 5, "reference": "ChIJUQhkXD1CZIgR9M5oWkNoECk", "scope": "GOOGLE", "types": ["hair_care", "health", "point_of_interest", "establishment"], "user_ratings_total": 11, "vicinity": "1308 Neelys Bend Road #5515, Madison"}]}, {"mapped_location": "(36.27792, -86.70877)", "address": "848 Gallatin Pike N, Madison", "results": [{"business_status": "OPERATIONAL", "geometry": {"location": {"lat": 36.27798689999999, "lng": -86.708624}, "viewport": {"northeast": {"lat": 36.2793407302915, "lng": -86.7074733697085}, "southwest": {"lat": 36.2766427697085, "lng": -86.71017133029152}}}, "icon": "https://maps.gstatic.com/mapfiles/place_api/icons/v1/png_71/shopping-71.png", "name": "Northern Tool + Equipment", "opening_hours": {"open_now": true}, "photos": [{"height": 375, "html_attributions": ["<a href=\"https://maps.google.com/maps/contrib/103251370865655668310\">Northern Tool</a>"], "photo_reference": "CmRaAAAAdwlaXslBrp9WGp3gJ1-pj7K4HW-xtWTWxpepuR_SV5XmHRTH77KhrOTV6JuJSJkF94CCR-Tyg6y4oXnGZpxBf-EJSNADi7BgNyN4DgtnWJ9d_L4CJk5ey-a2CYvhleIVEhAB58CvsAaJt272hjqpdyDYGhTefRKPF1bMEm18nbJnCtCw2hyJHw", "width": 500}], "place_id": "ChIJqYUL0Q1DZIgRVaSEeAxDbpg", "plus_code": {"compound_code": "77HR+5H Nashville, TN, USA", "global_code": "868M77HR+5H"}, "rating": 4.3, "reference": "ChIJqYUL0Q1DZIgRVaSEeAxDbpg", "scope": "GOOGLE", "types": ["hardware_store", "home_goods_store", "point_of_interest", "store", "establishment"], "user_ratings_total": 164, "vicinity": "1008 Gallatin Pike North, Madison"}, {"business_status": "OPERATIONAL", "geometry": {"location": {"lat": 36.2787147, "lng": -86.7087384}, "viewport": {"northeast": {"lat": 36.2801195802915, "lng": -86.70757566970849}, "southwest": {"lat": 36.2774216197085, "lng": -86.7102736302915}}}, "icon": "https://maps.gstatic.com/mapfiles/place_api/icons/v1/png_71/generic_business-71.png", "name": "Meineke Car Care Center", "opening_hours": {"open_now": true}, "photos": [{"height": 2988, "html_attributions": ["<a href=\"https://maps.google.com/maps/contrib/104328593776683753436\">Elicia Jackson</a>"], "photo_reference": "CmRaAAAANxUhleo4jLnVxG2qMd-Zomw0QxjVy_OxcdfVI_GTgP5tPyTSsSsw3TXzf6_fB4crlTOkRBnxp_-BDOSJg4yHP-W8x1gLNpIt4xDMNmvvPRmsrlH0e69xHPX0ZCZfNCeVEhARvISZfnkvWeo1eC47CPVEGhTQkFpwcmIOh9B7YqJsY-PAA8Jflg", "width": 3984}], "place_id": "ChIJ36RSNAxDZIgRcAdPNwD2Rpg", "plus_code": {"compound_code": "77HR+FG Nashville, TN, USA", "global_code": "868M77HR+FG"}, "rating": 4.2, "reference": "ChIJ36RSNAxDZIgRcAdPNwD2Rpg", "scope": "GOOGLE", "types": ["car_repair", "point_of_interest", "store", "establishment"], "user_ratings_total": 125, "vicinity": "1106 North, Gallatin Pike North, Madison"}, {"business_status": "OPERATIONAL", "geometry": {"location": {"lat": 36.27897129999999, "lng": -86.7084627}, "viewport": {"northeast": {"lat": 36.2803961802915, "lng": -86.70736651970849}, "southwest": {"lat": 36.2776982197085, "lng": -86.7100644802915}}}, "icon": "https://maps.gstatic.com/mapfiles/place_api/icons/v1/png_71/shopping-71.png", "name": "Discount Motors, Inc.", "opening_hours": {"open_now": true}, "place_id": "ChIJy3hVSgxDZIgR2E4e6fv6QGY", "plus_code": {"compound_code": "77HR+HJ Nashville, TN, USA", "global_code": "868M77HR+HJ"}, "rating": 4.3, "reference": "ChIJy3hVSgxDZIgR2E4e6fv6QGY", "scope": "GOOGLE", "types": ["car_dealer", "point_of_interest", "store", "establishment"], "user_ratings_total": 42, "vicinity": "1108 Gallatin Pike North #2738, Madison"}, {"business_status": "OPERATIONAL", "geometry": {"location": {"lat": 36.27894630000001, "lng": -86.7093581}, "viewport": {"northeast": {"lat": 36.2802538802915, "lng": -86.70787696970851}, "southwest": {"lat": 36.2775559197085, "lng": -86.71057493029151}}}, "icon": "https://maps.gstatic.com/mapfiles/place_api/icons/v1/png_71/shopping-71.png", "name": "Spartan Auto Sales, LLC", "opening_hours": {"open_now": true}, "photos": [{"height": 4032, "html_attributions": ["<a href=\"https://maps.google.com/maps/contrib/106630552597284507983\">Spartan Auto Sales, LLC</a>"], "photo_reference": "CmRaAAAAxZ8In_LT0L9xzHCnZtS1rwW58l6AbPKIbYvnSAfn2BsWQexS890bgcHSmgqD5Tz1zLkd3XEVipBmqNUiPUyi7m-7JPdX1jaltzAAKCyxyNwp0t7UzAZ198neE_k659PFEhDt2e_Kmyn_AJZn2vmiFPjDGhRagn10aasS_rvOGBYn5dGnSUt8_Q", "width": 3024}], "place_id": "ChIJHdwynKVDZIgRBbQHV0ft9nE", "plus_code": {"compound_code": "77HR+H7 Nashville, TN, USA", "global_code": "868M77HR+H7"}, "rating": 3.7, "reference": "ChIJHdwynKVDZIgRBbQHV0ft9nE", "scope": "GOOGLE", "types": ["car_dealer", "point_of_interest", "store", "establishment"], "user_ratings_total": 31, "vicinity": "1087 N Gallatin Pike North, Madison"}, {"business_status": "OPERATIONAL", "geometry": {"location": {"lat": 36.2789738, "lng": -86.7094645}, "viewport": {"northeast": {"lat": 36.28026723029149, "lng": -86.70793036970849}, "southwest": {"lat": 36.27756926970849, "lng": -86.71062833029151}}}, "icon": "https://maps.gstatic.com/mapfiles/place_api/icons/v1/png_71/shopping-71.png", "name": "Nashville Hybrids LLC", "opening_hours": {"open_now": false}, "photos": [{"height": 1632, "html_attributions": ["<a href=\"https://maps.google.com/maps/contrib/110850974206452105702\">Nashville Hybrids LLC</a>"], "photo_reference": "CmRaAAAAG7qu5jInwIuoWvyg0uAK4aSF1TuYE9u9-iWuqqHNXT2-CKktl5ZqEXT4hOU6SUNmkC15J0FMPsQDmCsaPctGI6s00jM_DBlGd-A7MpysO8fGS1oENmZsZGQ7BkbdzsNnEhDvceKN0EdHOfUQkteHvb95GhQ9SCyPae0qgI-2LLTcdGrnYXQLUg", "width": 2464}], "place_id": "ChIJgwioTAxDZIgRI9UT7qhS4pI", "plus_code": {"compound_code": "77HR+H6 Nashville, TN, USA", "global_code": "868M77HR+H6"}, "rating": 4.2, "reference": "ChIJgwioTAxDZIgRI9UT7qhS4pI", "scope": "GOOGLE", "types": ["car_dealer", "point_of_interest", "store", "establishment"], "user_ratings_total": 29, "vicinity": "1087 Gallatin Pike North, Madison"}]}, {"mapped_location": "(36.26498802975397, -86.71058479696512)", "address": "306 TN-6, Nashville", "results": [{"business_status": "OPERATIONAL", "geometry": {"location": {"lat": 36.2649649, "lng": -86.71070449999999}, "viewport": {"northeast": {"lat": 36.2663354302915, "lng": -86.70948251970847}, "southwest": {"lat": 36.2636374697085, "lng": -86.71218048029148}}}, "icon": "https://maps.gstatic.com/mapfiles/place_api/icons/v1/png_71/bank-71.png", "name": "Fifth Third Bank & ATM", "opening_hours": {"open_now": true}, "photos": [{"height": 311, "html_attributions": ["<a href=\"https://maps.google.com/maps/contrib/114496113844687054039\">Fifth Third Bank &amp; ATM</a>"], "photo_reference": "CmRaAAAAS1DN1xsYDLQJLtQydK6I6J2hRrlUi7DHCX3cLCLRPAwspwaEbLnEL_SwaBSiRXk4ELL0ZC59L0CGsfFIE4GEc516oqph5-shHkRW40usFaoCf_v6NXcMQ4Mkt8lMTEMHEhC4yeHxUMWoAsAxLi3kS3u3GhTlFOx_Y0jEPx_XPpNDxVwKberqaA", "width": 554}], "place_id": "ChIJCaXsOgNDZIgRNFUPA51X9uU", "plus_code": {"compound_code": "777Q+XP Nashville, TN, USA", "global_code": "868M777Q+XP"}, "rating": 2.7, "reference": "ChIJCaXsOgNDZIgRNFUPA51X9uU", "scope": "GOOGLE", "types": ["bank", "atm", "finance", "point_of_interest", "establishment"], "user_ratings_total": 23, "vicinity": "306 North Gallatin Pike North, Madison"}, {"business_status": "OPERATIONAL", "geometry": {"location": {"lat": 36.2649646, "lng": -86.7108032}, "viewport": {"northeast": {"lat": 36.2663298302915, "lng": -86.7095335697085}, "southwest": {"lat": 36.2636318697085, "lng": -86.7122315302915}}}, "icon": "https://maps.gstatic.com/mapfiles/place_api/icons/v1/png_71/atm-71.png", "name": "Fifth Third Bank ATM", "place_id": "ChIJIbpAOgNDZIgRiacKSGk_WEk", "plus_code": {"compound_code": "777Q+XM Nashville, TN, USA", "global_code": "868M777Q+XM"}, "reference": "ChIJIbpAOgNDZIgRiacKSGk_WEk", "scope": "GOOGLE", "types": ["atm", "finance", "point_of_interest", "establishment"], "vicinity": "Madison"}, {"business_status": "OPERATIONAL", "geometry": {"location": {"lat": 36.26533610000001, "lng": -86.7106242}, "viewport": {"northeast": {"lat": 36.2665728302915, "lng": -86.70943251970849}, "southwest": {"lat": 36.2638748697085, "lng": -86.71213048029149}}}, "icon": "https://maps.gstatic.com/mapfiles/place_api/icons/v1/png_71/generic_business-71.png", "name": "UPS Access Point location", "opening_hours": {"open_now": true}, "photos": [{"height": 1080, "html_attributions": ["<a href=\"https://maps.google.com/maps/contrib/116998538131478955517\">UPS Access Point location</a>"], "photo_reference": "CmRaAAAAGMSVTNo5goriunB3cmiV84DLiDI70_5XvwbmWs4nXf3PPIkxpCs6T4-YPtQQ2eGxzveemUch_23c6Z5RpJOaNFFxcfsELnowV9QG2NQbJbq3-MktPR7GV6QUc-tjSHVOEhDG4F5qkbwuR2zorc9BAdwaGhRJCQ3rmJcZpsiumSqlZ5ecPqp5Uw", "width": 956}], "place_id": "ChIJu8_TskNDZIgRUxSbUxRYT2g", "plus_code": {"compound_code": "778Q+4Q Nashville, TN, USA", "global_code": "868M778Q+4Q"}, "reference": "ChIJu8_TskNDZIgRUxSbUxRYT2g", "scope": "GOOGLE", "types": ["point_of_interest", "establishment"], "vicinity": "314 Gallatin Pike North, Madison"}, {"business_status": "OPERATIONAL", "geometry": {"location": {"lat": 36.26538539999999, "lng": -86.71064349999999}, "viewport": {"northeast": {"lat": 36.26659748029149, "lng": -86.70944216970848}, "southwest": {"lat": 36.2638995197085, "lng": -86.71214013029149}}}, "icon": "https://maps.gstatic.com/mapfiles/place_api/icons/v1/png_71/shopping-71.png", "name": "Advance Auto Parts", "opening_hours": {"open_now": true}, "photos": [{"height": 288, "html_attributions": ["<a href=\"https://maps.google.com/maps/contrib/102772650037474484092\">Advance Auto Parts</a>"], "photo_reference": "CmRaAAAAskr58qw-uy7tRst6Alo4X6WKp2HMzpxcMNdfwPA6MPpTUi3GAdHGhqEz5Cr7T_hiG0cRgskeqt7By2WzYNA4v38IUtNVFWfwBLbZymDbsWRkIPT2r0QhGExbKt6u4MnuEhCM6XuhH49CX3J2pp85XoAEGhS3SSPgj_EZph8afLDBeDTrf56Wqg", "width": 512}], "place_id": "ChIJiRSB8eJCZIgRzUuDrvM-FPQ", "plus_code": {"compound_code": "778Q+5P Nashville, TN, USA", "global_code": "868M778Q+5P"}, "rating": 4.2, "reference": "ChIJiRSB8eJCZIgRzUuDrvM-FPQ", "scope": "GOOGLE", "types": ["car_repair", "point_of_interest", "store", "establishment"], "user_ratings_total": 150, "vicinity": "314 Gallatin Pike North, Madison"}, {"business_status": "OPERATIONAL", "geometry": {"location": {"lat": 36.2652381, "lng": -86.7113923}, "viewport": {"northeast": {"lat": 36.2665663802915, "lng": -86.7099349697085}, "southwest": {"lat": 36.2638684197085, "lng": -86.7126329302915}}}, "icon": "https://maps.gstatic.com/mapfiles/place_api/icons/v1/png_71/generic_business-71.png", "name": "Madison Title Loans", "opening_hours": {"open_now": true}, "place_id": "ChIJL4CUyxxDZIgR5qKf6uM3a2M", "plus_code": {"compound_code": "778Q+3C Nashville, TN, USA", "global_code": "868M778Q+3C"}, "rating": 4.9, "reference": "ChIJL4CUyxxDZIgR5qKf6uM3a2M", "scope": "GOOGLE", "types": ["finance", "point_of_interest", "establishment"], "user_ratings_total": 8, "vicinity": "337 Gallatin Pike North, Madison"}]}, {"mapped_location": "(36.110182, -86.7243944)", "address": "55 E Thompson Ln, Nashville", "results": [{"business_status": "OPERATIONAL", "geometry": {"location": {"lat": 36.110182, "lng": -86.7243944}, "viewport": {"northeast": {"lat": 36.1115309802915, "lng": -86.7230454197085}, "southwest": {"lat": 36.1088330197085, "lng": -86.7257433802915}}}, "icon": "https://maps.gstatic.com/mapfiles/place_api/icons/v1/png_71/restaurant-71.png", "name": "Honest Indian Restaurant Nashville", "opening_hours": {"open_now": true}, "photos": [{"height": 3024, "html_attributions": ["<a href=\"https://maps.google.com/maps/contrib/109293885118195753848\">Honest Indian Restaurant Nashville</a>"], "photo_reference": "CmRaAAAAobGL_x0YktVeGlVHmzQPQuB1MZ7IsZTigv6020nnaVKhBQIxKJpg7HL4qXuoi_7HH0O5ufznDYZAHAc_k0OxmgkFt7cxMLhZN2RluRpvgKoeqM_FvLSrpUvGZIdhwWDGEhDRzE_58ju8hpezC6pWtARJGhQOy_RNNKJStAMYrpyXBrCSszLkJw", "width": 4032}], "place_id": "ChIJyUFrXG1vZIgR2W5NRppHGKA", "plus_code": {"compound_code": "476G+36 Nashville, TN, USA", "global_code": "868M476G+36"}, "rating": 4.5, "reference": "ChIJyUFrXG1vZIgR2W5NRppHGKA", "scope": "GOOGLE", "types": ["restaurant", "food", "point_of_interest", "establishment"], "user_ratings_total": 80, "vicinity": "55 East Thompson Lane Suite 105, Nashville"}, {"business_status": "OPERATIONAL", "geometry": {"location": {"lat": 36.110182, "lng": -86.7243944}, "viewport": {"northeast": {"lat": 36.1116329802915, "lng": -86.72309196970849}, "southwest": {"lat": 36.1089350197085, "lng": -86.7257899302915}}}, "icon": "https://maps.gstatic.com/mapfiles/place_api/icons/v1/png_71/school-71.png", "name": "Kroger Training Center", "opening_hours": {"open_now": true}, "photos": [{"height": 1440, "html_attributions": ["<a href=\"https://maps.google.com/maps/contrib/106491350980347208133\">Josh Anderson</a>"], "photo_reference": "CmRaAAAAKHielOAsFJi-zX0vB_9AfoqM7LE4hFUpUI5P_zKbkxFNYaMCiV8zSU-JD87QgVxyFGJeuBDp40Z16YCyp_LQdrcKBqw3QpoVUW_aEszPrwo4hKfvVQVPWXqaJ_Koqie7EhBQfJS0jD_gvqfRRs3uWZ5ZGhRL2JFZ1rY_65C4O8ThX_p9dFcTNA", "width": 2560}], "place_id": "ChIJQXC91kFvZIgRmDQVood8oTk", "plus_code": {"compound_code": "476G+36 Nashville, TN, USA", "global_code": "868M476G+36"}, "price_level": 2, "rating": 4.8, "reference": "ChIJQXC91kFvZIgRmDQVood8oTk", "scope": "GOOGLE", "types": ["point_of_interest", "establishment"], "user_ratings_total": 5, "vicinity": "55 East Thompson Lane Suite 100, Nashville"}, {"business_status": "OPERATIONAL", "geometry": {"location": {"lat": 36.1101661, "lng": -86.72446080000002}, "viewport": {"northeast": {"lat": 36.1116153302915, "lng": -86.72314451970848}, "southwest": {"lat": 36.1089173697085, "lng": -86.7258424802915}}}, "icon": "https://maps.gstatic.com/mapfiles/place_api/icons/v1/png_71/shopping-71.png", "name": "Sally Beauty", "opening_hours": {"open_now": true}, "photos": [{"height": 1440, "html_attributions": ["<a href=\"https://maps.google.com/maps/contrib/106491350980347208133\">Josh Anderson</a>"], "photo_reference": "CmRaAAAABAN-lZ8wWh2Yvc5ROzLZ0RCB7t7XYmZJWbJEvGIzOsXambdhPnvqvNqHp5kMdxdNgBEaCDOE2cE1WjORe-SI8lcC2k7g0rIc5x5b0f47Zv8RdgVBPP4zfAO4YbEjpxvLEhDNWkZ-bdGmWDz7hJgJ72-6GhTWA5hD5OfXNDp914KB0Z-z8riPPA", "width": 2560}], "place_id": "ChIJowPm0EFvZIgRCnsw2G89Zx8", "plus_code": {"compound_code": "476G+36 Nashville, TN, USA", "global_code": "868M476G+36"}, "price_level": 1, "rating": 4.1, "reference": "ChIJowPm0EFvZIgRCnsw2G89Zx8", "scope": "GOOGLE", "types": ["point_of_interest", "store", "establishment"], "user_ratings_total": 36, "vicinity": "55 East Thompson Lane Suite 106, Nashville"}, {"business_status": "OPERATIONAL", "geometry": {"location": {"lat": 36.11027869999999, "lng": -86.72447799999999}, "viewport": {"northeast": {"lat": 36.11151563029149, "lng": -86.72359041970849}, "southwest": {"lat": 36.10881766970849, "lng": -86.72628838029149}}}, "icon": "https://maps.gstatic.com/mapfiles/place_api/icons/v1/png_71/generic_business-71.png", "name": "KeyMe", "opening_hours": {"open_now": true}, "photos": [{"height": 4032, "html_attributions": ["<a href=\"https://maps.google.com/maps/contrib/104391714533667975979\">KeyMe</a>"], "photo_reference": "CmRaAAAAlJVuTdE9Vh-x_ta-U5zUi6I3MS3ZbfKv6EFplETmpu0wT9NtFrfmHjYPYf-u4tgnK0jmoGh5F4wiBeXh5sq-i3DaRmfoeAfZLK5hVmrWCh9JJ3WZHUYiYle-z1NDRSuOEhBhFrJJZDD38rsj70WK3x8nGhSvr_AFkXAhM8_F8434YDViafSEjA", "width": 3024}], "place_id": "ChIJHwDMau1vZIgRFTEk7yOUEHs", "plus_code": {"compound_code": "476G+46 Nashville, TN, USA", "global_code": "868M476G+46"}, "rating": 4.8, "reference": "ChIJHwDMau1vZIgRFTEk7yOUEHs", "scope": "GOOGLE", "types": ["locksmith", "point_of_interest", "establishment"], "user_ratings_total": 4, "vicinity": "61 East Thompson Lane, Nashville"}, {"business_status": "OPERATIONAL", "geometry": {"location": {"lat": 36.11027889999999, "lng": -86.72447799999999}, "viewport": {"northeast": {"lat": 36.11167623029149, "lng": -86.72315106970849}, "southwest": {"lat": 36.10897826970849, "lng": -86.7258490302915}}}, "icon": "https://maps.gstatic.com/mapfiles/place_api/icons/v1/png_71/generic_business-71.png", "name": "Western Union", "opening_hours": {"open_now": true}, "photos": [{"height": 1440, "html_attributions": ["<a href=\"https://maps.google.com/maps/contrib/106491350980347208133\">Josh Anderson</a>"], "photo_reference": "CmRaAAAA4zy2glbX-IarDO9f0EOh84Llr8zL9J53tGIRvf_JzbdQ5apLXa2iK2STZDSFwtehl7C5KaxuN4HNjR-A1RHtUhM7rSXXw0ytO96znapkfT2PsPoL0C8t4mnOmn2rVpMsEhD1yJbt5y6LtOxgqDS6c5k3GhRgoE2PRJI3bVPIGg1ep4V1l9xmdQ", "width": 2560}], "place_id": "ChIJc8iC30FvZIgRAVoqFWj19wU", "plus_code": {"compound_code": "476G+46 Nashville, TN, USA", "global_code": "868M476G+46"}, "rating": 5, "reference": "ChIJc8iC30FvZIgRAVoqFWj19wU", "scope": "GOOGLE", "types": ["finance", "point_of_interest", "establishment"], "user_ratings_total": 1, "vicinity": "Kroger, 61 East Thompson Lane, Nashville"}]}, {"mapped_location": "(36.1805833, -86.80365429999999)", "address": "1006 Buchanan St, Nashville", "results": [{"business_status": "OPERATIONAL", "geometry": {"location": {"lat": 36.18061410000001, "lng": -86.80366120000001}, "viewport": {"northeast": {"lat": 36.1818572302915, "lng": -86.8022997197085}, "southwest": {"lat": 36.1791592697085, "lng": -86.8049976802915}}}, "icon": "https://maps.gstatic.com/mapfiles/place_api/icons/v1/png_71/restaurant-71.png", "name": "The Rollout", "place_id": "ChIJI6KOaeNnZIgRMJ9eTLUeP_I", "plus_code": {"compound_code": "55JW+6G Nashville, TN, USA", "global_code": "868M55JW+6G"}, "reference": "ChIJI6KOaeNnZIgRMJ9eTLUeP_I", "scope": "GOOGLE", "types": ["restaurant", "food", "point_of_interest", "establishment"], "vicinity": "1006 Buchanan Street, Nashville"}, {"business_status": "OPERATIONAL", "geometry": {"location": {"lat": 36.18067999999999, "lng": -86.80367}, "viewport": {"northeast": {"lat": 36.1818899302915, "lng": -86.8023085697085}, "southwest": {"lat": 36.1791919697085, "lng": -86.80500653029151}}}, "icon": "https://maps.gstatic.com/mapfiles/place_api/icons/v1/png_71/restaurant-71.png", "name": "Slim & Husky\u2019s - The Rollout (Take Out Only)", "opening_hours": {"open_now": true}, "photos": [{"height": 3024, "html_attributions": ["<a href=\"https://maps.google.com/maps/contrib/100276505535751969319\">Kyle Niedrich</a>"], "photo_reference": "CmRaAAAAojfcXxuM4rTROWTvNKu-iwcK7c7TBCgEpxABxCl0GR1ODsXU8i3s6rZ8yJ22K4nvrFvaiKRjBxPkcelxNtjKN1EEV3tuqkRFObGUR8AVeirUcjm1ofDO-yx3eZpBQyaEEhCV8st5BPIfTN4f-inZZxZHGhS2fC47xQ90BNJ6orsIlg6HLZ6oeQ", "width": 4032}], "place_id": "ChIJPYV8uiFnZIgRqGZQfI7TsNs", "plus_code": {"compound_code": "55JW+7G Nashville, TN, USA", "global_code": "868M55JW+7G"}, "rating": 4.7, "reference": "ChIJPYV8uiFnZIgRqGZQfI7TsNs", "scope": "GOOGLE", "types": ["meal_takeaway", "restaurant", "food", "point_of_interest", "store", "establishment"], "user_ratings_total": 303, "vicinity": "1006 Buchanan Street, Nashville"}, {"business_status": "OPERATIONAL", "geometry": {"location": {"lat": 36.1806502, "lng": -86.80335699999999}, "viewport": {"northeast": {"lat": 36.18188488029151, "lng": -86.80198331970848}, "southwest": {"lat": 36.17918691970851, "lng": -86.8046812802915}}}, "icon": "https://maps.gstatic.com/mapfiles/place_api/icons/v1/png_71/bar-71.png", "name": "Minerva Avenue", "opening_hours": {"open_now": false}, "photos": [{"height": 720, "html_attributions": ["<a href=\"https://maps.google.com/maps/contrib/110341980632736663298\">Minerva Avenue</a>"], "photo_reference": "CmRaAAAAgxlYMCR56YqWpswkRcFSRo_NWHd6CgkyEqAjX-8JjF7mp8inNNZ1f4AUZM4cXr2_vq7xKY4Cwo0c2UH8GhVTZmstI3Q0kpg3b-pEYduf684DGAm8C0vRht9Wc32ClH8jEhCwlDgooqOO2UEYaGdUrIeDGhRAvcy99pubiIxnpqV8bEymrHP7hA", "width": 1080}], "place_id": "ChIJ-8GoGzZnZIgRJLPiQjBdRZE", "plus_code": {"compound_code": "55JW+7M Nashville, TN, USA", "global_code": "868M55JW+7M"}, "price_level": 2, "rating": 4.2, "reference": "ChIJ-8GoGzZnZIgRJLPiQjBdRZE", "scope": "GOOGLE", "types": ["bar", "point_of_interest", "establishment"], "user_ratings_total": 199, "vicinity": "1002 Buchanan Street, Nashville"}, {"business_status": "OPERATIONAL", "geometry": {"location": {"lat": 36.1806115, "lng": -86.8033294}, "viewport": {"northeast": {"lat": 36.1818653802915, "lng": -86.80197191970848}, "southwest": {"lat": 36.1791674197085, "lng": -86.8046698802915}}}, "icon": "https://maps.gstatic.com/mapfiles/place_api/icons/v1/png_71/restaurant-71.png", "name": "Music City Hot Dogs", "opening_hours": {"open_now": false}, "photos": [{"height": 608, "html_attributions": ["<a href=\"https://maps.google.com/maps/contrib/116388350551844922268\">Music City Hot Dogs</a>"], "photo_reference": "CmRaAAAA8iAI-dYYxb34Rav4fGZsm7IxikF1XxMz6RgKc7EU_UondY9VoWnRTKADMdASKqwJsvdZi_ylEiT_ecTKwUuPf3MYaPliMyZ-1CmZcDE5lqf9iDYwQUTZF0rpsYiZnwE5EhAe9J1P1blgIPqGE0qsPk0ZGhQx8RvhWZT0LideUq_eo5vP9cAtdA", "width": 1080}], "place_id": "ChIJo2VG0fJnZIgRlZ9iT2BI8qE", "plus_code": {"compound_code": "55JW+6M Nashville, TN, USA", "global_code": "868M55JW+6M"}, "rating": 5, "reference": "ChIJo2VG0fJnZIgRlZ9iT2BI8qE", "scope": "GOOGLE", "types": ["restaurant", "food", "point_of_interest", "establishment"], "user_ratings_total": 5, "vicinity": "1002 Buchanan Street, Nashville"}, {"business_status": "OPERATIONAL", "geometry": {"location": {"lat": 36.1802767, "lng": -86.8034898}, "viewport": {"northeast": {"lat": 36.1816924802915, "lng": -86.80214681970848}, "southwest": {"lat": 36.1789945197085, "lng": -86.8048447802915}}}, "icon": "https://maps.gstatic.com/mapfiles/place_api/icons/v1/png_71/generic_business-71.png", "name": "Wells Shine Service", "opening_hours": {"open_now": true}, "photos": [{"height": 332, "html_attributions": ["<a href=\"https://maps.google.com/maps/contrib/114003948613600171151\">Wells Shine Service</a>"], "photo_reference": "CmRaAAAAOD7W4R8bYI45m3hB5vRnwKS3TU8qN-yh7gKaTphqyTEmN13lK9fXA9gRXbCH2Gm_inQEKdAzqa7-96jXmVJnagB79AU07z7Fg7Gx2VbM3xyAcaUGFd7CL9D6nfJvCs6vEhCAARSAJiIT-elLuLd8YL9KGhR79A0uOXWQxUCRGNl-pjv6bmdCpg", "width": 592}], "place_id": "ChIJAQCwtiFnZIgR5nGNAwxFj5s", "plus_code": {"compound_code": "55JW+4J Nashville, TN, USA", "global_code": "868M55JW+4J"}, "rating": 5, "reference": "ChIJAQCwtiFnZIgR5nGNAwxFj5s", "scope": "GOOGLE", "types": ["point_of_interest", "establishment"], "user_ratings_total": 113, "vicinity": "1003 Buchanan Street, Nashville"}]}, {"mapped_location": "(36.2299713, -86.8683538)", "address": "4678 Eatons Creek Rd, Nashville", "results": [{"business_status": "OPERATIONAL", "geometry": {"location": {"lat": 36.23006709999999, "lng": -86.8676103}, "viewport": {"northeast": {"lat": 36.23146558029149, "lng": -86.86662206970848}, "southwest": {"lat": 36.22876761970849, "lng": -86.8693200302915}}}, "icon": "https://maps.gstatic.com/mapfiles/place_api/icons/v1/png_71/generic_business-71.png", "name": "Annie Acres", "opening_hours": {"open_now": true}, "photos": [{"height": 1343, "html_attributions": ["<a href=\"https://maps.google.com/maps/contrib/110243503014080744729\">Annie Acres</a>"], "photo_reference": "CmRaAAAAzycBvWBIaoyKI2FoW_-hhw1IWOx-CrRQN3e8ifgc7PlhR1ETJ836ImadYhW4dMriSF3rZI_6Rd5SfYsHNCxkpjdkD1wEHmJeGyqfWtRqpDNjWWnTmBjXyC7fLrysaoYxEhA6G3GMR3lhxvaaGFgxcpUtGhSS-wBd7GfO7KWlHkur1lxK2rg-Jw", "width": 2048}], "place_id": "ChIJ-RdKe9FfZIgR955A-Di1Yzo", "plus_code": {"compound_code": "64JJ+2X Nashville, TN, USA", "global_code": "868M64JJ+2X"}, "rating": 5, "reference": "ChIJ-RdKe9FfZIgR955A-Di1Yzo", "scope": "GOOGLE", "types": ["point_of_interest", "establishment"], "user_ratings_total": 13, "vicinity": "4610 Eatons Creek Road, Nashville"}, {"business_status": "OPERATIONAL", "geometry": {"location": {"lat": 36.2285927, "lng": -86.8670082}, "viewport": {"northeast": {"lat": 36.2296699302915, "lng": -86.8663205197085}, "southwest": {"lat": 36.2269719697085, "lng": -86.8690184802915}}}, "icon": "https://maps.gstatic.com/mapfiles/place_api/icons/v1/png_71/shopping-71.png", "name": "Flowers' Farms", "opening_hours": {"open_now": true}, "photos": [{"height": 1536, "html_attributions": ["<a href=\"https://maps.google.com/maps/contrib/103414946545038646353\">Flowers&#39; Farms</a>"], "photo_reference": "CmRaAAAA-La5nBsWYPmqQspVWKSLgIQyJUZ8Sy3bTK8sab8Bi6kMI1SGf0ByFlDxU9YfwAH9CsanI2cgy-fCDe6x4ivd0dxXa4DgQVQ0gAWnLc0ZR5vUMBe4QwRs40g1_hcEnEppEhDIY289PinNUe8PWSYWO7CGGhQYlUKnZxw8O9ebdytzABvLoxIf7Q", "width": 2048}], "place_id": "ChIJI68bp9ZfZIgRX1kZ6uwvvB8", "plus_code": {"compound_code": "64HM+C5 Nashville, TN, USA", "global_code": "868M64HM+C5"}, "rating": 4.9, "reference": "ChIJI68bp9ZfZIgRX1kZ6uwvvB8", "scope": "GOOGLE", "types": ["food", "point_of_interest", "store", "establishment"], "user_ratings_total": 47, "vicinity": "4550 Eatons Creek Road, Nashville"}, {"business_status": "OPERATIONAL", "geometry": {"location": {"lat": 36.234395, "lng": -86.86823799999999}, "viewport": {"northeast": {"lat": 36.23555143029149, "lng": -86.86724406970849}, "southwest": {"lat": 36.23285346970849, "lng": -86.8699420302915}}}, "icon": "https://maps.gstatic.com/mapfiles/place_api/icons/v1/png_71/generic_business-71.png", "name": "Further Farms", "opening_hours": {"open_now": true}, "photos": [{"height": 960, "html_attributions": ["<a href=\"https://maps.google.com/maps/contrib/118027132671602850964\">Further Farms</a>"], "photo_reference": "CmRaAAAAUq2BuWsSc7dZveIDxhQIATW6YSF14edFs5aTOEPjdXmma8bFHgn59GzBR6Vy0XE0rENy6GgXpsDf_XtRhapacXp_aDakNKKDKHfArxZs2Mgx5ZW1MVfg7LfMISJeibaBEhBIwcNTT-VKdlWS7dqhCyZ2GhTWzluMlrIiamaZvgNbEIHIVexIJw", "width": 1440}], "place_id": "ChIJfynEFM5fZIgRAKRurawc9RE", "plus_code": {"compound_code": "64MJ+QP Nashville, TN, USA", "global_code": "868M64MJ+QP"}, "rating": 4.6, "reference": "ChIJfynEFM5fZIgRAKRurawc9RE", "scope": "GOOGLE", "types": ["museum", "point_of_interest", "establishment"], "user_ratings_total": 11, "vicinity": "4700 Eatons Creek Road, Nashville"}, {"business_status": "OPERATIONAL", "geometry": {"location": {"lat": 36.2346489, "lng": -86.863565}, "viewport": {"northeast": {"lat": 36.2359978802915, "lng": -86.86221601970848}, "southwest": {"lat": 36.2332999197085, "lng": -86.86491398029149}}}, "icon": "https://maps.gstatic.com/mapfiles/place_api/icons/v1/png_71/generic_business-71.png", "name": "Woodland Hollow at Annie Acres", "opening_hours": {"open_now": true}, "photos": [{"height": 768, "html_attributions": ["<a href=\"https://maps.google.com/maps/contrib/116886711997464048603\">Woodland Hollow at Annie Acres</a>"], "photo_reference": "CmRaAAAAhgWkXkN-VUwJbid2w_hVU4t3yB8xMHSI5aJvj7A_aAJIumcLy6fcaCsuh7XGzG-KgGZleOmFr6A9o0FQSoMfVJntSBTsTrFPN65UFDSyT9S89vtUnYBhrRQcU3hm3KWEEhAVNSyPJ6mn2CCJVQ96CcjYGhS_moCcCTFuqfjMizACgEcdwFvzKQ", "width": 1024}], "place_id": "ChIJTfIQhvxfZIgR8xUNtlunQtY", "plus_code": {"compound_code": "64MP+VH Nashville, TN, USA", "global_code": "868M64MP+VH"}, "rating": 5, "reference": "ChIJTfIQhvxfZIgR8xUNtlunQtY", "scope": "GOOGLE", "types": ["point_of_interest", "establishment"], "user_ratings_total": 2, "vicinity": "4678 Eatons Creek Road, Nashville"}, {"business_status": "OPERATIONAL", "geometry": {"location": {"lat": 36.2232153, "lng": -86.87184239999999}, "viewport": {"northeast": {"lat": 36.2245521802915, "lng": -86.87036966970848}, "southwest": {"lat": 36.2218542197085, "lng": -86.87306763029149}}}, "icon": "https://maps.gstatic.com/mapfiles/place_api/icons/v1/png_71/generic_business-71.png", "name": "Locs N More Natural Hair Salon", "opening_hours": {"open_now": true}, "photos": [{"height": 4032, "html_attributions": ["<a href=\"https://maps.google.com/maps/contrib/115670662391255058496\">Keke Chocolate</a>"], "photo_reference": "CmRaAAAAK1BosM6J9OZDOK8-UCew_gSulw3QcFACkZZpQd9Jqlrl7sjn7BkxvQz0h-IGB1KMS30Ae4ncKulFYSELUNR43dMtNyQr9OwaG1x8gjnzzurR7FTaqNKs-r7OLJ9VcL5fEhD2ylQQKaMtURDxx50K_JtWGhQXPCl58EiwCUocvSDFrb_MyYF3rw", "width": 3024}], "place_id": "ChIJUeQXI75mZIgRvb-Qzvwb1zk", "plus_code": {"compound_code": "64FH+77 Nashville, TN, USA", "global_code": "868M64FH+77"}, "rating": 4.6, "reference": "ChIJUeQXI75mZIgRvb-Qzvwb1zk", "scope": "GOOGLE", "types": ["hair_care", "point_of_interest", "establishment"], "user_ratings_total": 47, "vicinity": "2825 Cato Ridge Drive, Nashville"}]}, {"mapped_location": "(36.1742796, -86.7605975)", "address": "700 Main St, Nashville", "results": [{"business_status": "OPERATIONAL", "geometry": {"location": {"lat": 36.1742796, "lng": -86.7605975}, "viewport": {"northeast": {"lat": 36.1757857802915, "lng": -86.7593418197085}, "southwest": {"lat": 36.1730878197085, "lng": -86.7620397802915}}}, "icon": "https://maps.gstatic.com/mapfiles/place_api/icons/v1/png_71/cafe-71.png", "name": "East Park Donuts & Coffee", "opening_hours": {"open_now": true}, "photos": [{"height": 3024, "html_attributions": ["<a href=\"https://maps.google.com/maps/contrib/111346853916366823674\">Michelle Emmons</a>"], "photo_reference": "CmRaAAAAZjQqQyjqO5ehDgr7cibR5IWQ1GMao3toaIXIOFWnFU3iv6wbH8FQf3FUf3AxjD-Gw9HxvVLPYVhbH6Fg8zEZudUCLmrMnQfk24CYVsKAFrkUwOA5e_WxenMVkrW3noHDEhAR2FO6F_MZGpjERnFL1W8oGhRXWjn2CZXmKyNF_k4sMNfK2lhwxA", "width": 4032}], "place_id": "ChIJ1feChFxnZIgRi7ibNqcVBSw", "plus_code": {"compound_code": "56FQ+PQ Nashville, TN, USA", "global_code": "868M56FQ+PQ"}, "rating": 4.5, "reference": "ChIJ1feChFxnZIgRi7ibNqcVBSw", "scope": "GOOGLE", "types": ["bakery", "cafe", "food", "point_of_interest", "store", "establishment"], "user_ratings_total": 216, "vicinity": "700 Main Street, Nashville"}, {"business_status": "OPERATIONAL", "geometry": {"location": {"lat": 36.1741934, "lng": -86.7606035}, "viewport": {"northeast": {"lat": 36.1755231802915, "lng": -86.7593046697085}, "southwest": {"lat": 36.1728252197085, "lng": -86.76200263029152}}}, "icon": "https://maps.gstatic.com/mapfiles/place_api/icons/v1/png_71/generic_business-71.png", "name": "Walk Bike Nashville", "opening_hours": {"open_now": true}, "photos": [{"height": 700, "html_attributions": ["<a href=\"https://maps.google.com/maps/contrib/100265336549689493867\">Walk Bike Nashville</a>"], "photo_reference": "CmRaAAAAn4m5q6SoBqJ7a0HJTiQGsn1mqv2SDD3V3YbY3QBl9h6561HlshBixy8UaR8MILRvq5SfNkJDPboNyAFbGOwCh9lq3f-YB-3ATC-dh3BQH4MVJ_UfdIPvTuBPL-ZwvpKuEhBwt1tXxuVsYSwwF2W4-tvOGhTb2KSBQgE-9kKt5XjFRmERnehBIQ", "width": 781}], "place_id": "ChIJteTBgJBmZIgR7Bbvjhv3J9s", "plus_code": {"compound_code": "56FQ+MQ Nashville, TN, USA", "global_code": "868M56FQ+MQ"}, "rating": 5, "reference": "ChIJteTBgJBmZIgR7Bbvjhv3J9s", "scope": "GOOGLE", "types": ["point_of_interest", "establishment"], "user_ratings_total": 11, "vicinity": "1 South 7th Street suite a, Nashville"}, {"business_status": "OPERATIONAL", "geometry": {"location": {"lat": 36.1741503, "lng": -86.76056319999999}, "viewport": {"northeast": {"lat": 36.1754777302915, "lng": -86.75927046970848}, "southwest": {"lat": 36.17277976970851, "lng": -86.7619684302915}}}, "icon": "https://maps.gstatic.com/mapfiles/place_api/icons/v1/png_71/generic_business-71.png", "name": "Tuxedo Barber Shop", "place_id": "ChIJsbMfbTVmZIgRB7kkfzt8ayw", "plus_code": {"compound_code": "56FQ+MQ Nashville, TN, USA", "global_code": "868M56FQ+MQ"}, "reference": "ChIJsbMfbTVmZIgRB7kkfzt8ayw", "scope": "GOOGLE", "types": ["hair_care", "health", "point_of_interest", "establishment"], "vicinity": "South 7th Street, Nashville"}, {"business_status": "OPERATIONAL", "geometry": {"location": {"lat": 36.17444280000001, "lng": -86.7602959}, "viewport": {"northeast": {"lat": 36.1759300802915, "lng": -86.75902886970849}, "southwest": {"lat": 36.1732321197085, "lng": -86.7617268302915}}}, "icon": "https://maps.gstatic.com/mapfiles/place_api/icons/v1/png_71/restaurant-71.png", "name": "Greko Greek Street Food", "opening_hours": {"open_now": true}, "photos": [{"height": 3024, "html_attributions": ["<a href=\"https://maps.google.com/maps/contrib/106638019782667313599\">Nikhil Ramaprasad</a>"], "photo_reference": "CmRaAAAABf6b7tY6EMm50V-smvtDsB0tl8AV-5vxfo0soBAvN6nYYxu3V1gY_05RU65re_NMzITttlZyQIVIDig64B_oJomSIHSITSxHSWosKnyngafn3CeTm_quQDhqQQkWaoadEhAwkq3FzsvxpGJWDlOMO-TgGhSiwuNZ1lOvGh5BembVTZxYzpIjnw", "width": 4032}], "place_id": "ChIJl_JFFDVmZIgRY36WZyRFEW8", "plus_code": {"compound_code": "56FQ+QV Nashville, TN, USA", "global_code": "868M56FQ+QV"}, "price_level": 1, "rating": 4.5, "reference": "ChIJl_JFFDVmZIgRY36WZyRFEW8", "scope": "GOOGLE", "types": ["restaurant", "food", "point_of_interest", "establishment"], "user_ratings_total": 715, "vicinity": "704 Main Street, Nashville"}, {"business_status": "OPERATIONAL", "geometry": {"location": {"lat": 36.174291, "lng": -86.7609634}, "viewport": {"northeast": {"lat": 36.17566788029149, "lng": -86.75956606970848}, "southwest": {"lat": 36.1729699197085, "lng": -86.76226403029149}}}, "icon": "https://maps.gstatic.com/mapfiles/place_api/icons/v1/png_71/generic_business-71.png", "name": "Greg's Auto Repair", "opening_hours": {"open_now": true}, "photos": [{"height": 4160, "html_attributions": ["<a href=\"https://maps.google.com/maps/contrib/112014242728123982922\">Jeff Dinakar</a>"], "photo_reference": "CmRaAAAA2JdT7aNc05V-n3dMyNXLSkHiFuQ9tOmAdL605JAaG0q0m9eWN_eNn7ldd13CP2dHQ-M7Iyc3jP6NIAtvYyltZdz_wNvkXPzXbGTmNOz6ZJZJ_sHvcZuV00AvtMgQ6CN0EhCYRq6x5QnCojP8Nv4F4XoKGhTcdQfOcjZdWWsahon5TIrmWdv5Rw", "width": 6240}], "place_id": "ChIJPcFIbzVmZIgR4xB743vlCdc", "plus_code": {"compound_code": "56FQ+PJ Nashville, TN, USA", "global_code": "868M56FQ+PJ"}, "rating": 4.5, "reference": "ChIJPcFIbzVmZIgR4xB743vlCdc", "scope": "GOOGLE", "types": ["car_repair", "point_of_interest", "establishment"], "user_ratings_total": 30, "vicinity": "634 Main Street, Nashville"}]}, {"mapped_location": "(36.1915825, -86.7730421)", "address": "1118 Dickerson Pike, Nashville", "results": [{"business_status": "OPERATIONAL", "geometry": {"location": {"lat": 36.1915825, "lng": -86.7730421}, "viewport": {"northeast": {"lat": 36.1929208802915, "lng": -86.77154701970849}, "southwest": {"lat": 36.1902229197085, "lng": -86.7742449802915}}}, "icon": "https://maps.gstatic.com/mapfiles/place_api/icons/v1/png_71/shopping-71.png", "name": "Dollar General", "opening_hours": {"open_now": true}, "photos": [{"height": 5344, "html_attributions": ["<a href=\"https://maps.google.com/maps/contrib/115417273688971297480\">Chris Anderson</a>"], "photo_reference": "CmRaAAAAKkJ0heV0pwhmCxVjVY3ahXDfLqnEcfOtR21r50SKGitNI5FvkgA74zRDtxWmGUqXk31GL_LsVK1zmwSLxjKiJvjP2rCa1ZO1pFwuljEh8FupR0Zn-JCl4KgJNf7B1-RDEhDd8IA4BdZ6-d5ezzi64GjsGhQACV3OwIgCDj-31ZIqAuBtbV_MQA", "width": 4008}], "place_id": "ChIJ5cJgwKRnZIgR0uLkf2QHvN0", "plus_code": {"compound_code": "56RG+JQ Nashville, TN, USA", "global_code": "868M56RG+JQ"}, "price_level": 1, "rating": 4, "reference": "ChIJ5cJgwKRnZIgR0uLkf2QHvN0", "scope": "GOOGLE", "types": ["grocery_or_supermarket", "home_goods_store", "food", "point_of_interest", "store", "establishment"], "user_ratings_total": 492, "vicinity": "1118 Dickerson Pike, Nashville"}, {"business_status": "OPERATIONAL", "geometry": {"location": {"lat": 36.191583, "lng": -86.77304199999999}, "viewport": {"northeast": {"lat": 36.19292138029149, "lng": -86.77154691970848}, "southwest": {"lat": 36.1902234197085, "lng": -86.77424488029149}}}, "icon": "https://maps.gstatic.com/mapfiles/place_api/icons/v1/png_71/generic_business-71.png", "name": "Western Union", "opening_hours": {"open_now": true}, "photos": [{"height": 1000, "html_attributions": ["<a href=\"https://maps.google.com/maps/contrib/106134241977090968500\">Western Union</a>"], "photo_reference": "CmRaAAAAuqm1OIL-0TZz9q7Qj4ZjxFAyv1Hv88gxItqoCebWZeeD0gnH5Y6Dk50BrSPebD_5K-7Hy7XP8dCsXXDp5vlH5PyTTfdn6vdH9djdY0hJ35ULwUCrbm4Aux3SHl94DugdEhAXIsS0hdO_pALHQNC-VRjPGhQ2bzUPjK3-ULBbw5UN3EYgknVItQ", "width": 1000}], "place_id": "ChIJSdb1e4NnZIgRjSIjw1hTarE", "plus_code": {"compound_code": "56RG+JQ Nashville, TN, USA", "global_code": "868M56RG+JQ"}, "reference": "ChIJSdb1e4NnZIgRjSIjw1hTarE", "scope": "GOOGLE", "types": ["finance", "point_of_interest", "establishment"], "vicinity": "Dollar General, 1118 Dickerson Pike, Nashville"}, {"business_status": "OPERATIONAL", "geometry": {"location": {"lat": 36.1918253, "lng": -86.77309319999999}, "viewport": {"northeast": {"lat": 36.1931615802915, "lng": -86.7715593197085}, "southwest": {"lat": 36.1904636197085, "lng": -86.77425728029151}}}, "icon": "https://maps.gstatic.com/mapfiles/place_api/icons/v1/png_71/generic_business-71.png", "name": "Locksmith Near Me of Nashville", "opening_hours": {"open_now": true}, "photos": [{"height": 1600, "html_attributions": ["<a href=\"https://maps.google.com/maps/contrib/106973613293400238572\">Locksmith Near Me of Nashville</a>"], "photo_reference": "CmRZAAAABWw6ZNO4hcfufJxJ9-1Gs3r6ADpUPyl6a59lEzAewPN2AwM6eKsHCqyqMcojAk0delbWk-Os76FU9HDZqCdETL_P4VxeGCwCbZRFOHJmL04cnYGAl0v9vWOu3xBQDeEwEhAilqtV9qjRDtOJaxMCB6mYGhQMcsxcswMadEZVqZ6eBJX3D3NVrQ", "width": 900}], "place_id": "ChIJz_CMUwZnZIgRHEDHn0Ibycc", "plus_code": {"compound_code": "56RG+PQ Nashville, TN, USA", "global_code": "868M56RG+PQ"}, "rating": 4.7, "reference": "ChIJz_CMUwZnZIgRHEDHn0Ibycc", "scope": "GOOGLE", "types": ["locksmith", "point_of_interest", "establishment"], "user_ratings_total": 34, "vicinity": "1120 Dickerson Pike suite a, Nashville"}, {"business_status": "OPERATIONAL", "geometry": {"location": {"lat": 36.1918253, "lng": -86.77309319999999}, "viewport": {"northeast": {"lat": 36.1931615802915, "lng": -86.7715593197085}, "southwest": {"lat": 36.1904636197085, "lng": -86.77425728029151}}}, "icon": "https://maps.gstatic.com/mapfiles/place_api/icons/v1/png_71/generic_business-71.png", "name": "Karen Hoff, Historic & Distinctive Homes", "opening_hours": {"open_now": true}, "photos": [{"height": 768, "html_attributions": ["<a href=\"https://maps.google.com/maps/contrib/110258628490639393794\">Karen Hoff, Historic &amp; Distinctive Homes</a>"], "photo_reference": "CmRaAAAA6cw5VPT7jOjqJyXLnJK9p2ehWNjdCAQ6r1_ZXButm-y-Prys4LS2LRqBSU_9KvnWqhrhFy8eAcQ-mkTYeA48R8Ni07DGPuI4qN6DwGlD5offlUfZWAkPZYBJw_T1bI9lEhADXRjijAz6Kl4mbgWctxLtGhRs39nPKHirPcKFGa66mmzqtDUpHA", "width": 513}], "place_id": "ChIJ6b2s0chnZIgR8vh1AK_mtH8", "plus_code": {"compound_code": "56RG+PQ Nashville, TN, USA", "global_code": "868M56RG+PQ"}, "reference": "ChIJ6b2s0chnZIgR8vh1AK_mtH8", "scope": "GOOGLE", "types": ["point_of_interest", "establishment"], "vicinity": "1120 Dickerson Pike, Nashville"}, {"business_status": "OPERATIONAL", "geometry": {"location": {"lat": 36.191828, "lng": -86.77316400000001}, "viewport": {"northeast": {"lat": 36.1931618802915, "lng": -86.7715948197085}, "southwest": {"lat": 36.19046391970851, "lng": -86.7742927802915}}}, "icon": "https://maps.gstatic.com/mapfiles/place_api/icons/v1/png_71/generic_business-71.png", "name": "evolve project", "place_id": "ChIJfb_al6RnZIgR8baC9qI_eZI", "plus_code": {"compound_code": "56RG+PP Nashville, TN, USA", "global_code": "868M56RG+PP"}, "reference": "ChIJfb_al6RnZIgR8baC9qI_eZI", "scope": "GOOGLE", "types": ["point_of_interest", "establishment"], "vicinity": "1120 Dickerson Pike, Nashville"}]}, {"mapped_location": "(36.09569211157829, -86.65493199999999)", "address": "2006 Murfreesboro Pike, Nashville", "results": [{"business_status": "OPERATIONAL", "geometry": {"location": {"lat": 36.09586489999999, "lng": -86.6544799}, "viewport": {"northeast": {"lat": 36.0972554302915, "lng": -86.65315826970848}, "southwest": {"lat": 36.0945574697085, "lng": -86.6558562302915}}}, "icon": "https://maps.gstatic.com/mapfiles/place_api/icons/v1/png_71/generic_business-71.png", "name": "Mr. C's Cleaners", "opening_hours": {"open_now": true}, "place_id": "ChIJgw-ebC9sZIgRvB-Bgy_QugM", "plus_code": {"compound_code": "38WW+86 Nashville, TN, USA", "global_code": "868M38WW+86"}, "rating": 4.2, "reference": "ChIJgw-ebC9sZIgRvB-Bgy_QugM", "scope": "GOOGLE", "types": ["laundry", "point_of_interest", "establishment"], "user_ratings_total": 12, "vicinity": "2006 Murfreesboro Pike, Nashville"}, {"business_status": "OPERATIONAL", "geometry": {"location": {"lat": 36.0956941, "lng": -86.6543224}, "viewport": {"northeast": {"lat": 36.09695688029149, "lng": -86.6528706197085}, "southwest": {"lat": 36.09425891970849, "lng": -86.6555685802915}}}, "icon": "https://maps.gstatic.com/mapfiles/place_api/icons/v1/png_71/generic_business-71.png", "name": "Car Wash", "place_id": "ChIJe6bgEi9sZIgRD9H95TD-5MA", "plus_code": {"compound_code": "38WW+77 Nashville, TN, USA", "global_code": "868M38WW+77"}, "reference": "ChIJe6bgEi9sZIgRD9H95TD-5MA", "scope": "GOOGLE", "types": ["car_wash", "point_of_interest", "establishment"], "vicinity": "United States"}, {"business_status": "OPERATIONAL", "geometry": {"location": {"lat": 36.09607200000001, "lng": -86.6544716}, "viewport": {"northeast": {"lat": 36.0973832302915, "lng": -86.6530977697085}, "southwest": {"lat": 36.0946852697085, "lng": -86.6557957302915}}}, "icon": "https://maps.gstatic.com/mapfiles/place_api/icons/v1/png_71/school-71.png", "name": "Community Christian School", "opening_hours": {"open_now": true}, "photos": [{"height": 1536, "html_attributions": ["<a href=\"https://maps.google.com/maps/contrib/116811947684637832248\">Community Christian School</a>"], "photo_reference": "CmRaAAAAAbG7A8PpizxQXWjE-x45ay2eY9uptofQ7GNPT52EUjWrB08HqGTOroqDoBOKY4WD4RJuJV9DXDKneuG0aDt51AuHUIWnq323R2Gn2diXdrJ6LsPEJed3uNAUbm9xt4pAEhBieT7lCKSLpFn9D2SnE3ddGhRrXye4Ptg2mLb6FTethtYckNCVjw", "width": 2048}], "place_id": "ChIJf83Oay9sZIgR90EyC516mGA", "plus_code": {"compound_code": "38WW+C6 Nashville, TN, USA", "global_code": "868M38WW+C6"}, "rating": 5, "reference": "ChIJf83Oay9sZIgR90EyC516mGA", "scope": "GOOGLE", "types": ["school", "point_of_interest", "establishment"], "user_ratings_total": 3, "vicinity": "2004 Murfreesboro Pike, Nashville"}, {"business_status": "OPERATIONAL", "geometry": {"location": {"lat": 36.0954554, "lng": -86.6540833}, "viewport": {"northeast": {"lat": 36.0968260802915, "lng": -86.65276131970849}, "southwest": {"lat": 36.0941281197085, "lng": -86.6554592802915}}}, "icon": "https://maps.gstatic.com/mapfiles/place_api/icons/v1/png_71/generic_business-71.png", "name": "Jerry Matthews - State Farm Insurance Agent", "opening_hours": {"open_now": true}, "photos": [{"height": 3024, "html_attributions": ["<a href=\"https://maps.google.com/maps/contrib/102180476513775764202\">Jeremy Haggard</a>"], "photo_reference": "CmRaAAAALK57sFiEApf-c7wgggoJE5clnNcDaokjU1hTtp_5RQcpqC90Dq5EeEauoyOH6ZLlqA9StpUuWpyGoO3kcM4UItTURUpS5UTwtdLlC1MLRkIazo8koUf2Kh2mt5iu-gXPEhDa9beKWjvN3EJOdp-ervZkGhRg3fpJK28eEoF76d-pKL-sBNS2ww", "width": 4032}], "place_id": "ChIJk2JSqC9sZIgRbs5xDLnplco", "plus_code": {"compound_code": "38WW+59 Nashville, TN, USA", "global_code": "868M38WW+59"}, "rating": 5, "reference": "ChIJk2JSqC9sZIgRbs5xDLnplco", "scope": "GOOGLE", "types": ["insurance_agency", "point_of_interest", "establishment"], "user_ratings_total": 4, "vicinity": "2010 Murfreesboro Pike, Nashville"}, {"business_status": "OPERATIONAL", "geometry": {"location": {"lat": 36.0947823, "lng": -86.6542801}, "viewport": {"northeast": {"lat": 36.0962374802915, "lng": -86.65277861970849}, "southwest": {"lat": 36.0935395197085, "lng": -86.65547658029149}}}, "icon": "https://maps.gstatic.com/mapfiles/place_api/icons/v1/png_71/atm-71.png", "name": "VyStar Credit Union ATM", "place_id": "ChIJAQBkGy9sZIgRBxW26F-fAiY", "plus_code": {"compound_code": "38VW+W7 Nashville, TN, USA", "global_code": "868M38VW+W7"}, "reference": "ChIJAQBkGy9sZIgRBxW26F-fAiY", "scope": "GOOGLE", "types": ["atm", "finance", "point_of_interest", "establishment"], "vicinity": "1936 Murfreesboro Pike, Nashville"}]}, {"mapped_location": "(36.118587796283904, -86.78776084285278)", "address": "956 Clayton Ave, Nashville", "results": [{"business_status": "OPERATIONAL", "geometry": {"location": {"lat": 36.1183924, "lng": -86.7879008}, "viewport": {"northeast": {"lat": 36.1197049802915, "lng": -86.7865549197085}, "southwest": {"lat": 36.1170070197085, "lng": -86.7892528802915}}}, "icon": "https://maps.gstatic.com/mapfiles/place_api/icons/v1/png_71/parking-71.png", "name": "Sevier Park Community Center & Sevier Park parking lot (Lealand Lane entrance)", "photos": [{"height": 2268, "html_attributions": ["<a href=\"https://maps.google.com/maps/contrib/107643110199528850763\">Jody May</a>"], "photo_reference": "CmRaAAAArv-ErKXz0kQ0m5kh2-mm8a1HeQWeQg75aIUbUB5-yooEhfjkNtkpAld6DKScx8lBuyhJb-eOm98hOynvq3bhE4vk8JpMvhqMzi5kPCfHkUYlQoRfrNYa78YXY8gOx3U4EhAu9uE2QO-basI1Xc6Eh_pCGhS8oh6-5SOMwHe-18bXj1BhtD7B4w", "width": 4032}], "place_id": "ChIJN5zdQTFkZIgRZ3FqbKizYmU", "plus_code": {"compound_code": "4696+9R Nashville, TN, USA", "global_code": "868M4696+9R"}, "rating": 4, "reference": "ChIJN5zdQTFkZIgRZ3FqbKizYmU", "scope": "GOOGLE", "types": ["parking", "point_of_interest", "establishment"], "user_ratings_total": 1, "vicinity": "Nashville"}, {"business_status": "OPERATIONAL", "geometry": {"location": {"lat": 36.1182185, "lng": -86.78792229999999}, "viewport": {"northeast": {"lat": 36.1195639802915, "lng": -86.78651516970848}, "southwest": {"lat": 36.1168660197085, "lng": -86.78921313029149}}}, "icon": "https://maps.gstatic.com/mapfiles/place_api/icons/v1/png_71/generic_business-71.png", "name": "Sevier Park Community Center", "opening_hours": {"open_now": true}, "photos": [{"height": 3024, "html_attributions": ["<a href=\"https://maps.google.com/maps/contrib/107643110199528850763\">Jody May</a>"], "photo_reference": "CmRaAAAAMs4fYcrvlBN34WMVGj5l25W7xOsM0z1XkwEn_4c39SOVkwX2Z0W9smSW4OcHintgZULOFipBPIz6_bQpEG0wepEu1r2UWnAe-g5n0ddNWhAnsI_166tePQXAH4azy-peEhAh1v1p4vqYGqIjHyvJSSt8GhS2VUYbGqAPfLuIlgo6WbTyGflDHA", "width": 4032}], "place_id": "ChIJl3QgPzFkZIgRwNie3l16zu4", "plus_code": {"compound_code": "4696+7R Nashville, TN, USA", "global_code": "868M4696+7R"}, "rating": 4.6, "reference": "ChIJl3QgPzFkZIgRwNie3l16zu4", "scope": "GOOGLE", "types": ["point_of_interest", "establishment"], "user_ratings_total": 242, "vicinity": "3021 Lealand Lane, Nashville"}, {"business_status": "OPERATIONAL", "geometry": {"location": {"lat": 36.1181343, "lng": -86.7883402}, "viewport": {"northeast": {"lat": 36.1195881802915, "lng": -86.7869772697085}, "southwest": {"lat": 36.1168902197085, "lng": -86.78967523029151}}}, "icon": "https://maps.gstatic.com/mapfiles/place_api/icons/v1/png_71/worship_general-71.png", "name": "La Casa Church", "opening_hours": {"open_now": false}, "photos": [{"height": 3024, "html_attributions": ["<a href=\"https://maps.google.com/maps/contrib/100355486855085203741\">Fikri Youssef</a>"], "photo_reference": "CmRaAAAAnR1HHP4CokSkaGwGcl0g0iRiNMN3UNs47iJMmtcwUdP6_PS06XY17S3MWhEKcWxp9ox-E_Db_UNjbjEmZ1ddo9SItMIyWo9pMpby1HPssfiuIU3Jde40pps8QmIQ7UzlEhAK7I2l-Sn48kuPBm6bAqGHGhTZjT1vzu3GEkZr0axMDFRJWyCVng", "width": 4032}], "place_id": "ChIJ8Y4r-a1lZIgR6nB6UClE3Dg", "plus_code": {"compound_code": "4696+7M Nashville, TN, USA", "global_code": "868M4696+7M"}, "rating": 5, "reference": "ChIJ8Y4r-a1lZIgR6nB6UClE3Dg", "scope": "GOOGLE", "types": ["church", "place_of_worship", "point_of_interest", "establishment"], "user_ratings_total": 3, "vicinity": "3021 Lealand Lane, Nashville"}, {"business_status": "OPERATIONAL", "geometry": {"location": {"lat": 36.1181343, "lng": -86.7883402}, "viewport": {"northeast": {"lat": 36.1195881802915, "lng": -86.7869665697085}, "southwest": {"lat": 36.1168902197085, "lng": -86.7896645302915}}}, "icon": "https://maps.gstatic.com/mapfiles/place_api/icons/v1/png_71/generic_business-71.png", "name": "Nashville Mind And Body", "place_id": "ChIJ_3PPPjFkZIgRh8AxEJtiN94", "plus_code": {"compound_code": "4696+7M Nashville, TN, USA", "global_code": "868M4696+7M"}, "reference": "ChIJ_3PPPjFkZIgRh8AxEJtiN94", "scope": "GOOGLE", "types": ["health", "point_of_interest", "establishment"], "vicinity": "3021 Lealand Lane, Nashville"}, {"business_status": "OPERATIONAL", "geometry": {"location": {"lat": 36.1178228, "lng": -86.78750749999999}, "viewport": {"northeast": {"lat": 36.1192030802915, "lng": -86.7861558697085}, "southwest": {"lat": 36.1165051197085, "lng": -86.7888538302915}}}, "icon": "https://maps.gstatic.com/mapfiles/place_api/icons/v1/png_71/generic_business-71.png", "name": "Anya's European Choice", "place_id": "ChIJR6IM6jNkZIgRiiPnlGmbk1s", "plus_code": {"compound_code": "4696+4X Nashville, TN, USA", "global_code": "868M4696+4X"}, "reference": "ChIJR6IM6jNkZIgRiiPnlGmbk1s", "scope": "GOOGLE", "types": ["health", "point_of_interest", "establishment"], "vicinity": "205 Clayton Avenue, Nashville"}]}, {"mapped_location": "(36.1555656, -86.7864451)", "address": "118 12th Ave S, Nashville", "results": [{"business_status": "OPERATIONAL", "geometry": {"location": {"lat": 36.1555656, "lng": -86.7864451}, "viewport": {"northeast": {"lat": 36.1568879802915, "lng": -86.7851512697085}, "southwest": {"lat": 36.1541900197085, "lng": -86.78784923029151}}}, "icon": "https://maps.gstatic.com/mapfiles/place_api/icons/v1/png_71/restaurant-71.png", "name": "Whiskey Kitchen", "opening_hours": {"open_now": false}, "photos": [{"height": 1333, "html_attributions": ["<a href=\"https://maps.google.com/maps/contrib/105119998691272879313\">Whiskey Kitchen</a>"], "photo_reference": "CmRaAAAAvDgFzbCGsWlQXc75dg0hv2UdbgM2Xt70Bs_0XaeqrvwZP4TPEaUIe7IxgIRSz-VBYX1SrWueCv95e6QP4bJ-ClYc2Bx6lyaOP2uhQYji33ASIXrdd-rP6iTq__Rxu-MIEhA_hAohq_cHUwafMo_RK7FuGhRMTp2PFAJHHvbYRKGLERVNHUzXrg", "width": 2000}], "place_id": "ChIJTcYlqPRmZIgR6oBIwI3rgJ4", "plus_code": {"compound_code": "5647+6C Nashville, TN, USA", "global_code": "868M5647+6C"}, "price_level": 2, "rating": 4.3, "reference": "ChIJTcYlqPRmZIgR6oBIwI3rgJ4", "scope": "GOOGLE", "types": ["bar", "restaurant", "food", "point_of_interest", "establishment"], "user_ratings_total": 1666, "vicinity": "118 12th Avenue South, Nashville"}, {"business_status": "OPERATIONAL", "geometry": {"location": {"lat": 36.15557999999999, "lng": -86.7861899}, "viewport": {"northeast": {"lat": 36.1569137802915, "lng": -86.78487551970849}, "southwest": {"lat": 36.1542158197085, "lng": -86.78757348029151}}}, "icon": "https://maps.gstatic.com/mapfiles/place_api/icons/v1/png_71/generic_business-71.png", "name": "Butler Networks", "place_id": "ChIJmSiwuvRmZIgRNayRFnmSoMg", "plus_code": {"compound_code": "5647+6G Nashville, TN, USA", "global_code": "868M5647+6G"}, "reference": "ChIJmSiwuvRmZIgRNayRFnmSoMg", "scope": "GOOGLE", "types": ["electrician", "general_contractor", "point_of_interest", "store", "establishment"], "vicinity": "1101 McGavock Street, Nashville"}, {"business_status": "OPERATIONAL", "geometry": {"location": {"lat": 36.1557186, "lng": -86.7862612}, "viewport": {"northeast": {"lat": 36.15709448029149, "lng": -86.78493041970849}, "southwest": {"lat": 36.15439651970849, "lng": -86.7876283802915}}}, "icon": "https://maps.gstatic.com/mapfiles/place_api/icons/v1/png_71/generic_business-71.png", "name": "Red Light Management", "photos": [{"height": 2340, "html_attributions": ["<a href=\"https://maps.google.com/maps/contrib/106383818344053372776\">Funmilayo Celestina Ekundayo</a>"], "photo_reference": "CmRaAAAAGrWJJr35JxYJRfvZZe4fbeU12gzwxURjdwqHTLv0pQlDwOAJubPLLRPFshGOnAO7VWn54YO4bjwwLm6AgPTsO8x9XksDHmX273zeV9JO9XTQWLxOQumH_NDnaif5lb3LEhCSfmkaETwsZNVr0mxhTxVYGhQMuKpBNWUZSDzm14QkOFLWg32Jag", "width": 4160}], "place_id": "ChIJZwJ2yvRmZIgRYsUNMyiljkY", "plus_code": {"compound_code": "5647+7F Nashville, TN, USA", "global_code": "868M5647+7F"}, "rating": 5, "reference": "ChIJZwJ2yvRmZIgRYsUNMyiljkY", "scope": "GOOGLE", "types": ["point_of_interest", "establishment"], "user_ratings_total": 1, "vicinity": "1101 McGavock Street #300, Nashville"}, {"business_status": "OPERATIONAL", "geometry": {"location": {"lat": 36.1555964, "lng": -86.7860133}, "viewport": {"northeast": {"lat": 36.1568983302915, "lng": -86.7847712697085}, "southwest": {"lat": 36.1542003697085, "lng": -86.7874692302915}}}, "icon": "https://maps.gstatic.com/mapfiles/place_api/icons/v1/png_71/generic_business-71.png", "name": "Google Fiber Office", "place_id": "ChIJo-lQr6tnZIgRisUWDllRGlQ", "plus_code": {"compound_code": "5647+6H Nashville, TN, USA", "global_code": "868M5647+6H"}, "reference": "ChIJo-lQr6tnZIgRisUWDllRGlQ", "scope": "GOOGLE", "types": ["point_of_interest", "establishment"], "vicinity": "1101 McGavock Street US-BNA-1101, Nashville"}, {"business_status": "OPERATIONAL", "geometry": {"location": {"lat": 36.1555964, "lng": -86.7860133}, "viewport": {"northeast": {"lat": 36.1568983302915, "lng": -86.7847712697085}, "southwest": {"lat": 36.1542003697085, "lng": -86.7874692302915}}},