[{"mapped_location": "(36.0643017, -86.63128669999999)", "address": "843 Hamilton Crossing, Antioch", "results": [{"business_status": "OPERATIONAL", "geometry": {"location": {"lat": 36.0641278, "lng": -86.6309071}, "viewport": {"northeast": {"lat": 36.06551038029149, "lng": -86.62963766970849}, "southwest": {"lat": 36.0628124197085, "lng": -86.63233563029151}}}, "icon": "https://maps.gstatic.com/mapfiles/place_api/icons/v1/png_71/shopping-71.png", "name": "Dollar City", "opening_hours": {"open_now": true}, "photos": [{"height": 1564, "html_attributions": ["<a href=\"https://maps.google.com/maps/contrib/109139845289453192802\">Dollar City</a>"], "photo_reference": "CmRaAAAAR0LRSn965wuzfsmlUpJtOivjxUWyRpfiVIWea2kbUBJDo9VLBd5BYP3MSKhR2qBoLhy_qtqyElzQEnPSAv9rfJ4RlzJSUpJqbE0UosML0j2Gzhlz2iSaJbkJ4gjcbQZBEhD73CTVg6RCDe9lhbzd4H7WGhRY54Bu4trW_A2wCLn3MDoaa4-M3w", "width": 1564}], "place_id": "ChIJCw9xQ_ttZIgRzQl7ECOflqY", "plus_code": {"compound_code": "3979+MJ Nashville, TN, USA", "global_code": "868M3979+MJ"}, "rating": 4.8, "reference": "ChIJCw9xQ_ttZIgRzQl7ECOflqY", "scope": "GOOGLE", "types": ["point_of_interest", "store", "establishment"], "user_ratings_total": 63, "vicinity": "833 Hamilton Crossing, Antioch"}, {"business_status": "OPERATIONAL", "geometry": {"location": {"lat": 36.06411550000001, "lng": -86.6309153}, "viewport": {"northeast": {"lat": 36.06549803029149, "lng": -86.62964576970849}, "southwest": {"lat": 36.06280006970849, "lng": -86.63234373029151}}}, "icon": "https://maps.gstatic.com/mapfiles/place_api/icons/v1/png_71/generic_business-71.png", "name": "Hall of Fame Barbers", "opening_hours": {"open_now": true}, "photos": [{"height": 1536, "html_attributions": ["<a href=\"https://maps.google.com/maps/contrib/116043053616041924991\">Hall of Fame Barbers</a>"], "photo_reference": "CmRaAAAApKHjhxJQrCue04JZLBMZz-xzf5CWzmfH0nF4varCyXv2JiNaYnaSLkrKwkbZn6Qqxb_6XSa-jliHitX6XpWAFcI7O3tyq5O_ncHXM8HjEUCg8sl2hTNHVatBp6dX1Sj9EhAt-ueQ_Qzy_MfQTspJcNuYGhSJ-gW0gyvTlWhbb69vY2bN3WP6fg", "width": 2048}], "place_id": "ChIJgQLtV71tZIgRKjhsXQkJx_s", "plus_code": {"compound_code": "3979+JJ Nashville, TN, USA", "global_code": "868M3979+JJ"}, "rating": 4.1, "reference": "ChIJgQLtV71tZIgRKjhsXQkJx_s", "scope": "GOOGLE", "types": ["hair_care", "health", "point_of_interest", "establishment"], "user_ratings_total": 28, "vicinity": "835 Hamilton Crossing, Antioch"}, {"business_status": "OPERATIONAL", "geometry": {"location": {"lat": 36.0641888, "lng": -86.6308665}, "viewport": {"northeast": {"lat": 36.0655715802915, "lng": -86.62959751970848}, "southwest": {"lat": 36.0628736197085, "lng": -86.6322954802915}}}, "icon": "https://maps.gstatic.com/mapfiles/place_api/icons/v1/png_71/restaurant-71.png", "name": "America's Deli", "opening_hours": {"open_now": true}, "photos": [{"height": 1944, "html_attributions": ["<a href=\"https://maps.google.com/maps/contrib/104824332862321113786\">Michael Crayton</a>"], "photo_reference": "CmRaAAAArmTwVOfwJZ_kftjZA1Yri1UhrkTE14WGhf6XPPGjNnuali_L8GV1tlCYwk9vGSrgdpJiLXTiG5Ns0_9E6BkD-GdtdVjncIxFjgzghClwEt9gqYqJ-e3zpAhCqoeS9RiCEhD4-wqGNObn7ocnHVzWH3woGhTrOIT4QpL-XeWRGeSpMMczMcv2Tw", "width": 2592}], "place_id": "ChIJj7hOUr1tZIgRKyRQl7V6LyA", "plus_code": {"compound_code": "3979+MM Nashville, TN, USA", "global_code": "868M3979+MM"}, "price_level": 1, "rating": 4.3, "reference": "ChIJj7hOUr1tZIgRKyRQl7V6LyA", "scope": "GOOGLE", "types": ["restaurant", "food", "point_of_interest", "establishment"], "user_ratings_total": 195, "vicinity": "8408, 831 Hamilton Crossing, Antioch"}, {"business_status": "OPERATIONAL", "geometry": {"location": {"lat": 36.0640329, "lng": -86.630994}, "viewport": {"northeast": {"lat": 36.0654112302915, "lng": -86.6297145197085}, "southwest": {"lat": 36.0627132697085, "lng": -86.6324124802915}}}, "icon": "https://maps.gstatic.com/mapfiles/place_api/icons/v1/png_71/generic_business-71.png", "name": "Sisters Hair Braiding", "opening_hours": {"open_now": true}, "photos": [{"height": 1024, "html_attributions": ["<a href=\"https://maps.google.com/maps/contrib/114038701313227559182\">Sisters Hair Braiding</a>"], "photo_reference": "CmRaAAAAEzCwrFI-YravxNhnEwpOFivaik72nPp34Edn1HT1-LcFQES_oQf-jTtnB_bK5YIylYohHJ5hASfz5SwYAtjzfEkzKd5JIZbWhykaNsUzPHGqIU4aKVvBZDg_KOMYX7k3EhCcymPGUKwXTvJ3SPK9S7jhGhQynFYUkmyQjHWqsznKBRWD70AkZA", "width": 768}], "place_id": "ChIJn7rrV71tZIgRweBBRmLS72Q", "plus_code": {"compound_code": "3979+JJ Nashville, TN, USA", "global_code": "868M3979+JJ"}, "rating": 3.6, "reference": "ChIJn7rrV71tZIgRweBBRmLS72Q", "scope": "GOOGLE", "types": ["beauty_salon", "point_of_interest", "establishment"], "user_ratings_total": 50, "vicinity": "837 Hamilton Crossing, Antioch"}, {"business_status": "OPERATIONAL", "geometry": {"location": {"lat": 36.06395610000001, "lng": -86.6311156}, "viewport": {"northeast": {"lat": 36.0653335802915, "lng": -86.62984471970849}, "southwest": {"lat": 36.0626356197085, "lng": -86.6325426802915}}}, "icon": "https://maps.gstatic.com/mapfiles/place_api/icons/v1/png_71/shopping-71.png", "name": "Adore Boutique", "opening_hours": {"open_now": true}, "place_id": "ChIJ5Z_UdvltZIgRjEt80Y_avoQ", "plus_code": {"compound_code": "3979+HH Nashville, TN, USA", "global_code": "868M3979+HH"}, "rating": 5, "reference": "ChIJ5Z_UdvltZIgRjEt80Y_avoQ", "scope": "GOOGLE", "types": ["point_of_interest", "clothing_store", "store", "establishment"], "user_ratings_total": 1, "vicinity": "841 Hamilton Crossing, Antioch"}]}, {"mapped_location": "(36.25134, -86.72674)", "address": "306 W Due West Ave, Madison", "results": [{"business_status": "OPERATIONAL", "geometry": {"location": {"lat": 36.25134000000001, "lng": -86.726737}, "viewport": {"northeast": {"lat": 36.2525448802915, "lng": -86.72541816970849}, "southwest": {"lat": 36.2498469197085, "lng": -86.72811613029151}}}, "icon": "https://maps.gstatic.com/mapfiles/place_api/icons/v1/png_71/generic_business-71.png", "name": "Select Medical", "place_id": "ChIJPY2CVttCZIgREMcvdYCv-Ao", "plus_code": {"compound_code": "772F+G8 Nashville, TN, USA", "global_code": "868M772F+G8"}, "reference": "ChIJPY2CVttCZIgREMcvdYCv-Ao", "scope": "GOOGLE", "types": ["health", "point_of_interest", "establishment"], "vicinity": "306 West Due West Avenue, Madison"}, {"business_status": "OPERATIONAL", "geometry": {"location": {"lat": 36.2514581, "lng": -86.7264282}, "viewport": {"northeast": {"lat": 36.2529637302915, "lng": -86.72508061970849}, "southwest": {"lat": 36.2502657697085, "lng": -86.72777858029151}}}, "icon": "https://maps.gstatic.com/mapfiles/place_api/icons/v1/png_71/generic_business-71.png", "name": "Creekside Center for Rehabilitation & Healing", "opening_hours": {"open_now": true}, "photos": [{"height": 1000, "html_attributions": ["<a href=\"https://maps.google.com/maps/contrib/106022157503232464714\">Creekside Center for Rehabilitation &amp; Healing</a>"], "photo_reference": "CmRaAAAAYQh76xKCWr-oXGN29EiYMr3Q1ytBWN6iSzHsXslQVn_M6Ja0dWmSOBO1gaTZkM-tSO0YG-9v8RmDwh2EmqjhocteH_6MmSoM0FwOI1ApWkXq4cKYODMwH5pGdJMi-gN5EhCJ9qCaeyb3DHjxKDyJ0dSAGhQVcr3fxPrber_CK69mdlWomDwpUQ", "width": 1498}], "place_id": "ChIJwS4aJMNCZIgRCnJm1UIi1DM", "plus_code": {"compound_code": "772F+HC Nashville, TN, USA", "global_code": "868M772F+HC"}, "rating": 4.4, "reference": "ChIJwS4aJMNCZIgRCnJm1UIi1DM", "scope": "GOOGLE", "types": ["health", "point_of_interest", "establishment"], "user_ratings_total": 57, "vicinity": "306 West Due West Avenue, Madison"}, {"business_status": "OPERATIONAL", "geometry": {"location": {"lat": 36.2499061, "lng": -86.7254509}, "viewport": {"northeast": {"lat": 36.25125173029149, "lng": -86.7239664197085}, "southwest": {"lat": 36.24855376970849, "lng": -86.72666438029151}}}, "icon": "https://maps.gstatic.com/mapfiles/place_api/icons/v1/png_71/generic_business-71.png", "name": "The Barn at Mayo Farm", "photos": [{"height": 683, "html_attributions": ["<a href=\"https://maps.google.com/maps/contrib/109467161789125001875\">The Barn at Mayo Farm</a>"], "photo_reference": "CmRaAAAARMeXFhSf5Z-SaEQLNPOBQY5XGSuFy4rbjxcuDXSnTCMTGSRIC0jHBUB3BdDCby3cWJvgikybdDs4fZs-Fw302QUi91MiwRXL_4mGEPk_REO-ZsM7__0AJhiYdKe6CqFYEhBKru8ZHE7p-acb6X8eFI7cGhRyz-EibwFrtb0xZlVgsLJ9fyMbjQ", "width": 1024}], "place_id": "ChIJ6_emUuZDZIgRsYs4FlL0Uo4", "plus_code": {"compound_code": "67XF+XR Nashville, TN, USA", "global_code": "868M67XF+XR"}, "reference": "ChIJ6_emUuZDZIgRsYs4FlL0Uo4", "scope": "GOOGLE", "types": ["point_of_interest", "establishment"], "vicinity": "125 Cash Lane, Madison"}, {"business_status": "OPERATIONAL", "geometry": {"location": {"lat": 36.2498634, "lng": -86.72457849999999}, "viewport": {"northeast": {"lat": 36.2510334302915, "lng": -86.72318771970849}, "southwest": {"lat": 36.2483354697085, "lng": -86.7258856802915}}}, "icon": "https://maps.gstatic.com/mapfiles/place_api/icons/v1/png_71/generic_business-71.png", "name": "Maybelle Carter Living", "opening_hours": {"open_now": true}, "photos": [{"height": 1080, "html_attributions": ["<a href=\"https://maps.google.com/maps/contrib/113657795916724754148\">Maybelle Carter Living</a>"], "photo_reference": "CmRaAAAABrf8GB6N3iybGYYJKN6S271WK274_yEp67TgilCbWtsai8YK7H8b81QBJQYCqnoCXh6F6PUzAN1XGLQ23ABEsjI4-S3TXmcaR2j2PcR04W4vY8TqHbPU_kQWYCd-PiZoEhA7sPv67oh61z5-NP7zgh28GhT-Nap_eG32nNaimRrJSywrVapy3A", "width": 1920}], "place_id": "ChIJzeZGIcNCZIgRCR2zroxc3-Y", "plus_code": {"compound_code": "67XG+W5 Nashville, TN, USA", "global_code": "868M67XG+W5"}, "rating": 3.8, "reference": "ChIJzeZGIcNCZIgRCR2zroxc3-Y", "scope": "GOOGLE", "types": ["health", "point_of_interest", "establishment"], "user_ratings_total": 5, "vicinity": "208 West Due West Avenue, Madison"}, {"business_status": "OPERATIONAL", "geometry": {"location": {"lat": 36.252031, "lng": -86.729643}, "viewport": {"northeast": {"lat": 36.2532003302915, "lng": -86.7282120697085}, "southwest": {"lat": 36.2505023697085, "lng": -86.73091003029151}}}, "icon": "https://maps.gstatic.com/mapfiles/place_api/icons/v1/png_71/generic_business-71.png", "name": "Cates Custom Works", "place_id": "ChIJyTJE29pCZIgRWM8ipHJVyMM", "plus_code": {"compound_code": "772C+R4 Nashville, TN, USA", "global_code": "868M772C+R4"}, "rating": 5, "reference": "ChIJyTJE29pCZIgRWM8ipHJVyMM", "scope": "GOOGLE", "types": ["painter", "home_goods_store", "general_contractor", "point_of_interest", "store", "establishment"], "user_ratings_total": 1, "vicinity": "804 Fairoaks Drive, Madison"}]}, {"mapped_location": "(36.19288, -86.75823)", "address": "1210 N 8th St, Nashville", "results": [{"business_status": "OPERATIONAL", "geometry": {"location": {"lat": 36.192631, "lng": -86.757047}, "viewport": {"northeast": {"lat": 36.1939598302915, "lng": -86.7555066197085}, "southwest": {"lat": 36.1912618697085, "lng": -86.7582045802915}}}, "icon": "https://maps.gstatic.com/mapfiles/place_api/icons/v1/png_71/generic_business-71.png", "name": "Food Distribution Center - First Street Missionary Baptist", "place_id": "ChIJrV40UcFnZIgRYXS53GMx1qk", "plus_code": {"compound_code": "56VV+35 Nashville, TN, USA", "global_code": "868M56VV+35"}, "reference": "ChIJrV40UcFnZIgRYXS53GMx1qk", "scope": "GOOGLE", "types": ["food", "point_of_interest", "establishment"], "vicinity": "1206 Montgomery Avenue, Nashville"}, {"business_status": "OPERATIONAL", "geometry": {"location": {"lat": 36.192631, "lng": -86.757047}, "viewport": {"northeast": {"lat": 36.1939598302915, "lng": -86.7555066197085}, "southwest": {"lat": 36.1912618697085, "lng": -86.7582045802915}}}, "icon": "https://maps.gstatic.com/mapfiles/place_api/icons/v1/png_71/worship_general-71.png", "name": "First Street Missionary Baptist Church", "place_id": "ChIJDZAsVsFnZIgR3oA2Ysrk_sU", "plus_code": {"compound_code": "56VV+35 Nashville, TN, USA", "global_code": "868M56VV+35"}, "rating": 5, "reference": "ChIJDZAsVsFnZIgR3oA2Ysrk_sU", "scope": "GOOGLE", "types": ["church", "place_of_worship", "point_of_interest", "establishment"], "user_ratings_total": 1, "vicinity": "1206 Montgomery Avenue, Nashville"}, {"business_status": "OPERATIONAL", "geometry": {"location": {"lat": 36.19404129999999, "lng": -86.758823}, "viewport": {"northeast": {"lat": 36.19539028029148, "lng": -86.7574740197085}, "southwest": {"lat": 36.19269231970848, "lng": -86.7601719802915}}}, "icon": "https://maps.gstatic.com/mapfiles/place_api/icons/v1/png_71/generic_business-71.png", "name": "D Smith Salon", "photos": [{"height": 376, "html_attributions": ["<a href=\"https://maps.google.com/maps/contrib/103224775937386403185\">Delnita Smith</a>"], "photo_reference": "CmRaAAAAj1JbBno8clLC4dZj5d0M3H-XOnZkOOYEZ6BlW-dBCTexhl4x75j0t792fkgeav-U4546FuHwt18Sid6ZaKFLyYxBkRBRNMFgYaSjgy43fji02j4QlZ0VgfqnR4rhqTdCEhCJSpykkHY57r3M-C0pkHhNGhTF62RL0HTz0iVYkwdd0MEjQhZxwg", "width": 1050}], "place_id": "ChIJQ7Shn-tnZIgRTMYJa6iD1UI", "plus_code": {"compound_code": "56VR+JF Nashville, TN, USA", "global_code": "868M56VR+JF"}, "rating": 4.3, "reference": "ChIJQ7Shn-tnZIgRTMYJa6iD1UI", "scope": "GOOGLE", "types": ["beauty_salon", "point_of_interest", "establishment"], "user_ratings_total": 3, "vicinity": "615 Douglas Avenue, Nashville"}, {"business_status": "OPERATIONAL", "geometry": {"location": {"lat": 36.19424190000001, "lng": -86.75919619999999}, "viewport": {"northeast": {"lat": 36.19560363029151, "lng": -86.75797496970848}, "southwest": {"lat": 36.19290566970851, "lng": -86.7606729302915}}}, "icon": "https://maps.gstatic.com/mapfiles/place_api/icons/v1/png_71/shopping-71.png", "name": "Pharaoh's Market", "opening_hours": {"open_now": true}, "photos": [{"height": 3024, "html_attributions": ["<a href=\"https://maps.google.com/maps/contrib/112060801228130266048\">Theron Corse</a>"], "photo_reference": "CmRaAAAAhdRGpW8k_Cu7CbczwBrkeVb97IDIkceOiL4D5TMoo0ZLrrlY59uuJtNmVyInC32uaKgPn-TIuC1U2u_E0ztECJgZRsyGA0yLYT_bN-d9dGPtTLDW41uUjzb9nPJpYIVVEhC-VVNXh5IU2I0Tz3aJOtBPGhQyUrYPFUfxyIv7nwV1ysCNeQLDxg", "width": 4032}], "place_id": "ChIJKwC2AsFnZIgRcTOrMu0e4XI", "plus_code": {"compound_code": "56VR+M8 Nashville, TN, USA", "global_code": "868M56VR+M8"}, "rating": 4.2, "reference": "ChIJKwC2AsFnZIgRcTOrMu0e4XI", "scope": "GOOGLE", "types": ["point_of_interest", "store", "establishment"], "user_ratings_total": 15, "vicinity": "1303 Jones Avenue, Nashville"}, {"business_status": "OPERATIONAL", "geometry": {"location": {"lat": 36.19262239999999, "lng": -86.7562963}, "viewport": {"northeast": {"lat": 36.19399013029149, "lng": -86.75512566970849}, "southwest": {"lat": 36.19129216970849, "lng": -86.7578236302915}}}, "icon": "https://maps.gstatic.com/mapfiles/place_api/icons/v1/png_71/generic_business-71.png", "name": "The Heights", "place_id": "ChIJkxL3dY9nZIgR2Hn9_qKH7KE", "plus_code": {"compound_code": "56VV+2F Nashville, TN, USA", "global_code": "868M56VV+2F"}, "rating": 5, "reference": "ChIJkxL3dY9nZIgR2Hn9_qKH7KE", "scope": "GOOGLE", "types": ["point_of_interest", "establishment"], "user_ratings_total": 1, "vicinity": "1209 Montgomery Avenue, Nashville"}]}, {"mapped_location": "(36.15506986160352, -86.81415470674592)", "address": "2500 Charlotte Ave, Nashville", "results": [{"business_status": "OPERATIONAL", "geometry": {"location": {"lat": 36.155251, "lng": -86.8140845}, "viewport": {"northeast": {"lat": 36.15639718029151, "lng": -86.81267026970849}, "southwest": {"lat": 36.15369921970851, "lng": -86.8153682302915}}}, "icon": "https://maps.gstatic.com/mapfiles/place_api/icons/v1/png_71/generic_business-71.png", "name": "Tennessee Highland Rim Health Care Coalition", "opening_hours": {"open_now": true}, "photos": [{"height": 480, "html_attributions": ["<a href=\"https://maps.google.com/maps/contrib/100047858942873586226\">Tennessee Highland Rim Health Care Coalition</a>"], "photo_reference": "CmRaAAAAJmMMUGj73x6YafYAKJqg-1P6iNEOQUl63OmcYGPL9I7DtZtxPeD-MCS_KWE7LGUancVJ9uIwIOuU-zdcvRpGYCWyM7pnPVyoNUA1weqfHqTEsUSXscArztdP8bJ-WNebEhD1IsDuAqKcxAUSq322rW3zGhRYFrLBcsPj-kFhgpQXySSHjiZZkQ", "width": 851}], "place_id": "ChIJcbG4ahtnZIgR5IorG5Y0Qu8", "plus_code": {"compound_code": "554P+49 Nashville, TN, USA", "global_code": "868M554P+49"}, "reference": "ChIJcbG4ahtnZIgR5IorG5Y0Qu8", "scope": "GOOGLE", "types": ["point_of_interest", "establishment"], "vicinity": "2500 Charlotte Avenue, Nashville"}, {"business_status": "OPERATIONAL", "geometry": {"location": {"lat": 36.15529410000001, "lng": -86.8141024}, "viewport": {"northeast": {"lat": 36.1567250302915, "lng": -86.8128671697085}, "southwest": {"lat": 36.1540270697085, "lng": -86.8155651302915}}}, "icon": "https://maps.gstatic.com/mapfiles/place_api/icons/v1/png_71/civic_building-71.png", "name": "Ryan White Nashville", "place_id": "ChIJV19Z0bdmZIgRTLhWagt30ts", "plus_code": {"compound_code": "554P+49 Nashville, TN, USA", "global_code": "868M554P+49"}, "reference": "ChIJV19Z0bdmZIgRTLhWagt30ts", "scope": "GOOGLE", "types": ["local_government_office", "point_of_interest", "establishment"], "vicinity": "2500 Charlotte Avenue, Nashville"}, {"business_status": "OPERATIONAL", "geometry": {"location": {"lat": 36.15529410000001, "lng": -86.8141024}, "viewport": {"northeast": {"lat": 36.1567250302915, "lng": -86.8128671697085}, "southwest": {"lat": 36.1540270697085, "lng": -86.8155651302915}}}, "icon": "https://maps.gstatic.com/mapfiles/place_api/icons/v1/png_71/generic_business-71.png", "name": "Davidson County WIC", "place_id": "ChIJnTkkO7lmZIgRpUKAuVLbT2E", "plus_code": {"compound_code": "554P+49 Nashville, TN, USA", "global_code": "868M554P+49"}, "reference": "ChIJnTkkO7lmZIgRpUKAuVLbT2E", "scope": "GOOGLE", "types": ["point_of_interest", "establishment"], "vicinity": "2500 Charlotte Avenue, Nashville"}, {"business_status": "OPERATIONAL", "geometry": {"location": {"lat": 36.15529410000001, "lng": -86.8141024}, "viewport": {"northeast": {"lat": 36.1567250302915, "lng": -86.8128671697085}, "southwest": {"lat": 36.1540270697085, "lng": -86.8155651302915}}}, "icon": "https://maps.gstatic.com/mapfiles/place_api/icons/v1/png_71/civic_building-71.png", "name": "Davidson County WIC", "opening_hours": {"open_now": true}, "place_id": "ChIJnTkkO7lmZIgRsMkdXRzDQlY", "plus_code": {"compound_code": "554P+49 Nashville, TN, USA", "global_code": "868M554P+49"}, "rating": 3.8, "reference": "ChIJnTkkO7lmZIgRsMkdXRzDQlY", "scope": "GOOGLE", "types": ["local_government_office", "point_of_interest", "establishment"], "user_ratings_total": 5, "vicinity": "2500 Charlotte Avenue, Nashville"}, {"business_status": "OPERATIONAL", "geometry": {"location": {"lat": 36.15529410000001, "lng": -86.8141024}, "viewport": {"northeast": {"lat": 36.1567250302915, "lng": -86.8128671697085}, "southwest": {"lat": 36.1540270697085, "lng": -86.8155651302915}}}, "icon": "https://maps.gstatic.com/mapfiles/place_api/icons/v1/png_71/civic_building-71.png", "name": "Metro Health Dept. Food Division", "place_id": "ChIJB6ZJtU1dZIgRKmxMe3MAsso", "plus_code": {"compound_code": "554P+49 Nashville, TN, USA", "global_code": "868M554P+49"}, "rating": 4, "reference": "ChIJB6ZJtU1dZIgRKmxMe3MAsso", "scope": "GOOGLE", "types": ["local_government_office", "health", "point_of_interest", "establishment"], "user_ratings_total": 4, "vicinity": "2500 Charlotte Pike, Nashville"}]}, {"mapped_location": "(36.16076500117983, -86.84472775756242)", "address": "1110 48TH AVE N, Nashville", "results": [{"business_status": "OPERATIONAL", "geometry": {"location": {"lat": 36.16070819999999, "lng": -86.8445433}, "viewport": {"northeast": {"lat": 36.1620450302915, "lng": -86.84351181970848}, "southwest": {"lat": 36.1593470697085, "lng": -86.8462097802915}}}, "icon": "https://maps.gstatic.com/mapfiles/place_api/icons/v1/png_71/shopping-71.png", "name": "Mara Machines", "opening_hours": {"open_now": true}, "place_id": "ChIJq6rqyhVhZIgRNjwV0lixknU", "plus_code": {"compound_code": "5564+75 Nashville, TN, USA", "global_code": "868M5564+75"}, "reference": "ChIJq6rqyhVhZIgRNjwV0lixknU", "scope": "GOOGLE", "types": ["store", "point_of_interest", "establishment"], "vicinity": "1110 48th Avenue North, Nashville"}, {"business_status": "OPERATIONAL", "geometry": {"location": {"lat": 36.16058999999999, "lng": -86.8447217}, "viewport": {"northeast": {"lat": 36.1619389802915, "lng": -86.84337271970848}, "southwest": {"lat": 36.1592410197085, "lng": -86.8460706802915}}}, "icon": "https://maps.gstatic.com/mapfiles/place_api/icons/v1/png_71/shopping-71.png", "name": "Welcome to 1979", "opening_hours": {"open_now": true}, "photos": [{"height": 1080, "html_attributions": ["<a href=\"https://maps.google.com/maps/contrib/112969889202780620466\">Welcome to 1979</a>"], "photo_reference": "CmRaAAAAZaUNMIS6E5KhQEXH5iLifZLGNSMGAEpXFOrl4XOFB0T-zoCDa8eyqrSt8qzWOUwMww5oX-zRr1h-G30dCbzLppI9jjVEQGyuKNFIR7iIg5UxSnQum9zu3CSaQ5GrJ0MmEhAm2nS6a2mnPhrHwlGcMDW1GhSfYfhAXzpnODT3GCDvKF0nc941_g", "width": 1920}], "place_id": "ChIJyxeiyhVhZIgRzwleYQotF38", "plus_code": {"compound_code": "5564+64 Nashville, TN, USA", "global_code": "868M5564+64"}, "rating": 5, "reference": "ChIJyxeiyhVhZIgRzwleYQotF38", "scope": "GOOGLE", "types": ["electronics_store", "home_goods_store", "point_of_interest", "store", "establishment"], "user_ratings_total": 127, "vicinity": "1110 48th Avenue North, Nashville"}, {"business_status": "OPERATIONAL", "geometry": {"location": {"lat": 36.1609239, "lng": -86.84442729999999}, "viewport": {"northeast": {"lat": 36.1622413802915, "lng": -86.84307701970849}, "southwest": {"lat": 36.15954341970851, "lng": -86.84577498029151}}}, "icon": "https://maps.gstatic.com/mapfiles/place_api/icons/v1/png_71/generic_business-71.png", "name": "49TN Residences", "opening_hours": {"open_now": true}, "photos": [{"height": 480, "html_attributions": ["<a href=\"https://maps.google.com/maps/contrib/116465601302139277991\">49TN Residences</a>"], "photo_reference": "CmRaAAAARsLQQPdIvzwmlBiQ6TXlfEdEajxHVSwM-dS_nwSvTi65prfEelKUtfw2yCUGjsjvaDyenjl4OLHKOQU0zhK1ka80ZWxju7P2oVdljj5QCeM4tzJ7RvcJxO7NmTxluHdcEhCUmnApbE_v25t7ODkh5GZrGhSdpDqobtG8xg-pjPkpRkGD6LzxHA", "width": 640}], "place_id": "ChIJ37T9D0phZIgRUnQ8wS0uFYs", "plus_code": {"compound_code": "5564+96 Nashville, TN, USA", "global_code": "868M5564+96"}, "reference": "ChIJ37T9D0phZIgRUnQ8wS0uFYs", "scope": "GOOGLE", "types": ["point_of_interest", "establishment"], "vicinity": "4720 Tennessee Avenue, Nashville"}, {"business_status": "OPERATIONAL", "geometry": {"location": {"lat": 36.160764, "lng": -86.845367}, "viewport": {"northeast": {"lat": 36.1621826802915, "lng": -86.84393011970849}, "southwest": {"lat": 36.1594847197085, "lng": -86.84662808029151}}}, "icon": "https://maps.gstatic.com/mapfiles/place_api/icons/v1/png_71/generic_business-71.png", "name": "Johnson Drywall", "place_id": "ChIJl9JaOBRhZIgRAZOfs3hXupM", "plus_code": {"compound_code": "5563+8V Nashville, TN, USA", "global_code": "868M5563+8V"}, "rating": 5, "reference": "ChIJl9JaOBRhZIgRAZOfs3hXupM", "scope": "GOOGLE", "types": ["general_contractor", "point_of_interest", "establishment"], "user_ratings_total": 1, "vicinity": "4801 Tennessee Avenue, Nashville"}, {"business_status": "OPERATIONAL", "geometry": {"location": {"lat": 36.161031, "lng": -86.84537}, "viewport": {"northeast": {"lat": 36.16238293029149, "lng": -86.8440207197085}, "southwest": {"lat": 36.15968496970849, "lng": -86.8467186802915}}}, "icon": "https://maps.gstatic.com/mapfiles/place_api/icons/v1/png_71/generic_business-71.png", "name": "Tennessee Ave & 48th Ave N EB", "place_id": "ChIJvRMwOhRhZIgRg3pCJYuSiSc", "plus_code": {"compound_code": "5563+CV Nashville, TN, USA", "global_code": "868M5563+CV"}, "reference": "ChIJvRMwOhRhZIgRg3pCJYuSiSc", "scope": "GOOGLE", "types": ["transit_station", "point_of_interest", "establishment"], "vicinity": "United States"}]}, {"mapped_location": "(36.26323, -86.70635)", "address": "323 E Old Hickory Blvd, Madison", "results": [{"business_status": "OPERATIONAL", "geometry": {"location": {"lat": 36.2632266, "lng": -86.7063493}, "viewport": {"northeast": {"lat": 36.2642911302915, "lng": -86.7049676697085}, "southwest": {"lat": 36.2615931697085, "lng": -86.7076656302915}}}, "icon": "https://maps.gstatic.com/mapfiles/place_api/icons/v1/png_71/generic_business-71.png", "name": "Soul Theory", "opening_hours": {"open_now": true}, "photos": [{"height": 926, "html_attributions": ["<a href=\"https://maps.google.com/maps/contrib/108683550464522134185\">Soul Theory</a>"], "photo_reference": "CmRaAAAAW3gvi7IF1-Kr5JBjIj2gLLxn5f7S2gXyWmsO_LD8cJMqtwxQzgoQ9dF5IoIRQn1cYWpO1MuwNKia2u0XxcNQOjh4am5E6P9blHKPXCYewxCe6U3wadN3ZUMQ0r06v4H5EhBHMWuiAOz__08hHhDJcPmUGhQpIsYvGo6ojU1FCoNuCaxSMRusMQ", "width": 2560}], "place_id": "ChIJx0uNqkPZZIgRaHwRUBY7HZg", "plus_code": {"compound_code": "777V+7F Nashville, TN, USA", "global_code": "868M777V+7F"}, "reference": "ChIJx0uNqkPZZIgRaHwRUBY7HZg", "scope": "GOOGLE", "types": ["point_of_interest", "establishment"], "vicinity": "323 East Old Hickory Boulevard #3936, Madison"}, {"business_status": "OPERATIONAL", "geometry": {"location": {"lat": 36.26300250000001, "lng": -86.7063134}, "viewport": {"northeast": {"lat": 36.2642796302915, "lng": -86.7049580697085}, "southwest": {"lat": 36.2615816697085, "lng": -86.7076560302915}}}, "icon": "https://maps.gstatic.com/mapfiles/place_api/icons/v1/png_71/post_office-71.png", "name": "United States Postal Service", "opening_hours": {"open_now": true}, "photos": [{"height": 1920, "html_attributions": ["<a href=\"https://maps.google.com/maps/contrib/107029038632948268004\">MAURICE WILEY</a>"], "photo_reference": "CmRaAAAAvOO7gRDqN7XFyTzD0h9QKvF_zgk6eCUEoiy9_q4EY_rkRUDp3l-yHKYuF1sbjYzwBIa_aRkhd9OzK07PiGzxUj2krbzo-s4AiB-EvV4h_5sMmZsUECv7Rw2lNkDwHoEKEhC8fRAOcvy4CvxeeCT8rpCKGhTvS8dnZyE3m8f44Bg3p4UTwkccWA", "width": 1080}], "place_id": "ChIJK2xVPQJDZIgRVAxjJDjm490", "plus_code": {"compound_code": "777V+6F Nashville, TN, USA", "global_code": "868M777V+6F"}, "rating": 1.9, "reference": "ChIJK2xVPQJDZIgRVAxjJDjm490", "scope": "GOOGLE", "types": ["post_office", "finance", "point_of_interest", "establishment"], "user_ratings_total": 63, "vicinity": "323 East Old Hickory Boulevard, Madison"}, {"business_status": "OPERATIONAL", "geometry": {"location": {"lat": 36.2631, "lng": -86.706791}, "viewport": {"northeast": {"lat": 36.2643164302915, "lng": -86.70540581970849}, "southwest": {"lat": 36.2616184697085, "lng": -86.70810378029151}}}, "icon": "https://maps.gstatic.com/mapfiles/place_api/icons/v1/png_71/generic_business-71.png", "name": "Emeco Properties", "place_id": "ChIJb-CUFQJDZIgR19_vj_Lj1-I", "plus_code": {"compound_code": "777V+67 Nashville, TN, USA", "global_code": "868M777V+67"}, "reference": "ChIJb-CUFQJDZIgR19_vj_Lj1-I", "scope": "GOOGLE", "types": ["point_of_interest", "establishment"], "vicinity": "303 East Old Hickory Boulevard, Madison"}, {"business_status": "OPERATIONAL", "geometry": {"location": {"lat": 36.2630433, "lng": -86.7067957}, "viewport": {"northeast": {"lat": 36.2641821802915, "lng": -86.7054225697085}, "southwest": {"lat": 36.2614842197085, "lng": -86.70812053029151}}}, "icon": "https://maps.gstatic.com/mapfiles/place_api/icons/v1/png_71/generic_business-71.png", "name": "BWE Realty Property Management LLC", "opening_hours": {"open_now": true}, "place_id": "ChIJAXojhJpDZIgRBKMSZHirWZU", "plus_code": {"compound_code": "777V+67 Nashville, TN, USA", "global_code": "868M777V+67"}, "rating": 3, "reference": "ChIJAXojhJpDZIgRBKMSZHirWZU", "scope": "GOOGLE", "types": ["point_of_interest", "establishment"], "user_ratings_total": 2, "vicinity": "303 East Old Hickory Boulevard #3936, Madison"}, {"business_status": "OPERATIONAL", "geometry": {"location": {"lat": 36.2630318, "lng": -86.70680949999999}, "viewport": {"northeast": {"lat": 36.2641758302915, "lng": -86.7054369697085}, "southwest": {"lat": 36.2614778697085, "lng": -86.70813493029151}}}, "icon": "https://maps.gstatic.com/mapfiles/place_api/icons/v1/png_71/generic_business-71.png", "name": "Renee Emery, BWE Realty Property Management, LLC", "opening_hours": {"open_now": true}, "photos": [{"height": 1192, "html_attributions": ["<a href=\"https://maps.google.com/maps/contrib/101432511194965053300\">Renee Emery, BWE Realty Property Management, LLC</a>"], "photo_reference": "CmRaAAAA1K6zdyoqurgM7h1HVimCcV8OGR0HDCKQbjLEeTZmjg9M0pTVWWtnMs68OOOfQ1XSVejM1aMnCIvspkptBszqY2QrypEcKGVzgNAeue-qd9ctRRTp-dgmykiMbfWH-nQLEhDjAaixCMGAdnDl0cg82VOmGhQlw0HJhJBi6tezEyhYTOzJCrbm7Q", "width": 2119}], "place_id": "ChIJCw1rCm5DZIgRFPNm1JUrh8Q", "plus_code": {"compound_code": "777V+67 Nashville, TN, USA", "global_code": "868M777V+67"}, "reference": "ChIJCw1rCm5DZIgRFPNm1JUrh8Q", "scope": "GOOGLE", "types": ["point_of_interest", "establishment"], "vicinity": "303 East Old Hickory Boulevard, Madison"}]}, {"mapped_location": "(36.1895, -86.8377)", "address": "Hydes Ferry Rd & County Hospital Rd, Nashville", "results": [{"business_status": "OPERATIONAL", "geometry": {"location": {"lat": 36.189409, "lng": -86.83773}, "viewport": {"northeast": {"lat": 36.1907645302915, "lng": -86.83639071970849}, "southwest": {"lat": 36.1880665697085, "lng": -86.8390886802915}}}, "icon": "https://maps.gstatic.com/mapfiles/place_api/icons/v1/png_71/generic_business-71.png", "name": "County Hospital Rd & Hydes Ferry Rd NB", "place_id": "ChIJSSoqTsNgZIgRSqSW1H8SreI", "plus_code": {"compound_code": "55Q6+QW Nashville, TN, USA", "global_code": "868M55Q6+QW"}, "rating": 5, "reference": "ChIJSSoqTsNgZIgRSqSW1H8SreI", "scope": "GOOGLE", "types": ["transit_station", "point_of_interest", "establishment"], "user_ratings_total": 1, "vicinity": "United States"}, {"business_status": "OPERATIONAL", "geometry": {"location": {"lat": 36.18914850000001, "lng": -86.8385729}, "viewport": {"northeast": {"lat": 36.19039688029149, "lng": -86.8370741697085}, "southwest": {"lat": 36.1876989197085, "lng": -86.83977213029151}}}, "icon": "https://maps.gstatic.com/mapfiles/place_api/icons/v1/png_71/generic_business-71.png", "name": "H E Parmer Co", "photos": [{"height": 320, "html_attributions": ["<a href=\"https://maps.google.com/maps/contrib/104789945973862610956\">Bobby Brasch</a>"], "photo_reference": "CmRaAAAAgfpU3j_S_XJVYCpJaSMgjJ_6WBihVGbope1FaIjk5iBGno7NTC-8_cuwwMCIHdUbmCchtbOzmDJ2mspSKMuqjnC-HYXhmetsIcFhAROuwHMRsCrVfqWmRop2gsfl7MY0EhCXu1vkVxSOf4cwE7lFXqjnGhRRKqOxTCFRt4qtpcj0LrFW7S0s7A", "width": 480}], "place_id": "ChIJB6ivOsNgZIgRL55dwFiLotc", "plus_code": {"compound_code": "55Q6+MH Nashville, TN, USA", "global_code": "868M55Q6+MH"}, "rating": 4.5, "reference": "ChIJB6ivOsNgZIgRL55dwFiLotc", "scope": "GOOGLE", "types": ["roofing_contractor", "point_of_interest", "establishment"], "user_ratings_total": 20, "vicinity": "1635 County Hospital Road, Nashville"}, {"business_status": "OPERATIONAL", "geometry": {"location": {"lat": 36.18839149999999, "lng": -86.8369326}, "viewport": {"northeast": {"lat": 36.1897491302915, "lng": -86.83556386970848}, "southwest": {"lat": 36.1870511697085, "lng": -86.8382618302915}}}, "icon": "https://maps.gstatic.com/mapfiles/place_api/icons/v1/png_71/shopping-71.png", "name": "Tn Auto Sales", "place_id": "ChIJNR4AV9tgZIgRAwrMatISuds", "plus_code": {"compound_code": "55Q7+96 Nashville, TN, USA", "global_code": "868M55Q7+96"}, "reference": "ChIJNR4AV9tgZIgRAwrMatISuds", "scope": "GOOGLE", "types": ["car_repair", "point_of_interest", "store", "establishment"], "vicinity": "3118-3198 Hydes Ferry Road, Nashville"}, {"business_status": "OPERATIONAL", "geometry": {"location": {"lat": 36.1886287, "lng": -86.8389645}, "viewport": {"northeast": {"lat": 36.18990573029149, "lng": -86.8375084197085}, "southwest": {"lat": 36.18720776970849, "lng": -86.8402063802915}}}, "icon": "https://maps.gstatic.com/mapfiles/place_api/icons/v1/png_71/generic_business-71.png", "name": "Metro Water Service", "place_id": "ChIJX-T-zdxgZIgR-OosjgiI8x8", "plus_code": {"compound_code": "55Q6+FC Nashville, TN, USA", "global_code": "868M55Q6+FC"}, "reference": "ChIJX-T-zdxgZIgR-OosjgiI8x8", "scope": "GOOGLE", "types": ["point_of_interest", "establishment"], "vicinity": "1607A County Hospital Road, Nashville"}, {"business_status": "OPERATIONAL", "geometry": {"location": {"lat": 36.1906118, "lng": -86.8388294}, "viewport": {"northeast": {"lat": 36.1920270802915, "lng": -86.8373262697085}, "southwest": {"lat": 36.1893291197085, "lng": -86.8400242302915}}}, "icon": "https://maps.gstatic.com/mapfiles/place_api/icons/v1/png_71/shopping-71.png", "name": "C I Thornburg Co Inc", "opening_hours": {"open_now": true}, "photos": [{"height": 3264, "html_attributions": ["<a href=\"https://maps.google.com/maps/contrib/108970169475731561942\">Joaquin Vasquez</a>"], "photo_reference": "CmRaAAAAqkKmtJB_6KVuGpmB1YUSn_FRGfqYjoC6kuoZBQozBERXF-raxx2QqlAFO3JeuDOnZ00_vzIHjL3XS60zATh2Cb_zoam4QeXgvxuD4f3NhwAbLdNf2Db7uS_fCfrxdckpEhDlTSBZ_JnvZ6zv6PhhZBd1GhR__iEcj5P7NDgkgtChkA6k3kAsQA", "width": 1836}], "place_id": "ChIJ4xioH8NgZIgRUpr7iam1sKY", "plus_code": {"compound_code": "55R6+6F Nashville, TN, USA", "global_code": "868M55R6+6F"}, "rating": 5, "reference": "ChIJ4xioH8NgZIgRUpr7iam1sKY", "scope": "GOOGLE", "types": ["store", "point_of_interest", "establishment"], "user_ratings_total": 1, "vicinity": "3333 Hydes Ferry Road, Nashville"}]}, {"mapped_location": "(36.15495, -86.77711)", "address": "423 6th Ave S, Nashville", "results": [{"business_status": "OPERATIONAL", "geometry": {"location": {"lat": 36.154949, "lng": -86.7771099}, "viewport": {"northeast": {"lat": 36.1563678802915, "lng": -86.7755955697085}, "southwest": {"lat": 36.1536699197085, "lng": -86.7782935302915}}}, "icon": "https://maps.gstatic.com/mapfiles/place_api/icons/v1/png_71/atm-71.png", "name": "LibertyX Bitcoin ATM", "place_id": "ChIJo68kiT5nZIgRhh0d4sl8WD4", "plus_code": {"compound_code": "563F+X5 Nashville, TN, USA", "global_code": "868M563F+X5"}, "reference": "ChIJo68kiT5nZIgRhh0d4sl8WD4", "scope": "GOOGLE", "types": ["atm", "finance", "point_of_interest", "store", "establishment"], "vicinity": "423 6th Avenue South, Nashville"}, {"business_status": "OPERATIONAL", "geometry": {"location": {"lat": 36.154949, "lng": -86.7771099}, "viewport": {"northeast": {"lat": 36.1563678802915, "lng": -86.7755955697085}, "southwest": {"lat": 36.1536699197085, "lng": -86.7782935302915}}}, "icon": "https://maps.gstatic.com/mapfiles/place_api/icons/v1/png_71/generic_business-71.png", "name": "Ole Smoky Moonshine", "opening_hours": {"open_now": true}, "photos": [{"height": 3024, "html_attributions": ["<a href=\"https://maps.google.com/maps/contrib/103964069366803819356\">Franky Blanco</a>"], "photo_reference": "CmRaAAAAHYJRtWJ4IXC5MS2AJFodVlepoEBKynoLC8hAPALO1pXFA33-bBvAk4J3aJjylfpF_nMXp3cu6kwlCDvBQrLt_WDOjvNbj7wydZrc9SA3GsgSHCpsPDVFZq_FFLUz17zNEhA4zDNT0Up2WiOdtQTKDIYyGhSotbf8CX0OEjAT6FMXND1mYBDvbg", "width": 4032}], "place_id": "ChIJ5QGie25nZIgRcRpS1VBGHq0", "plus_code": {"compound_code": "563F+X5 Nashville, TN, USA", "global_code": "868M563F+X5"}, "rating": 4.6, "reference": "ChIJ5QGie25nZIgRcRpS1VBGHq0", "scope": "GOOGLE", "types": ["bar", "point_of_interest", "establishment"], "user_ratings_total": 86, "vicinity": "423 6th Avenue South, Nashville"}, {"business_status": "OPERATIONAL", "geometry": {"location": {"lat": 36.154949, "lng": -86.7771099}, "viewport": {"northeast": {"lat": 36.1564263802915, "lng": -86.77563191970849}, "southwest": {"lat": 36.1537284197085, "lng": -86.7783298802915}}}, "icon": "https://maps.gstatic.com/mapfiles/place_api/icons/v1/png_71/bar-71.png", "name": "Yee-Haw Brewing Co.", "opening_hours": {"open_now": true}, "photos": [{"height": 3024, "html_attributions": ["<a href=\"https://maps.google.com/maps/contrib/100150889448648975628\">Kevin Slate</a>"], "photo_reference": "CmRaAAAAjESR6143nkMzDp1kjk3ApC7-Gh3dgMpYj82YAPJ6TpFCQ0I7ClwpN2YBlKu1LnJICaCHhfe6-PAgPMBY49lPBtSDmMFtOK2HS4cOgComTJF9WbDAGxh9LXTT25n18sBZEhDGpXTU5-i_UmOSJ3wppyEeGhQ9nY_DCkArm-2TztotvwOjnccwoQ", "width": 4032}], "place_id": "ChIJDaN5AV5mZIgRzWhaoxLmzJw", "plus_code": {"compound_code": "563F+X5 Nashville, TN, USA", "global_code": "868M563F+X5"}, "price_level": 2, "rating": 4.5, "reference": "ChIJDaN5AV5mZIgRzWhaoxLmzJw", "scope": "GOOGLE", "types": ["bar", "point_of_interest", "establishment"], "user_ratings_total": 341, "vicinity": "423 6th Avenue South, Nashville"}, {"business_status": "OPERATIONAL", "geometry": {"location": {"lat": 36.154949, "lng": -86.7771099}, "viewport": {"northeast": {"lat": 36.1562979802915, "lng": -86.77576091970849}, "southwest": {"lat": 36.1536000197085, "lng": -86.7784588802915}}}, "icon": "https://maps.gstatic.com/mapfiles/place_api/icons/v1/png_71/generic_business-71.png", "name": "Ole Smoky Distillery", "opening_hours": {"open_now": true}, "photos": [{"height": 1648, "html_attributions": ["<a href=\"https://maps.google.com/maps/contrib/112654762775860626823\">Ole Smoky Distillery</a>"], "photo_reference": "CmRaAAAAU1Pe7sJWhjq_x_2luaF11YsCT5wUphTasXl6SPtyf4eppv-WaFoBi9Mr3vY_ctOVGn0ehC6pU2yffd32R0ATuF8zxXLC7GKcBnVUqe4oFaZE-d7OwiSQuXMGBsvvMPb2EhCUNbgeIFM9n1ABuBztpseuGhRCzbqZBKpG2OakvDL40YfqH-6aNA", "width": 3242}], "place_id": "ChIJqz6wqUJnZIgRCdr5PkFVLE8", "plus_code": {"compound_code": "563F+X5 Nashville, TN, USA", "global_code": "868M563F+X5"}, "rating": 4.4, "reference": "ChIJqz6wqUJnZIgRCdr5PkFVLE8", "scope": "GOOGLE", "types": ["point_of_interest", "establishment"], "user_ratings_total": 69, "vicinity": "423 6th Avenue South, Nashville"}, {"business_status": "OPERATIONAL", "geometry": {"location": {"lat": 36.154993, "lng": -86.77701809999999}, "viewport": {"northeast": {"lat": 36.1562534302915, "lng": -86.77561476970848}, "southwest": {"lat": 36.1535554697085, "lng": -86.7783127302915}}}, "icon": "https://maps.gstatic.com/mapfiles/place_api/icons/v1/png_71/generic_business-71.png", "name": "6th & Peabody", "opening_hours": {"open_now": true}, "photos": [{"height": 1648, "html_attributions": ["<a href=\"https://maps.google.com/maps/contrib/101687342252646989054\">6th &amp; Peabody</a>"], "photo_reference": "CmRaAAAAMcYQemKh97DsJKmvR-vrlc0W-AhjE62_uLwd_07sosJpLT7pjs5C3Tv4kxMwLLdKjlR39OF40F6sq0oXCkFP6rB0QqUo906Sexnn2LA4wY3dXl2cVlNRqedN5blkP9H6EhDUjTcu5sIBqXqEzaHo0xigGhQST3V_A_-whlSxBH5q_A-mgoaYRw", "width": 3242}], "place_id": "ChIJ2dm7-j5nZIgRawlXjEQGEfE", "plus_code": {"compound_code": "563F+X5 Nashville, TN, USA", "global_code": "868M563F+X5"}, "rating": 4.9, "reference": "ChIJ2dm7-j5nZIgRawlXjEQGEfE", "scope": "GOOGLE", "types": ["food", "point_of_interest", "establishment"], "user_ratings_total": 18, "vicinity": "423 6th Avenue South, Nashville"}]}, {"mapped_location": "(36.24575, -86.82518)", "address": "3810 Whites Creek Pike, Nashville", "results": [{"business_status": "OPERATIONAL", "geometry": {"location": {"lat": 36.2457541, "lng": -86.8251782}, "viewport": {"northeast": {"lat": 36.2473465802915, "lng": -86.8233939197085}, "southwest": {"lat": 36.2446486197085, "lng": -86.8260918802915}}}, "icon": "https://maps.gstatic.com/mapfiles/place_api/icons/v1/png_71/shopping-71.png", "name": "Bates Nursery and Garden Center", "opening_hours": {"open_now": true}, "photos": [{"height": 3006, "html_attributions": ["<a href=\"https://maps.google.com/maps/contrib/116604525126087534390\">Lydia B</a>"], "photo_reference": "CmRaAAAAd3Qo2FtZgzZ3Imr8yM_vpQ3qau8_zNu2aLcYarhxKU1iKmkIeRWdw2VQv-FQQGSRIBXqJQk_bFF0kskYo2mkkSvQEu4qTakbEHtir9XW9J52nSlAjDej5h22au9MlXfmEhDmS_bbLfXnA_tzoh3Z1ckYGhSANskaUz1DrEM6b6Nu0HdD-Rzl1A", "width": 5344}], "place_id": "ChIJU2qYYHReZIgRDow7obgXKmc", "plus_code": {"compound_code": "65WF+8W Nashville, TN, USA", "global_code": "868M65WF+8W"}, "rating": 4.8, "reference": "ChIJU2qYYHReZIgRDow7obgXKmc", "scope": "GOOGLE", "types": ["general_contractor", "food", "point_of_interest", "store", "establishment"], "user_ratings_total": 171, "vicinity": "3810 Whites Creek Pike, Nashville"}, {"business_status": "OPERATIONAL", "geometry": {"location": {"lat": 36.2467508, "lng": -86.824666}, "viewport": {"northeast": {"lat": 36.2480936302915, "lng": -86.82332861970848}, "southwest": {"lat": 36.2453956697085, "lng": -86.8260265802915}}}, "icon": "https://maps.gstatic.com/mapfiles/place_api/icons/v1/png_71/civic_building-71.png", "name": "Greathouse", "place_id": "ChIJ4X1g0XBfZIgR1H2QswD-sn8", "plus_code": {"compound_code": "65WG+P4 Nashville, TN, USA", "global_code": "868M65WG+P4"}, "reference": "ChIJ4X1g0XBfZIgR1H2QswD-sn8", "scope": "GOOGLE", "types": ["point_of_interest", "establishment"], "vicinity": "3813 Tennessee 65, Nashville"}, {"business_status": "OPERATIONAL", "geometry": {"location": {"lat": 36.24750059999999, "lng": -86.8240347}, "viewport": {"northeast": {"lat": 36.24860538029149, "lng": -86.8231409197085}, "southwest": {"lat": 36.24590741970849, "lng": -86.82583888029151}}}, "icon": "https://maps.gstatic.com/mapfiles/place_api/icons/v1/png_71/generic_business-71.png", "name": "The Greathouse Company, LLC", "photos": [{"height": 3024, "html_attributions": ["<a href=\"https://maps.google.com/maps/contrib/109969187846881965974\">The Greathouse Company, LLC</a>"], "photo_reference": "CmRaAAAAa1UJ998lNJR-JUXuEMiWiETWSRZeVwdiktTeLCZZeyitKRSAxcNSS1TifU3m75xg7HYkS_McaryhCoS6IOwfh30-SG5hGfqr29_ZKA1dUPdwgtJI4B3canyDiL1IXLAREhCUdGdwF9WpNYchJ0Cvf0eQGhRIyFu_5M409gsObUb1eWH41aDfVA", "width": 4032}], "place_id": "ChIJPf-I-VJfZIgR16HjuFDmu78", "plus_code": {"compound_code": "65XG+29 Nashville, TN, USA", "global_code": "868M65XG+29"}, "reference": "ChIJPf-I-VJfZIgR16HjuFDmu78", "scope": "GOOGLE", "types": ["point_of_interest", "establishment"], "vicinity": "3825 Whites Creek Pike, Nashville"}, {"business_status": "OPERATIONAL", "geometry": {"location": {"lat": 36.245304, "lng": -86.82810599999999}, "viewport": {"northeast": {"lat": 36.24660918029149, "lng": -86.8271238697085}, "southwest": {"lat": 36.2439112197085, "lng": -86.82982183029151}}}, "icon": "https://maps.gstatic.com/mapfiles/place_api/icons/v1/png_71/generic_business-71.png", "name": "Imaginary Records", "place_id": "ChIJ_wdvdHNeZIgR7Z379s12PU0", "plus_code": {"compound_code": "65WC+4Q Nashville, TN, USA", "global_code": "868M65WC+4Q"}, "reference": "ChIJ_wdvdHNeZIgR7Z379s12PU0", "scope": "GOOGLE", "types": ["point_of_interest", "establishment"], "vicinity": "5324 Buena Vista Pike, Nashville"}, {"business_status": "OPERATIONAL", "geometry": {"location": {"lat": 36.24899839999999, "lng": -86.8255963}, "viewport": {"northeast": {"lat": 36.25016078029149, "lng": -86.8245937697085}, "southwest": {"lat": 36.2474628197085, "lng": -86.8272917302915}}}, "icon": "https://maps.gstatic.com/mapfiles/place_api/icons/v1/png_71/generic_business-71.png", "name": "Cedarwood Weddings", "opening_hours": {"open_now": true}, "photos": [{"height": 3017, "html_attributions": ["<a href=\"https://maps.google.com/maps/contrib/116908720690051910107\">Cedarwood Weddings</a>"], "photo_reference": "CmRaAAAAjLFFJnV_qViS_shEDTzzKSVqlFKtXC7MSuW52uA82jWIC5XrKuQYvybHM2Bl2HDW04QmuMNKcd_VRFDQfzsmqodsUCK5-Qd6iM2j8s6OUq9hNRf806gdbgJ5QXlEL5GaEhCCp1gwvoSRRi7R3rsS3mqpGhRDoQUCo0T-37Pruk4AWkcbek0v_Q", "width": 4525}], "place_id": "ChIJ_Ur3lHZeZIgRYj7zIYSGAI8", "plus_code": {"compound_code": "65XF+HQ Nashville, TN, USA", "global_code": "868M65XF+HQ"}, "rating": 4.8, "reference": "ChIJ_Ur3lHZeZIgRYj7zIYSGAI8", "scope": "GOOGLE", "types": ["point_of_interest", "establishment"], "user_ratings_total": 63, "vicinity": "3831 Whites Creek Pike, Nashville"}]}, {"mapped_location": "(36.206649575479226, -86.74856216122473)", "address": "3017 Ambrose Ave, Nashville", "results": [{"business_status": "OPERATIONAL", "geometry": {"location": {"lat": 36.206647, "lng": -86.7486006}, "viewport": {"northeast": {"lat": 36.20799598029151, "lng": -86.7472516197085}, "southwest": {"lat": 36.20529801970851, "lng": -86.74994958029151}}}, "icon": "https://maps.gstatic.com/mapfiles/place_api/icons/v1/png_71/shopping-71.png", "name": "Simple Surface Solutions", "opening_hours": {"open_now": true}, "photos": [{"height": 720, "html_attributions": ["<a href=\"https://maps.google.com/maps/contrib/100383664826387964735\">taura jones</a>"], "photo_reference": "CmRaAAAAX028LrLUxKCBVdsZG6PqphwP-AcBMIMO4gybU3e84v-qIMYgyHI1TEXlGUk0t9ouE9OIcAE7NBugTJy2eDgaDLHYQp2VHyCv6KltqECT7urm_eFsPZzQRwb_XxtgLVVpEhDA6T1VJMsRn_pCO0LAfAt0GhQrwn7CRgrV4kwG0m3oZ-eI0Rc-xQ", "width": 960}], "place_id": "ChIJT4vnBNtcZIgRnqvVwsmf0Og", "plus_code": {"compound_code": "6742+MH Nashville, TN, USA", "global_code": "868M6742+MH"}, "rating": 5, "reference": "ChIJT4vnBNtcZIgRnqvVwsmf0Og", "scope": "GOOGLE", "types": ["home_goods_store", "point_of_interest", "store", "establishment"], "user_ratings_total": 1, "vicinity": "3017 Ambrose Avenue, Nashville"}, {"business_status": "OPERATIONAL", "geometry": {"location": {"lat": 36.206838, "lng": -86.748542}, "viewport": {"northeast": {"lat": 36.2081708802915, "lng": -86.74698531970849}, "southwest": {"lat": 36.2054729197085, "lng": -86.7496832802915}}}, "icon": "https://maps.gstatic.com/mapfiles/place_api/icons/v1/png_71/generic_business-71.png", "name": "Industrial Floor Services Inc", "photos": [{"height": 4032, "html_attributions": ["<a href=\"https://maps.google.com/maps/contrib/105441352523041632812\">Cesar Morales</a>"], "photo_reference": "CmRaAAAAVhdiRFVqhGHi_2JsZJ-StB3oWBoSjgjQ_uPqoODIO-b4_u6LAzT55SMtdUaN64vK8YpJJd3Zqh1vJqRgOLemjQwO9sVGO-8cPdfeLAcVdvNxXGXlqOPyjpOpQVdEDiPeEhCtX9FYj_JYGlz_fsXHxuNuGhSjDVMrX-12vGjYyQWY3O61Lr3wxA", "width": 3024}], "place_id": "ChIJV7MH6ORnZIgRGEZILoRQG2c", "plus_code": {"compound_code": "6742+PH Nashville, TN, USA", "global_code": "868M6742+PH"}, "reference": "ChIJV7MH6ORnZIgRGEZILoRQG2c", "scope": "GOOGLE", "types": ["general_contractor", "point_of_interest", "establishment"], "vicinity": "3019 Ambrose Avenue, Nashville"}, {"business_status": "OPERATIONAL", "geometry": {"location": {"lat": 36.206424, "lng": -86.7485839}, "viewport": {"northeast": {"lat": 36.2077571302915, "lng": -86.7470308697085}, "southwest": {"lat": 36.2050591697085, "lng": -86.7497288302915}}}, "icon": "https://maps.gstatic.com/mapfiles/place_api/icons/v1/png_71/generic_business-71.png", "name": "Fire Alarm Installation Co", "opening_hours": {"open_now": true}, "place_id": "ChIJI0OO5eRnZIgRMzHzyktRefk", "plus_code": {"compound_code": "6742+HH Nashville, TN, USA", "global_code": "868M6742+HH"}, "rating": 5, "reference": "ChIJI0OO5eRnZIgRMzHzyktRefk", "scope": "GOOGLE", "types": ["point_of_interest", "establishment"], "user_ratings_total": 1, "vicinity": "3015 Ambrose Avenue, Nashville"}, {"business_status": "OPERATIONAL", "geometry": {"location": {"lat": 36.20623299999999, "lng": -86.748603}, "viewport": {"northeast": {"lat": 36.20756633029149, "lng": -86.7470517697085}, "southwest": {"lat": 36.2048683697085, "lng": -86.74974973029151}}}, "icon": "https://maps.gstatic.com/mapfiles/place_api/icons/v1/png_71/generic_business-71.png", "name": "Scott Materials", "opening_hours": {"open_now": true}, "place_id": "ChIJPw5P5eRnZIgR4kj7ZXIfko8", "plus_code": {"compound_code": "6742+FH Nashville, TN, USA", "global_code": "868M6742+FH"}, "rating": 4.3, "reference": "ChIJPw5P5eRnZIgR4kj7ZXIfko8", "scope": "GOOGLE", "types": ["general_contractor", "point_of_interest", "store", "establishment"], "user_ratings_total": 7, "vicinity": "3013 Ambrose Avenue, Nashville"}, {"business_status": "OPERATIONAL", "geometry": {"location": {"lat": 36.2065984, "lng": -86.7479516}, "viewport": {"northeast": {"lat": 36.20795503029149, "lng": -86.74670156970849}, "southwest": {"lat": 36.20525706970849, "lng": -86.7493995302915}}}, "icon": "https://maps.gstatic.com/mapfiles/place_api/icons/v1/png_71/generic_business-71.png", "name": "Mc Intosh-Murphy Co Inc", "opening_hours": {"open_now": true}, "place_id": "ChIJq5N6lORnZIgR91BKVjxe-Xg", "plus_code": {"compound_code": "6742+JR Nashville, TN, USA", "global_code": "868M6742+JR"}, "rating": 5, "reference": "ChIJq5N6lORnZIgR91BKVjxe-Xg", "scope": "GOOGLE", "types": ["general_contractor", "point_of_interest", "establishment"], "user_ratings_total": 1, "vicinity": "3016 Ambrose Avenue, Nashville"}]}, {"mapped_location": "(36.1201079, -86.7768145)", "address": "2615 Franklin Pike, Nashville", "results": [{"business_status": "OPERATIONAL", "geometry": {"location": {"lat": 36.1201079, "lng": -86.7768145}, "viewport": {"northeast": {"lat": 36.12139483029151, "lng": -86.7754533197085}, "southwest": {"lat": 36.11869686970851, "lng": -86.77815128029151}}}, "icon": "https://maps.gstatic.com/mapfiles/place_api/icons/v1/png_71/shopping-71.png", "name": "Murray's Cheese", "place_id": "ChIJhRwJeM5lZIgREIh1piyTFIs", "plus_code": {"compound_code": "46CF+27 Nashville, TN, USA", "global_code": "868M46CF+27"}, "reference": "ChIJhRwJeM5lZIgREIh1piyTFIs", "scope": "GOOGLE", "types": ["food", "point_of_interest", "store", "establishment"], "vicinity": "2615 Franklin Pike, Nashville"}, {"business_status": "OPERATIONAL", "geometry": {"location": {"lat": 36.1201079, "lng": -86.7768145}, "viewport": {"northeast": {"lat": 36.1214709802915, "lng": -86.77536621970849}, "southwest": {"lat": 36.1187730197085, "lng": -86.7780641802915}}}, "icon": "https://maps.gstatic.com/mapfiles/place_api/icons/v1/png_71/generic_business-71.png", "name": "Western Union", "opening_hours": {"open_now": true}, "photos": [{"height": 1000, "html_attributions": ["<a href=\"https://maps.google.com/maps/contrib/104092601958050368519\">Western Union</a>"], "photo_reference": "CmRaAAAAtLy7AN2V2WiIOoxXzLJ4QpX3MMYCmGiHVu1bC2b5MEtFsf7TL9LzlPVR16-FSe6vt8s4pdvaXryzr3K25YB3kRUy-FY0c9qGI-V2GsNR_6DTj6Nn80QWv9s15FRIsDsTEhCIlCzNOehXu2ofFMGuA8f1GhRCKnf2u5naqX-YCXkxEn6PkHj7jQ", "width": 1000}], "place_id": "ChIJZwtm89FlZIgRcSB2FBGh2Og", "plus_code": {"compound_code": "46CF+27 Nashville, TN, USA", "global_code": "868M46CF+27"}, "reference": "ChIJZwtm89FlZIgRcSB2FBGh2Og", "scope": "GOOGLE", "types": ["finance", "point_of_interest", "establishment"], "vicinity": "Kroger, 2615 Franklin Pike, Nashville"}, {"business_status": "OPERATIONAL", "geometry": {"location": {"lat": 36.1201, "lng": -86.77669999999999}, "viewport": {"northeast": {"lat": 36.1214535302915, "lng": -86.77559031970848}, "southwest": {"lat": 36.1187555697085, "lng": -86.77828828029149}}}, "icon": "https://maps.gstatic.com/mapfiles/place_api/icons/v1/png_71/generic_business-71.png", "name": "KeyMe", "opening_hours": {"open_now": true}, "photos": [{"height": 4032, "html_attributions": ["<a href=\"https://maps.google.com/maps/contrib/108098255099272954486\">KeyMe</a>"], "photo_reference": "CmRaAAAAZD6e7S5_nv8G9fPDKGL1DlDmL0udzw31epKtM03_uXCEj3A_ZojdlZxJjh-uw0J2cVcn_38jABY0WRiOfoURMaUMB1EC61Xs03OWnjEdghBdW4vOPo7jRyt44dnb-LFuEhCNm3E5tYzakaDHefum--_sGhT8-U8SAJ5m7FI4wLIACm5li7oG-g", "width": 3024}], "place_id": "ChIJU7FE5AJlZIgRZ8avsLUoP-c", "plus_code": {"compound_code": "46CF+28 Nashville, TN, USA", "global_code": "868M46CF+28"}, "rating": 4.7, "reference": "ChIJU7FE5AJlZIgRZ8avsLUoP-c", "scope": "GOOGLE", "types": ["locksmith", "point_of_interest", "establishment"], "user_ratings_total": 3, "vicinity": "2615 Franklin Pike, Nashville"}, {"business_status": "OPERATIONAL", "geometry": {"location": {"lat": 36.1200929, "lng": -86.7764474}, "viewport": {"northeast": {"lat": 36.1214309302915, "lng": -86.7751755697085}, "southwest": {"lat": 36.1187329697085, "lng": -86.7778735302915}}}, "icon": "https://maps.gstatic.com/mapfiles/place_api/icons/v1/png_71/gas_station-71.png", "name": "Kroger Fuel Center", "opening_hours": {"open_now": true}, "photos": [{"height": 270, "html_attributions": ["<a href=\"https://maps.google.com/maps/contrib/111208712414663644776\">Kroger Fuel Center</a>"], "photo_reference": "CmRaAAAAnAxBY3W6vJ2Ox1ymbqiJ177cNc3DBxmTcmYBqe9PqyzzK17N2O6QlF1s8RGKgDG9rfpi_fUYemyKTd6QJrerWrCh32jfquObeStmuOMXoVBNDP9rcXOWF1nqB0dDLgLdEhBDrYFav44S63dMpbYll_23GhRA3ujqoUvjLd2iyUFDwZnuxEFGaA", "width": 480}], "place_id": "ChIJ9_tF0c1lZIgRycM7QDK79iE", "plus_code": {"compound_code": "46CF+2C Nashville, TN, USA", "global_code": "868M46CF+2C"}, "price_level": 2, "rating": 4.2, "reference": "ChIJ9_tF0c1lZIgRycM7QDK79iE", "scope": "GOOGLE", "types": ["gas_station", "point_of_interest", "establishment"], "user_ratings_total": 46, "vicinity": "2615 Franklin Pike, Nashville"}, {"business_status": "OPERATIONAL", "geometry": {"location": {"lat": 36.1199226, "lng": -86.7771759}, "viewport": {"northeast": {"lat": 36.12131538029149, "lng": -86.7757625197085}, "southwest": {"lat": 36.1186174197085, "lng": -86.7784604802915}}}, "icon": "https://maps.gstatic.com/mapfiles/place_api/icons/v1/png_71/shopping-71.png", "name": "Kroger", "opening_hours": {"open_now": true}, "photos": [{"height": 270, "html_attributions": ["<a href=\"https://maps.google.com/maps/contrib/105602422544911192804\">Kroger</a>"], "photo_reference": "CmRaAAAAqPBVz9PS8innYvNTytcGVkn0F7A1LpAkQj6sBBnbmnVj-BpGD-Sml18XqVkUJd8E9dsiDyK6Od_VVQEpnLOzcuCjXWFlpo1bGrv8yOQIjFTSdZUNp2VTYmsgyE87yok9EhD_6YHxTGZa4ey4-w6W3psDGhSFm0cATHz0y-MbQCpqbKuWRnGD7w", "width": 480}], "place_id": "ChIJ9_tF0c1lZIgRyxJ31oCrtRI", "plus_code": {"compound_code": "469F+X4 Nashville, TN, USA", "global_code": "868M469F+X4"}, "price_level": 2, "rating": 3.8, "reference": "ChIJ9_tF0c1lZIgRyxJ31oCrtRI", "scope": "GOOGLE", "types": ["grocery_or_supermarket", "food", "point_of_interest", "store", "establishment"], "user_ratings_total": 630, "vicinity": "2615 Franklin Pike, Nashville"}]}, {"mapped_location": "(36.29122939999999, -86.624713)", "address": "95 Edgehill Ln, Nan", "results": [{"business_status": "OPERATIONAL", "geometry": {"location": {"lat": 36.290527, "lng": -86.6238072}, "viewport": {"northeast": {"lat": 36.2918232302915, "lng": -86.6223091197085}, "southwest": {"lat": 36.2891252697085, "lng": -86.62500708029151}}}, "icon": "https://maps.gstatic.com/mapfiles/place_api/icons/v1/png_71/generic_business-71.png", "name": "Byrd Aerial Lift Rental", "opening_hours": {"open_now": true}, "place_id": "ChIJZaNG_eFBZIgR-8dr6JuajyA", "plus_code": {"compound_code": "79RG+6F Hendersonville, TN, USA", "global_code": "868M79RG+6F"}, "reference": "ChIJZaNG_eFBZIgR-8dr6JuajyA", "scope": "GOOGLE", "types": ["point_of_interest", "establishment"], "vicinity": "103 Augusta Court, Hendersonville"}, {"business_status": "OPERATIONAL", "geometry": {"location": {"lat": 36.2916481, "lng": -86.6261441}, "viewport": {"northeast": {"lat": 36.2930112802915, "lng": -86.62466836970849}, "southwest": {"lat": 36.2903133197085, "lng": -86.6273663302915}}}, "icon": "https://maps.gstatic.com/mapfiles/place_api/icons/v1/png_71/shopping-71.png", "name": "Mc Alister Upholstery & Manufacturing", "opening_hours": {"open_now": true}, "place_id": "ChIJ-4g_Vi9BZIgR92Cs2j7hDF0", "plus_code": {"compound_code": "79RF+MG Hendersonville, TN, USA", "global_code": "868M79RF+MG"}, "reference": "ChIJ-4g_Vi9BZIgR92Cs2j7hDF0", "scope": "GOOGLE", "types": ["furniture_store", "home_goods_store", "point_of_interest", "store", "establishment"], "vicinity": "110 Susan Drive, Hendersonville"}, {"business_status": "OPERATIONAL", "geometry": {"location": {"lat": 36.2923637, "lng": -86.62349139999999}, "viewport": {"northeast": {"lat": 36.2936769302915, "lng": -86.62247461970848}, "southwest": {"lat": 36.2909789697085, "lng": -86.6251725802915}}}, "icon": "https://maps.gstatic.com/mapfiles/place_api/icons/v1/png_71/generic_business-71.png", "name": "Landway Security", "opening_hours": {"open_now": true}, "place_id": "ChIJvZUfEAtBZIgRtG6Z8gUMzUU", "plus_code": {"compound_code": "79RG+WJ Hendersonville, TN, USA", "global_code": "868M79RG+WJ"}, "rating": 5, "reference": "ChIJvZUfEAtBZIgRtG6Z8gUMzUU", "scope": "GOOGLE", "types": ["point_of_interest", "establishment"], "user_ratings_total": 1, "vicinity": "1 Williamsburg Drive, Hendersonville"}, {"business_status": "OPERATIONAL", "geometry": {"location": {"lat": 36.29259999999999, "lng": -86.623683}, "viewport": {"northeast": {"lat": 36.2938308302915, "lng": -86.62223821970849}, "southwest": {"lat": 36.2911328697085, "lng": -86.6249361802915}}}, "icon": "https://maps.gstatic.com/mapfiles/place_api/icons/v1/png_71/generic_business-71.png", "name": "It's Yo Hair", "opening_hours": {"open_now": true}, "place_id": "ChIJz5ZujChBZIgR7INAOPS2z1s", "plus_code": {"compound_code": "79VG+2G Hendersonville, TN, USA", "global_code": "868M79VG+2G"}, "reference": "ChIJz5ZujChBZIgR7INAOPS2z1s", "scope": "GOOGLE", "types": ["hair_care", "point_of_interest", "establishment"], "vicinity": "1, Williamsburg Drive apt 108, Hendersonville"}, {"business_status": "OPERATIONAL", "geometry": {"location": {"lat": 36.29259999999999, "lng": -86.623683}, "viewport": {"northeast": {"lat": 36.2938308302915, "lng": -86.62223821970849}, "southwest": {"lat": 36.2911328697085, "lng": -86.6249361802915}}}, "icon": "https://maps.gstatic.com/mapfiles/place_api/icons/v1/png_71/generic_business-71.png", "name": "Williamsburg by ARIUM Apartments", "opening_hours": {"open_now": true}, "photos": [{"height": 1067, "html_attributions": ["<a href=\"https://maps.google.com/maps/contrib/100786709801132021900\">Williamsburg by ARIUM Apartments</a>"], "photo_reference": "CmRaAAAAOJxv0ItjJg4Jo3efLNrm2MIeQZkn_53uNYj6ryJi91itY99z0U76o0J_RYDv7er_WISUxnooEAShyZVuLMLby0eV4QEzPnpJKvcp0esxbyCAVL_KCCN7MO3461fvXxHhEhD26dUs3PdYDz7k0lY3md4mGhTFIZljvPFAnKmXm1sf8oTjVMFvdg", "width": 1600}], "place_id": "ChIJeRt5lShBZIgR_k8kDcQ5MC8", "plus_code": {"compound_code": "79VG+2G Hendersonville, TN, USA", "global_code": "868M79VG+2G"}, "rating": 4.4, "reference": "ChIJeRt5lShBZIgR_k8kDcQ5MC8", "scope": "GOOGLE", "types": ["real_estate_agency", "point_of_interest", "establishment"], "user_ratings_total": 99, "vicinity": "1 Williamsburg Drive, Hendersonville"}]}, {"mapped_location": "(36.1893764, -86.83874709999999)", "address": "1635 County Hospital Rd, Nashville", "results": [{"business_status": "OPERATIONAL", "geometry": {"location": {"lat": 36.18914850000001, "lng": -86.8385729}, "viewport": {"northeast": {"lat": 36.19039688029149, "lng": -86.8370741697085}, "southwest": {"lat": 36.1876989197085, "lng": -86.83977213029151}}}, "icon": "https://maps.gstatic.com/mapfiles/place_api/icons/v1/png_71/generic_business-71.png", "name": "H E Parmer Co", "photos": [{"height": 320, "html_attributions": ["<a href=\"https://maps.google.com/maps/contrib/104789945973862610956\">Bobby Brasch</a>"], "photo_reference": "CmRaAAAAWCC8pKDYnMkuJMQMQzIdL9E_mW5SejqQixu6qCOPxkJrsQg8h5F8fPa17o-CkPFSnQTZ-1Pm9n27BwNfLvFyuLV06qDbFbj0_8nmjc6LcNZ39D1xBDQ3qRORHMiso43mEhBcrYJoy_NpM-RRJFoorpmaGhSOn9hCSX8A4aQ7dPvJd_DzVyGEdQ", "width": 480}], "place_id": "ChIJB6ivOsNgZIgRL55dwFiLotc", "plus_code": {"compound_code": "55Q6+MH Nashville, TN, USA", "global_code": "868M55Q6+MH"}, "rating": 4.5, "reference": "ChIJB6ivOsNgZIgRL55dwFiLotc", "scope": "GOOGLE", "types": ["roofing_contractor", "point_of_interest", "establishment"], "user_ratings_total": 20, "vicinity": "1635 County Hospital Road, Nashville"}, {"business_status": "OPERATIONAL", "geometry": {"location": {"lat": 36.1886287, "lng": -86.8389645}, "viewport": {"northeast": {"lat": 36.18990573029149, "lng": -86.8375084197085}, "southwest": {"lat": 36.18720776970849, "lng": -86.8402063802915}}}, "icon": "https://maps.gstatic.com/mapfiles/place_api/icons/v1/png_71/generic_business-71.png", "name": "Metro Water Service", "place_id": "ChIJX-T-zdxgZIgR-OosjgiI8x8", "plus_code": {"compound_code": "55Q6+FC Nashville, TN, USA", "global_code": "868M55Q6+FC"}, "reference": "ChIJX-T-zdxgZIgR-OosjgiI8x8", "scope": "GOOGLE", "types": ["point_of_interest", "establishment"], "vicinity": "1607A County Hospital Road, Nashville"}, {"business_status": "OPERATIONAL", "geometry": {"location": {"lat": 36.189409, "lng": -86.83773}, "viewport": {"northeast": {"lat": 36.1907645302915, "lng": -86.83639071970849}, "southwest": {"lat": 36.1880665697085, "lng": -86.8390886802915}}}, "icon": "https://maps.gstatic.com/mapfiles/place_api/icons/v1/png_71/generic_business-71.png", "name": "County Hospital Rd & Hydes Ferry Rd NB", "place_id": "ChIJSSoqTsNgZIgRSqSW1H8SreI", "plus_code": {"compound_code": "55Q6+QW Nashville, TN, USA", "global_code": "868M55Q6+QW"}, "rating": 5, "reference": "ChIJSSoqTsNgZIgRSqSW1H8SreI", "scope": "GOOGLE", "types": ["transit_station", "point_of_interest", "establishment"], "user_ratings_total": 1, "vicinity": "United States"}, {"business_status": "OPERATIONAL", "geometry": {"location": {"lat": 36.189207, "lng": -86.839884}, "viewport": {"northeast": {"lat": 36.1899324802915, "lng": -86.8383963697085}, "southwest": {"lat": 36.1872345197085, "lng": -86.84109433029151}}}, "icon": "https://maps.gstatic.com/mapfiles/place_api/icons/v1/png_71/generic_business-71.png", "name": "Storm Water", "place_id": "ChIJS5Fx1MJgZIgR-JR0CD-q5u0", "plus_code": {"compound_code": "55Q6+M2 Nashville, TN, USA", "global_code": "868M55Q6+M2"}, "reference": "ChIJS5Fx1MJgZIgR-JR0CD-q5u0", "scope": "GOOGLE", "types": ["point_of_interest", "establishment"], "vicinity": "1607 County Hospital Road, Nashville"}, {"business_status": "OPERATIONAL", "geometry": {"location": {"lat": 36.18838199999999, "lng": -86.83894099999999}, "viewport": {"northeast": {"lat": 36.18971753029149, "lng": -86.83757201970849}, "southwest": {"lat": 36.1870195697085, "lng": -86.8402699802915}}}, "icon": "https://maps.gstatic.com/mapfiles/place_api/icons/v1/png_71/generic_business-71.png", "name": "County Hospital Rd & Hyes Ferry Rd WB", "place_id": "ChIJW17bz9xgZIgReKQ18wPG5eM", "plus_code": {"compound_code": "55Q6+9C Nashville, TN, USA", "global_code": "868M55Q6+9C"}, "reference": "ChIJW17bz9xgZIgReKQ18wPG5eM", "scope": "GOOGLE", "types": ["transit_station", "point_of_interest", "establishment"], "vicinity": "United States"}]}, {"mapped_location": "(36.162268311606574, -86.84910769999998)", "address": "1313 51st Ave N, Nashville", "results": [{"business_status": "OPERATIONAL", "geometry": {"location": {"lat": 36.1622648, "lng": -86.8494226}, "viewport": {"northeast": {"lat": 36.1636191302915, "lng": -86.84791636970849}, "southwest": {"lat": 36.1609211697085, "lng": -86.85061433029149}}}, "icon": "https://maps.gstatic.com/mapfiles/place_api/icons/v1/png_71/shopping-71.png", "name": "Laverte's Liquor Store", "opening_hours": {"open_now": true}, "photos": [{"height": 5312, "html_attributions": ["<a href=\"https://maps.google.com/maps/contrib/102921247057558718371\">Dana Newcomb</a>"], "photo_reference": "CmRaAAAAehXX8ulSD_XCZFeCrHmCtm_2EUb4_410EcXgCrzF25CROas_OrdQDGBZoM5J1XpHFJr1saxe4UNv8ddvfNI8pQ952e5dbKzOGpzwAswcNTLrhHQqiVaTaSwlId62MJJDEhAQLPKU5VTqocsVr3ayMe1ZGhRaqHAxhM_OQrd485ATfEnO97aQlg", "width": 2988}], "place_id": "ChIJ50R3fxFhZIgRw1vGtijknSg", "plus_code": {"compound_code": "5562+W6 Nashville, TN, USA", "global_code": "868M5562+W6"}, "rating": 4.6, "reference": "ChIJ50R3fxFhZIgRw1vGtijknSg", "scope": "GOOGLE", "types": ["liquor_store", "point_of_interest", "store", "establishment"], "user_ratings_total": 90, "vicinity": "1313 51st Avenue North, Nashville"}, {"business_status": "OPERATIONAL", "geometry": {"location": {"lat": 36.16251389999999, "lng": -86.8488972}, "viewport": {"northeast": {"lat": 36.16385908029149, "lng": -86.84765966970849}, "southwest": {"lat": 36.1611611197085, "lng": -86.8503576302915}}}, "icon": "https://maps.gstatic.com/mapfiles/place_api/icons/v1/png_71/restaurant-71.png", "name": "Frothy Monkey", "opening_hours": {"open_now": true}, "photos": [{"height": 480, "html_attributions": ["<a href=\"https://maps.google.com/maps/contrib/114511080154197700722\">Charles</a>"], "photo_reference": "CmRaAAAAIBy1jfFc_TKPvmdCjO9PV7KMYoh2WEIVUQqc_AiM158oN3J6dmdzoix1um4tvUgMCttJI7YBzTWnI00LW04xomvYAP1lu0c5FwpS2gFk8c9TevdzWJPhFG7nv6MdWveNEhDPNO4K_qVi2imi7a2W_6a3GhQVrCEdg9V91u8O-KnO5G02fT74dg", "width": 640}], "place_id": "ChIJA827ZhFhZIgRRlfzkXZ7Jvk", "plus_code": {"compound_code": "5572+2C Nashville, TN, USA", "global_code": "868M5572+2C"}, "price_level": 2, "rating": 4.6, "reference": "ChIJA827ZhFhZIgRRlfzkXZ7Jvk", "scope": "GOOGLE", "types": ["restaurant", "cafe", "bar", "food", "point_of_interest", "store", "establishment"], "user_ratings_total": 579, "vicinity": "1400 51st Avenue North, Nashville"}, {"business_status": "OPERATIONAL", "geometry": {"location": {"lat": 36.162462, "lng": -86.84871299999999}, "viewport": {"northeast": {"lat": 36.16373368029149, "lng": -86.84736306970849}, "southwest": {"lat": 36.16103571970849, "lng": -86.8500610302915}}}, "icon": "https://maps.gstatic.com/mapfiles/place_api/icons/v1/png_71/restaurant-71.png", "name": "Nicky's Coal Fired", "opening_hours": {"open_now": false}, "photos": [{"height": 6016, "html_attributions": ["<a href=\"https://maps.google.com/maps/contrib/100957616933672940841\">Nicky&#39;s Coal Fired</a>"], "photo_reference": "CmRaAAAA6g47DYutlvmwTGzE4v2ve1yGK-OA3bcKeJKjoJyQCwV5yN4p_uesrK07Uvg1Q8sQiuxqWVtzGBGTFXKuZExMt8pH7OF-V5aXVxU1xJD2EiRPHApmiBvdYEAovAc7eatUEhBWKuUFK3TWPuWybFXkDaH9GhQLyIup6DjUDBfrQhW3zjBISCbxKA", "width": 4016}], "place_id": "ChIJcSVqYhFhZIgR26RFIzr5-tY", "plus_code": {"compound_code": "5562+XG Nashville, TN, USA", "global_code": "868M5562+XG"}, "price_level": 2, "rating": 4.3, "reference": "ChIJcSVqYhFhZIgR26RFIzr5-tY", "scope": "GOOGLE", "types": ["restaurant", "food", "point_of_interest", "store", "establishment"], "user_ratings_total": 374, "vicinity": "5026 Centennial Boulevard, Nashville"}, {"business_status": "OPERATIONAL", "geometry": {"location": {"lat": 36.1622661, "lng": -86.8495933}, "viewport": {"northeast": {"lat": 36.1636233302915, "lng": -86.84800186970848}, "southwest": {"lat": 36.1609253697085, "lng": -86.85069983029149}}}, "icon": "https://maps.gstatic.com/mapfiles/place_api/icons/v1/png_71/shopping-71.png", "name": "Laverte's Market", "opening_hours": {"open_now": true}, "photos": [{"height": 3024, "html_attributions": ["<a href=\"https://maps.google.com/maps/contrib/116507169039109139751\">Kris Hamid</a>"], "photo_reference": "CmRaAAAA0IHV9yDJoccUAVZj8UDYwcu2mu4Cz1VzEPlInjzyf6SPO8tuUYOMOzG2-43JhHafdF8vaO4RNRaD9iF5eAXcggL31cNpQRtJz7ML9DG8_JS6Lnr1LViTdNQaJ1D58rXOEhAvu9AU4hG_VWyhGdt-KySNGhSiUYoHIg7DOsvdH4I7_ZRSpLvUqw", "width": 4032}], "place_id": "ChIJ50R3fxFhZIgRD8lZ2t2GjyQ", "plus_code": {"compound_code": "5562+W5 Nashville, TN, USA", "global_code": "868M5562+W5"}, "rating": 4.7, "reference": "ChIJ50R3fxFhZIgRD8lZ2t2GjyQ", "scope": "GOOGLE", "types": ["convenience_store", "food", "point_of_interest", "store", "establishment"], "user_ratings_total": 15, "vicinity": "1313 51st Avenue North, Nashville"}, {"business_status": "OPERATIONAL", "geometry": {"location": {"lat": 36.16190689999999, "lng": -86.84887049999999}, "viewport": {"northeast": {"lat": 36.1632535802915, "lng": -86.84763386970849}, "southwest": {"lat": 36.1605556197085, "lng": -86.8503318302915}}}, "icon": "https://maps.gstatic.com/mapfiles/place_api/icons/v1/png_71/shopping-71.png", "name": "51st Deli", "opening_hours": {"open_now": true}, "photos": [{"height": 3024, "html_attributions": ["<a href=\"https://maps.google.com/maps/contrib/116152949586990673833\">April Letellier</a>"], "photo_reference": "CmRaAAAATjIY8GTGiB1awZ75N7fLra0Rhl3998ythajxid_qYLkW9vb3rEwnXve1bhGoJhrLyuPLITTv1GwCafQ7xjbIf0mClnhn4JBr-e9vzVlG2rxm1OogTTMBSLDBMjkByr_5EhD4zkSZepaeas67Ax2oAIpqGhSBZQB1MbFyqKmnXnr7oop5zw1m6g", "width": 4032}], "place_id": "ChIJ_eEQ2RNhZIgR5oIqyN3_Ugo", "plus_code": {"compound_code": "5562+QF Nashville, TN, USA", "global_code": "868M5562+QF"}, "price_level": 1, "rating": 4.5, "reference": "ChIJ_eEQ2RNhZIgR5oIqyN3_Ugo", "scope": "GOOGLE", "types": ["food", "point_of_interest", "store", "establishment"], "user_ratings_total": 470, "vicinity": "1314 51st Avenue North, Nashville"}]}, {"mapped_location": "(36.1616649, -86.8490837)", "address": "1312 51st Ave N, Nashville", "results": [{"business_status": "OPERATIONAL", "geometry": {"location": {"lat": 36.1616328, "lng": -86.8488339}, "viewport": {"northeast": {"lat": 36.1629994802915, "lng": -86.84760981970848}, "southwest": {"lat": 36.1603015197085, "lng": -86.8503077802915}}}, "icon": "https://maps.gstatic.com/mapfiles/place_api/icons/v1/png_71/restaurant-71.png", "name": "Midnight Oil", "opening_hours": {"open_now": false}, "photos": [{"height": 6000, "html_attributions": ["<a href=\"https://maps.google.com/maps/contrib/105034968309737442622\">Kirby Jenkins</a>"], "photo_reference": "CmRaAAAAvkXLdHhDdubDUOi8pyOp0q-PQ_5spDpi-LCbuEmCXqcLCbnv-Bkqm8Nr6JZBJ9s-dKRMvr2ARCk1HQ8wWN__vNNl4KuZD6gCFd9ABgNbR4lTZ98UOiEyE7aq_UHejHZqEhAUaTUqvKpTmlc6cfWrxWLMGhRwopIs6n0L8gB4LsawKKWJXG8D8Q", "width": 8000}], "place_id": "ChIJ3yJsAr1hZIgRQ1-3ak494Ug", "plus_code": {"compound_code": "5562+MF Nashville, TN, USA", "global_code": "868M5562+MF"}, "rating": 4.7, "reference": "ChIJ3yJsAr1hZIgRQ1-3ak494Ug", "scope": "GOOGLE", "types": ["restaurant", "food", "point_of_interest", "establishment"], "user_ratings_total": 21, "vicinity": "1310 51st Avenue North, Nashville"}, {"business_status": "OPERATIONAL", "geometry": {"location": {"lat": 36.1618241, "lng": -86.8492654}, "viewport": {"northeast": {"lat": 36.1631748802915, "lng": -86.84783011970848}, "southwest": {"lat": 36.1604769197085, "lng": -86.8505280802915}}}, "icon": "https://maps.gstatic.com/mapfiles/place_api/icons/v1/png_71/generic_business-71.png", "name": "Industrial Service", "opening_hours": {"open_now": true}, "photos": [{"height": 4032, "html_attributions": ["<a href=\"https://maps.google.com/maps/contrib/115374054705724666822\">Donald Murray</a>"], "photo_reference": "CmRaAAAAtLaNaQ3dbd5YO5LjsIOPgSU7MtyTotd-MUKaORYOOb0B0OgJ9BzNKAvRbF60Z59krgmbTzem8m5L1MHVE431-EKs4r-UjgLLkJXIVlb1zSKWWFSlXi_m5UOKzAsKxDTdEhBOTiWidZGyWMbvYRoxsM-EGhQghJGyIQ2KHqHDCl-ONuD3h_N3kw", "width": 3024}], "place_id": "ChIJTay-1hNhZIgR9fXYeri6exg", "plus_code": {"compound_code": "5562+P7 Nashville, TN, USA", "global_code": "868M5562+P7"}, "rating": 5, "reference": "ChIJTay-1hNhZIgR9fXYeri6exg", "scope": "GOOGLE", "types": ["point_of_interest", "establishment"], "user_ratings_total": 2, "vicinity": "1319 51st Avenue North, Nashville"}, {"business_status": "OPERATIONAL", "geometry": {"location": {"lat": 36.1619026, "lng": -86.8488754}, "viewport": {"northeast": {"lat": 36.1632520802915, "lng": -86.8476363197085}, "southwest": {"lat": 36.1605541197085, "lng": -86.8503342802915}}}, "icon": "https://maps.gstatic.com/mapfiles/place_api/icons/v1/png_71/shopping-71.png", "name": "Savemore Market", "opening_hours": {"open_now": true}, "photos": [{"height": 3120, "html_attributions": ["<a href=\"https://maps.google.com/maps/contrib/105515460541328800680\">Gary Halstead</a>"], "photo_reference": "CmRaAAAAiA1qm16Nl9itcc_IOfzeo9dtQQA9V3BuSoTxsvBwwn4ddgqkOYTQYiwCEMcKTd9ahsKS6nzPKV_uInbBJ5t9-YPoA36huXjIbd91nmWFSL7JS2GPSMq7VdR3jbv4bN4kEhD9SZleM9k2d_WhHw5ML4zXGhQa2d9ulyAeroaJHKG6pPnaGzZxQA", "width": 4160}], "place_id": "ChIJZz_g1xNhZIgR4Vc7oDv_UOA", "plus_code": {"compound_code": "5562+QC Nashville, TN, USA", "global_code": "868M5562+QC"}, "rating": 4.6, "reference": "ChIJZz_g1xNhZIgR4Vc7oDv_UOA", "scope": "GOOGLE", "types": ["point_of_interest", "establishment"], "user_ratings_total": 19, "vicinity": "1314 51st Avenue North, Nashville"}, {"business_status": "OPERATIONAL", "geometry": {"location": {"lat": 36.16190689999999, "lng": -86.84887049999999}, "viewport": {"northeast": {"lat": 36.1632535802915, "lng": -86.84763386970849}, "southwest": {"lat": 36.1605556197085, "lng": -86.8503318302915}}}, "icon": "https://maps.gstatic.com/mapfiles/place_api/icons/v1/png_71/shopping-71.png", "name": "51st Deli", "opening_hours": {"open_now": true}, "photos": [{"height": 3024, "html_attributions": ["<a href=\"https://maps.google.com/maps/contrib/116152949586990673833\">April Letellier</a>"], "photo_reference": "CmRaAAAAy6yppcHLhvpPF7nn6ki-xopiuUAWnNObhwp5zK58sdWYhHtxg4fnTVp8HriV_D0eKFIsq4cqN5iCv1czXzbcpx84SXbeg8NIeRJl0y_CzlqeeykzXItWG7B2U_vePWBTEhDRNpg9X50j3hRAwqT7XhO-GhT4yb_elqEiiz2P0CpUdwb2ied7QQ", "width": 4032}], "place_id": "ChIJ_eEQ2RNhZIgR5oIqyN3_Ugo", "plus_code": {"compound_code": "5562+QF Nashville, TN, USA", "global_code": "868M5562+QF"}, "price_level": 1, "rating": 4.5, "reference": "ChIJ_eEQ2RNhZIgR5oIqyN3_Ugo", "scope": "GOOGLE", "types": ["food", "point_of_interest", "store", "establishment"], "user_ratings_total": 470, "vicinity": "1314 51st Avenue North, Nashville"}, {"business_status": "OPERATIONAL", "geometry": {"location": {"lat": 36.1619172, "lng": -86.84880509999999}, "viewport": {"northeast": {"lat": 36.1633645802915, "lng": -86.84739071970849}, "southwest": {"lat": 36.1606666197085, "lng": -86.85008868029149}}}, "icon": "https://maps.gstatic.com/mapfiles/place_api/icons/v1/png_71/shopping-71.png", "name": "Super Mercado Latina", "place_id": "ChIJ8QCi2BNhZIgRMtuYEFAHvaY", "plus_code": {"compound_code": "5562+QF Nashville, TN, USA", "global_code": "868M5562+QF"}, "reference": "ChIJ8QCi2BNhZIgRMtuYEFAHvaY", "scope": "GOOGLE", "types": ["supermarket", "grocery_or_supermarket", "food", "point_of_interest", "store", "establishment"], "vicinity": "Nashville"}]}, {"mapped_location": "(36.10597021158267, -86.83073185000002)", "address": "4007 Vailwood Dr, Nashville", "results": [{"business_status": "OPERATIONAL", "geometry": {"location": {"lat": 36.1058981, "lng": -86.831582}, "viewport": {"northeast": {"lat": 36.1072352802915, "lng": -86.83042576970848}, "southwest": {"lat": 36.1045373197085, "lng": -86.8331237302915}}}, "icon": "https://maps.gstatic.com/mapfiles/place_api/icons/v1/png_71/generic_business-71.png", "name": "Lamia Afghan Foundation", "place_id": "ChIJZzDxIo5jZIgRsnnSpmu9xkI", "plus_code": {"compound_code": "4549+99 Nashville, TN, USA", "global_code": "868M4549+99"}, "reference": "ChIJZzDxIo5jZIgRsnnSpmu9xkI", "scope": "GOOGLE", "types": ["point_of_interest", "establishment"], "vicinity": "4014 Skyline Drive, Nashville"}, {"business_status": "OPERATIONAL", "geometry": {"location": {"lat": 36.106719, "lng": -86.830214}, "viewport": {"northeast": {"lat": 36.1080616302915, "lng": -86.8290455197085}, "southwest": {"lat": 36.1053636697085, "lng": -86.83174348029151}}}, "icon": "https://maps.gstatic.com/mapfiles/place_api/icons/v1/png_71/generic_business-71.png", "name": "Life Is Organized LLC", "opening_hours": {"open_now": true}, "photos": [{"height": 1024, "html_attributions": ["<a href=\"https://maps.google.com/maps/contrib/104400676101125540813\">Life Is Organized LLC</a>"], "photo_reference": "CmRaAAAAXDuBgwWmkA7V9s2u_f3i4Dr8EAzGhlo5LP6S1jaLD28dZmAbU1W6Ipo-nnlMTVPNWAQsr42KXhXB-RrjnLoG5sBLRbeEp1O4oz8J85U-3dNDRc7o8juj3LMewDjWGUHiEhDXwRPsLZlO4ZJTNi72YqLyGhTbUoOb2dOe5FjUmknLQsM4tSTcVg", "width": 819}], "place_id": "ChIJVQMMcI5jZIgRzOwF1yA3uAY", "plus_code": {"compound_code": "4549+MW Nashville, TN, USA", "global_code": "868M4549+MW"}, "reference": "ChIJVQMMcI5jZIgRzOwF1yA3uAY", "scope": "GOOGLE", "types": ["point_of_interest", "establishment"], "vicinity": "3926 Vailwood Drive, Nashville"}, {"business_status": "OPERATIONAL", "geometry": {"location": {"lat": 36.10539959999999, "lng": -86.8294404}, "viewport": {"northeast": {"lat": 36.10674733029149, "lng": -86.8279853697085}, "southwest": {"lat": 36.1040493697085, "lng": -86.8306833302915}}}, "icon": "https://maps.gstatic.com/mapfiles/place_api/icons/v1/png_71/generic_business-71.png", "name": "Richard B Penuel Finl Planner", "place_id": "ChIJcVyl945jZIgRCDz5r2gFjdc", "plus_code": {"compound_code": "454C+56 Nashville, TN, USA", "global_code": "868M454C+56"}, "reference": "ChIJcVyl945jZIgRCDz5r2gFjdc", "scope": "GOOGLE", "types": ["finance", "point_of_interest", "establishment"], "vicinity": "111 Abbottsford, Nashville"}, {"business_status": "OPERATIONAL", "geometry": {"location": {"lat": 36.107551, "lng": -86.83094799999999}, "viewport": {"northeast": {"lat": 36.1088838802915, "lng": -86.82939046970849}, "southwest": {"lat": 36.1061859197085, "lng": -86.83208843029149}}}, "icon": "https://maps.gstatic.com/mapfiles/place_api/icons/v1/png_71/generic_business-71.png", "name": "Steel Vine Investments", "place_id": "ChIJ-6374I1jZIgRk0_kVg3w5Mk", "plus_code": {"compound_code": "4559+2J Nashville, TN, USA", "global_code": "868M4559+2J"}, "rating": 5, "reference": "ChIJ-6374I1jZIgRk0_kVg3w5Mk", "scope": "GOOGLE", "types": ["finance", "point_of_interest", "establishment"], "user_ratings_total": 1, "vicinity": "3919 Vailwood Drive #150, Nashville"}, {"business_status": "OPERATIONAL", "geometry": {"location": {"lat": 36.10429690000001, "lng": -86.8292899}, "viewport": {"northeast": {"lat": 36.1057264802915, "lng": -86.82781416970849}, "southwest": {"lat": 36.1030285197085, "lng": -86.83051213029151}}}, "icon": "https://maps.gstatic.com/mapfiles/place_api/icons/v1/png_71/generic_business-71.png", "name": "Katie Trokey Fine Art", "place_id": "ChIJ9_UG9C9jZIgRzSzaXwWqHWc", "plus_code": {"compound_code": "453C+P7 Nashville, TN, USA", "global_code": "868M453C+P7"}, "reference": "ChIJ9_UG9C9jZIgRzSzaXwWqHWc", "scope": "GOOGLE", "types": ["point_of_interest", "establishment"], "vicinity": "117 Abbottsford, Nashville"}]}, {"mapped_location": "(36.25865379999999, -86.71311419999999)", "address": "411 Gallatin Pike S, Madison", "results": [{"business_status": "OPERATIONAL", "geometry": {"location": {"lat": 36.2586344, "lng": -86.7132563}, "viewport": {"northeast": {"lat": 36.26000613029149, "lng": -86.7120116697085}, "southwest": {"lat": 36.25730816970849, "lng": -86.71470963029151}}}, "icon": "https://maps.gstatic.com/mapfiles/place_api/icons/v1/png_71/shopping-71.png", "name": "Super hair world", "opening_hours": {"open_now": true}, "photos": [{"height": 2269, "html_attributions": ["<a href=\"https://maps.google.com/maps/contrib/101870665037343014987\">Super hair world</a>"], "photo_reference": "CmRaAAAAlGyO9jfrZG59XtS_NMS0BbtL2h-htjGfMXl8aJPIvOuzZGrTI1U3BBVoJ9IX8BDEehPFTeEwxVpmc_PhlXwun5HXU2BVfM1FUpS2t3k4SooKelHazdvnuez0zqddpCuWEhDc7ug1xkG-3xbnUTIUx-Z8GhSmj2YEFbC-OoIyHV5uDF8vG56zDw", "width": 4032}], "place_id": "ChIJt7zOHeNCZIgRE0lZTvvKCv0", "plus_code": {"compound_code": "775P+FM Nashville, TN, USA", "global_code": "868M775P+FM"}, "rating": 4.1, "reference": "ChIJt7zOHeNCZIgRE0lZTvvKCv0", "scope": "GOOGLE", "types": ["hair_care", "point_of_interest", "store", "establishment"], "user_ratings_total": 265, "vicinity": "411 Gallatin Pike South, Madison"}, {"business_status": "OPERATIONAL", "geometry": {"location": {"lat": 36.2590195, "lng": -86.7131071}, "viewport": {"northeast": {"lat": 36.2603321802915, "lng": -86.7117874197085}, "southwest": {"lat": 36.2576342197085, "lng": -86.7144853802915}}}, "icon": "https://maps.gstatic.com/mapfiles/place_api/icons/v1/png_71/shopping-71.png", "name": "Seventh-Day Adventist Community Services", "opening_hours": {"open_now": true}, "place_id": "ChIJWViJ4OJCZIgRj1qLhTB4XiA", "plus_code": {"compound_code": "775P+JQ Nashville, TN, USA", "global_code": "868M775P+JQ"}, "rating": 4.4, "reference": "ChIJWViJ4OJCZIgRj1qLhTB4XiA", "scope": "GOOGLE", "types": ["point_of_interest", "store", "establishment"], "user_ratings_total": 37, "vicinity": "403 Gallatin Pike South, Madison"}, {"business_status": "OPERATIONAL", "geometry": {"location": {"lat": 36.2589027, "lng": -86.7136794}, "viewport": {"northeast": {"lat": 36.2602220802915, "lng": -86.71219576970849}, "southwest": {"lat": 36.2575241197085, "lng": -86.7148937302915}}}, "icon": "https://maps.gstatic.com/mapfiles/place_api/icons/v1/png_71/shopping-71.png", "name": "Hy's Pawn Shop Inc", "opening_hours": {"open_now": true}, "photos": [{"height": 3264, "html_attributions": ["<a href=\"https://maps.google.com/maps/contrib/115239096211745410459\">Thomas Frye</a>"], "photo_reference": "CmRaAAAAuc3flxxtnw3bKTKejGPlysdZ97qJDMS3xLgkIK7sd6D7B1NcYDY8SPgkcEkBUDoYSkqAWyG9L4tPDx9BopwJuVPz4XnVDfKNkB3rQYrv3KySXsR8Aru3UvD6_6uZasUUEhCNOcaE-caXmwx48HO7fzVlGhSWrf1jf_tjYP_laD41cPSUBf9hPQ", "width": 2448}], "place_id": "ChIJd2FHWQNDZIgRDVoneTfjBHg", "plus_code": {"compound_code": "775P+HG Nashville, TN, USA", "global_code": "868M775P+HG"}, "rating": 4.1, "reference": "ChIJd2FHWQNDZIgRDVoneTfjBHg", "scope": "GOOGLE", "types": ["finance", "point_of_interest", "store", "establishment"], "user_ratings_total": 10, "vicinity": "410 Gallatin Pike South, Madison"}, {"business_status": "OPERATIONAL", "geometry": {"location": {"lat": 36.2581428, "lng": -86.7134337}, "viewport": {"northeast": {"lat": 36.2596067302915, "lng": -86.71206186970849}, "southwest": {"lat": 36.2569087697085, "lng": -86.7147598302915}}}, "icon": "https://maps.gstatic.com/mapfiles/place_api/icons/v1/png_71/shopping-71.png", "name": "Veraz Express", "place_id": "ChIJF6XaPONCZIgRsYIskGLlwjI", "plus_code": {"compound_code": "775P+7J Nashville, TN, USA", "global_code": "868M775P+7J"}, "rating": 4.8, "reference": "ChIJF6XaPONCZIgRsYIskGLlwjI", "scope": "GOOGLE", "types": ["shopping_mall", "point_of_interest", "establishment"], "user_ratings_total": 4, "vicinity": "106 Harris Street, Madison"}, {"business_status": "OPERATIONAL", "geometry": {"location": {"lat": 36.2581043, "lng": -86.71279849999999}, "viewport": {"northeast": {"lat": 36.2594606802915, "lng": -86.71151306970849}, "southwest": {"lat": 36.2567627197085, "lng": -86.7142110302915}}}, "icon": "https://maps.gstatic.com/mapfiles/place_api/icons/v1/png_71/generic_business-71.png", "name": "Serenity House", "place_id": "ChIJJUWfF-NCZIgRiRGMXhcvlxs", "plus_code": {"compound_code": "775P+6V Nashville, TN, USA", "global_code": "868M775P+6V"}, "rating": 5, "reference": "ChIJJUWfF-NCZIgRiRGMXhcvlxs", "scope": "GOOGLE", "types": ["health", "point_of_interest", "establishment"], "user_ratings_total": 4, "vicinity": "102 Harris Street, Madison"}]}, {"mapped_location": "(36.1335679, -86.824021)", "address": "3531 West End Ave, Nashville", "results": [{"business_status": "OPERATIONAL", "geometry": {"location": {"lat": 36.1335679, "lng": -86.824021}, "viewport": {"northeast": {"lat": 36.1353957302915, "lng": -86.82293516970849}, "southwest": {"lat": 36.1326977697085, "lng": -86.82563313029151}}}, "icon": "https://maps.gstatic.com/mapfiles/place_api/icons/v1/png_71/park-71.png", "name": "Elmington Park", "opening_hours": {"open_now": true}, "photos": [{"height": 3120, "html_attributions": ["<a href=\"https://maps.google.com/maps/contrib/100706515890248229787\">Thomas Rains</a>"], "photo_reference": "CmRaAAAA2ZrRzQZSPP5xRbkzsWaDkQuidZ9sqGTsA7js04kneBsksRmae3bWev3JUiQblaWXVbSuOuHpuMzGvrBWEeeyIZy6bk1D-vqGiMmFpJghFcsj0mEapSbBByZKSi8e7VafEhD8AnZdRk-bYWYCwOOtgehBGhQXl2omfZ7p4np_JLKw7UVmjObiZA", "width": 4160}], "place_id": "ChIJR3KE0P9jZIgRpU7A5mMhc-E", "plus_code": {"compound_code": "45MG+C9 Nashville, TN, USA", "global_code": "868M45MG+C9"}, "rating": 4.5, "reference": "ChIJR3KE0P9jZIgRpU7A5mMhc-E", "scope": "GOOGLE", "types": ["park", "tourist_attraction", "point_of_interest", "establishment"], "user_ratings_total": 355, "vicinity": "3531 West End Avenue, Nashville"}, {"business_status": "OPERATIONAL", "geometry": {"location": {"lat": 36.133687, "lng": -86.822341}, "viewport": {"northeast": {"lat": 36.1349801302915, "lng": -86.82118571970851}, "southwest": {"lat": 36.1322821697085, "lng": -86.82388368029152}}}, "icon": "https://maps.gstatic.com/mapfiles/place_api/icons/v1/png_71/generic_business-71.png", "name": "208 Elmington Avenue, Nashville, TN", "place_id": "ChIJZTiK-f9jZIgRBvTF15pWsnw", "plus_code": {"compound_code": "45MH+F3 Nashville, TN, USA", "global_code": "868M45MH+F3"}, "rating": 5, "reference": "ChIJZTiK-f9jZIgRBvTF15pWsnw", "scope": "GOOGLE", "types": ["point_of_interest", "establishment"], "user_ratings_total": 1, "vicinity": "208 Elmington Avenue, Nashville"}, {"business_status": "OPERATIONAL", "geometry": {"location": {"lat": 36.13216449999999, "lng": -86.8242618}, "viewport": {"northeast": {"lat": 36.1333991802915, "lng": -86.8230375697085}, "southwest": {"lat": 36.1307012197085, "lng": -86.82573553029151}}}, "icon": "https://maps.gstatic.com/mapfiles/place_api/icons/v1/png_71/worship_general-71.png", "name": "The Gospel Church", "opening_hours": {"open_now": false}, "place_id": "ChIJDRs48fJjZIgREk0gJI3XjZY", "plus_code": {"compound_code": "45JG+V7 Nashville, TN, USA", "global_code": "868M45JG+V7"}, "rating": 4.8, "reference": "ChIJDRs48fJjZIgREk0gJI3XjZY", "scope": "GOOGLE", "types": ["church", "place_of_worship", "point_of_interest", "establishment"], "user_ratings_total": 10, "vicinity": "West End Middle School, 3529 West End Avenue, Nashville"}, {"business_status": "OPERATIONAL", "geometry": {"location": {"lat": 36.13498999999999, "lng": -86.823993}, "viewport": {"northeast": {"lat": 36.1363786302915, "lng": -86.82267201970849}, "southwest": {"lat": 36.1336806697085, "lng": -86.82536998029151}}}, "icon": "https://maps.gstatic.com/mapfiles/place_api/icons/v1/png_71/generic_business-71.png", "name": "West End Ave & Elmington Ave EB", "place_id": "ChIJkbAKcFVhZIgRUNjyIv_fsNs", "plus_code": {"compound_code": "45MG+XC Nashville, TN, USA", "global_code": "868M45MG+XC"}, "reference": "ChIJkbAKcFVhZIgRUNjyIv_fsNs", "scope": "GOOGLE", "types": ["transit_station", "point_of_interest", "establishment"], "vicinity": "United States"}, {"business_status": "OPERATIONAL", "geometry": {"location": {"lat": 36.1338884, "lng": -86.82576019999999}, "viewport": {"northeast": {"lat": 36.13545773029149, "lng": -86.8245308197085}, "southwest": {"lat": 36.13275976970849, "lng": -86.8272287802915}}}, "icon": "https://maps.gstatic.com/mapfiles/place_api/icons/v1/png_71/worship_general-71.png", "name": "Blakemore United Methodist Church", "photos": [{"height": 667, "html_attributions": ["<a href=\"https://maps.google.com/maps/contrib/102074118640490026273\">Randy Dorman Music / Photography</a>"], "photo_reference": "CmRaAAAAViEyImb8zdCEshdfRxi06k7xZ9Bb7PbDXPkzsdRW9EMsjliJf4qey9ImslpFqIBozRFaIPxUYKmcjKzGyBlqJ7V5RD_z7OUfL2gjCbj5BWbGJ4K5nLxJRgpzjhgCaeW5EhBP8FERFOHMvvjWdc4O3Z0HGhTTXN1zmBcEIiU9wE-F5ftcK2uXtA", "width": 1000}], "place_id": "ChIJ-5tcJ_5jZIgRRyZkKQGVEuI", "plus_code": {"compound_code": "45MF+HM Nashville, TN, USA", "global_code": "868M45MF+HM"}, "rating": 4.9, "reference": "ChIJ-5tcJ_5jZIgRRyZkKQGVEuI", "scope": "GOOGLE", "types": ["church", "place_of_worship", "point_of_interest", "establishment"], "user_ratings_total": 8, "vicinity": "3601 West End Avenue, Nashville"}]}, {"mapped_location": "(36.12352066159012, -86.79759500674591)", "address": "2705 Brightwood Ave, Nashville", "results": [{"business_status": "OPERATIONAL", "geometry": {"location": {"lat": 36.1235379, "lng": -86.7976111}, "viewport": {"northeast": {"lat": 36.1248696302915, "lng": -86.7961197197085}, "southwest": {"lat": 36.1221716697085, "lng": -86.7988176802915}}}, "icon": "https://maps.gstatic.com/mapfiles/place_api/icons/v1/png_71/shopping-71.png", "name": "Right Nice Records LLC", "place_id": "ChIJSSmkRSNkZIgRdFBTOL3k8Rg", "plus_code": {"compound_code": "46F2+CX Nashville, TN, USA", "global_code": "868M46F2+CX"}, "reference": "ChIJSSmkRSNkZIgRdFBTOL3k8Rg", "scope": "GOOGLE", "types": ["electronics_store", "home_goods_store", "point_of_interest", "store", "establishment"], "vicinity": "2705 Brightwood Avenue, Nashville"}, {"business_status": "OPERATIONAL", "geometry": {"location": {"lat": 36.12425999999999, "lng": -86.7983493}, "viewport": {"northeast": {"lat": 36.12549438029149, "lng": -86.79701831970849}, "southwest": {"lat": 36.12279641970849, "lng": -86.7997162802915}}}, "icon": "https://maps.gstatic.com/mapfiles/place_api/icons/v1/png_71/school-71.png", "name": "PERSONAL PILATES", "place_id": "ChIJSaP7FCNkZIgRQhAbB_u6DP4", "plus_code": {"compound_code": "46F2+PM Nashville, TN, USA", "global_code": "868M46F2+PM"}, "reference": "ChIJSaP7FCNkZIgRQhAbB_u6DP4", "scope": "GOOGLE", "types": ["point_of_interest", "establishment"], "vicinity": "1722 Rosewood Avenue, Nashville"}, {"business_status": "OPERATIONAL", "geometry": {"location": {"lat": 36.1237442, "lng": -86.7989846}, "viewport": {"northeast": {"lat": 36.1250770802915, "lng": -86.7974757697085}, "southwest": {"lat": 36.1223791197085, "lng": -86.8001737302915}}}, "icon": "https://maps.gstatic.com/mapfiles/place_api/icons/v1/png_71/generic_business-71.png", "name": "SC Station", "photos": [{"height": 4160, "html_attributions": ["<a href=\"https://maps.google.com/maps/contrib/102734457435893009169\">Marvin Reyes</a>"], "photo_reference": "CmRaAAAAimPnbVQH8XhZCeQyH0_nf2kZJYWJR1oS3UqbsmbImQfy_C7U_KfKH6iu57c31nxJCWKWBAlz2_5p0yDzIh9979vzztpR3_5TG-2OalgzUcdJ_detCENKtCxFnjmi0IUBEhAOboIsrvlyQcwoLt7EvCTyGhQKC-496EtdPh-Tr_5I6lzMZEitPQ", "width": 2340}], "place_id": "ChIJibp4CZ5mZIgRy6wSR3QWUlA", "plus_code": {"compound_code": "46F2+FC Nashville, TN, USA", "global_code": "868M46F2+FC"}, "rating": 4, "reference": "ChIJibp4CZ5mZIgRy6wSR3QWUlA", "scope": "GOOGLE", "types": ["point_of_interest", "establishment"], "user_ratings_total": 1, "vicinity": "2705 Hawthorne Place, Nashville"}, {"business_status": "OPERATIONAL", "geometry": {"location": {"lat": 36.1224239, "lng": -86.79717939999999}, "viewport": {"northeast": {"lat": 36.12379298029149, "lng": -86.7959711697085}, "southwest": {"lat": 36.12109501970849, "lng": -86.7986691302915}}}, "icon": "https://maps.gstatic.com/mapfiles/place_api/icons/v1/png_71/generic_business-71.png", "name": "Bonnie S. Beneke, LCSW", "place_id": "ChIJ58nfqzxkZIgR6JnenNU4zzU", "plus_code": {"compound_code": "46C3+X4 Nashville, TN, USA", "global_code": "868M46C3+X4"}, "reference": "ChIJ58nfqzxkZIgR6JnenNU4zzU", "scope": "GOOGLE", "types": ["doctor", "health", "point_of_interest", "establishment"], "vicinity": "2802 Brightwood Avenue, Nashville"}, {"business_status": "OPERATIONAL", "geometry": {"location": {"lat": 36.122453, "lng": -86.796553}, "viewport": {"northeast": {"lat": 36.12377808029149, "lng": -86.79500846970849}, "southwest": {"lat": 36.12108011970849, "lng": -86.7977064302915}}}, "icon": "https://maps.gstatic.com/mapfiles/place_api/icons/v1/png_71/generic_business-71.png", "name": "Hughey Business Law", "place_id": "ChIJ3Q7sUztkZIgRXuE59cqibJw", "plus_code": {"compound_code": "46C3+X9 Nashville, TN, USA", "global_code": "868M46C3+X9"}, "reference": "ChIJ3Q7sUztkZIgRXuE59cqibJw", "scope": "GOOGLE", "types": ["point_of_interest", "establishment"], "vicinity": "2801 Oakland Avenue, Nashville"}]}, {"mapped_location": "(36.1561057, -86.78762259999999)", "address": "1201 Broadway, Nashville", "results": [{"business_status": "OPERATIONAL", "geometry": {"location": {"lat": 36.1561289, "lng": -86.7875652}, "viewport": {"northeast": {"lat": 36.15756168029149, "lng": -86.78612531970849}, "southwest": {"lat": 36.15486371970849, "lng": -86.7888232802915}}}, "icon": "https://maps.gstatic.com/mapfiles/place_api/icons/v1/png_71/restaurant-71.png", "name": "McDonald's", "opening_hours": {"open_now": true}, "photos": [{"height": 3024, "html_attributions": ["<a href=\"https://maps.google.com/maps/contrib/105831281445809004968\">Sarah H</a>"], "photo_reference": "CmRaAAAALjr2GEPcmM_A8gOJU1gyCDxcqisOvZIkd7WsmBkjLNojJ2Q3BF1naEXnEpaqWJiLZectNB-Cnfj-bIHB191hXT9R0fai__O_u4d_lP8Ml_JZ_cCS_3o_9GPvZ_Yfa4NfEhBVyhGc9QAyCwoiE6sBdhWwGhTJTPzFVrdMsY3JLh8VUz0cwVFVQA", "width": 4032}], "place_id": "ChIJ5RHEZvNmZIgRDuHVIbsJ3Rk", "plus_code": {"compound_code": "5646+FX Nashville, TN, USA", "global_code": "868M5646+FX"}, "price_level": 1, "rating": 3.3, "reference": "ChIJ5RHEZvNmZIgRDuHVIbsJ3Rk", "scope": "GOOGLE", "types": ["cafe", "restaurant", "food", "point_of_interest", "store", "establishment"], "user_ratings_total": 2381, "vicinity": "1201 Broadway, Nashville"}, {"business_status": "OPERATIONAL", "geometry": {"location": {"lat": 36.1565833, "lng": -86.7874528}, "viewport": {"northeast": {"lat": 36.1579048302915, "lng": -86.78608471970848}, "southwest": {"lat": 36.1552068697085, "lng": -86.7887826802915}}}, "icon": "https://maps.gstatic.com/mapfiles/place_api/icons/v1/png_71/generic_business-71.png", "name": "Professional photographers of nashville and middle TN", "place_id": "ChIJUVodGj9nZIgR6WEO3tDePJA", "plus_code": {"compound_code": "5647+J2 Nashville, TN, USA", "global_code": "868M5647+J2"}, "reference": "ChIJUVodGj9nZIgR6WEO3tDePJA", "scope": "GOOGLE", "types": ["point_of_interest", "establishment"], "vicinity": "Broadway, Nashville"}, {"business_status": "OPERATIONAL", "geometry": {"location": {"lat": 36.1565833, "lng": -86.7874528}, "viewport": {"northeast": {"lat": 36.1579036802915, "lng": -86.78608746970848}, "southwest": {"lat": 36.1552057197085, "lng": -86.7887854302915}}}, "icon": "https://maps.gstatic.com/mapfiles/place_api/icons/v1/png_71/bank-71.png", "name": "PNC Bank", "opening_hours": {"open_now": true}, "photos": [{"height": 1025, "html_attributions": ["<a href=\"https://maps.google.com/maps/contrib/108283807188778343832\">PNC Bank</a>"], "photo_reference": "CmRaAAAA_0nbsc91SfABtzrzNBWDDNrM4p51uerMo_-Gtnfa0ekgQen_CQkKfH2G3PlJ8CfYX74dku-EsDz4o7j8GTvt78ajcAcn1zvHhL9Uyt-YBULH0bE5MCMv8g0pC4GHc7daEhBCHvkWjwV0yjCLT30NGdzYGhSQkOrgPaYqMA1xiJWtd1s6U2iD9Q", "width": 1025}], "place_id": "ChIJSb068QNnZIgRqqNQw9ECYkM", "plus_code": {"compound_code": "5647+J2 Nashville, TN, USA", "global_code": "868M5647+J2"}, "rating": 1, "reference": "ChIJSb068QNnZIgRqqNQw9ECYkM", "scope": "GOOGLE", "types": ["bank", "atm", "finance", "point_of_interest", "establishment"], "user_ratings_total": 1, "vicinity": "1198 Broadway, Nashville"}, {"business_status": "OPERATIONAL", "geometry": {"location": {"lat": 36.1565833, "lng": -86.7874528}, "viewport": {"northeast": {"lat": 36.1579036802915, "lng": -86.78608746970848}, "southwest": {"lat": 36.1552057197085, "lng": -86.7887854302915}}}, "icon": "https://maps.gstatic.com/mapfiles/place_api/icons/v1/png_71/shopping-71.png", "name": "Express Athletic Uniforms", "opening_hours": {"open_now": true}, "place_id": "ChIJdVoxavNnZIgRBR4ZmVKLaCI", "plus_code": {"compound_code": "5647+J2 Nashville, TN, USA", "global_code": "868M5647+J2"}, "reference": "ChIJdVoxavNnZIgRBR4ZmVKLaCI", "scope": "GOOGLE", "types": ["point_of_interest", "store", "establishment"], "vicinity": "Broadway, Nashville"}, {"business_status": "OPERATIONAL", "geometry": {"location": {"lat": 36.1555971, "lng": -86.78762259999999}, "viewport": {"northeast": {"lat": 36.1569636302915, "lng": -86.7861898197085}, "southwest": {"lat": 36.1542656697085, "lng": -86.7888877802915}}}, "icon": "https://maps.gstatic.com/mapfiles/place_api/icons/v1/png_71/restaurant-71.png", "name": "Adele's", "opening_hours": {"open_now": false}, "photos": [{"height": 3840, "html_attributions": ["<a href=\"https://maps.google.com/maps/contrib/116277080801030413887\">Adele&#39;s</a>"], "photo_reference": "CmRaAAAADsdwbcfOBc-soVfKd_QrVVu9QY6JpQK_0xLAQmFLGPChteD7dnS0oOn4kFz6sas2KbfrScR5OTKRCYhSdKuiJrFf6EUGvVsrAltnifbxpqtAUXG1dKHv5z5nx-5mUKhxEhCEKSsFB49leZucGxkj16V-GhTh1QDrNUuHeb1Wj5ieVeYImyOgew", "width": 5760}], "place_id": "ChIJ71PMT_NmZIgRPuePSAZHIh0", "plus_code": {"compound_code": "5646+6X Nashville, TN, USA", "global_code": "868M5646+6X"}, "price_level": 3, "rating": 4.5, "reference": "ChIJ71PMT_NmZIgRPuePSAZHIh0", "scope": "GOOGLE", "types": ["restaurant", "food", "point_of_interest", "establishment"], "user_ratings_total": 1028, "vicinity": "1210 McGavock Street, Nashville"}]}, {"mapped_location": "(36.2491428, -86.71896380000001)", "address": "1101 Gallatin Pike S, Madison", "results": [{"business_status": "OPERATIONAL", "geometry": {"location": {"lat": 36.2491982, "lng": -86.71908979999999}, "viewport": {"northeast": {"lat": 36.2506222302915, "lng": -86.71791431970848}, "southwest": {"lat": 36.2479242697085, "lng": -86.7206122802915}}}, "icon": "https://maps.gstatic.com/mapfiles/place_api/icons/v1/png_71/shopping-71.png", "name": "Jenna's Adult Toy Box", "opening_hours": {"open_now": true}, "photos": [{"height": 1836, "html_attributions": ["<a href=\"https://maps.google.com/maps/contrib/105764221535759896690\">Carl C</a>"], "photo_reference": "CmRaAAAA6hnmfJKYZUGkw6jvkjaojJX6cSkKCBaDLGMho7yaMckyt8C_oxVisMCzSF27TlY8CLQKBYuOedbGseDtTObJGMBSOGCu3J0AvWmvIlKSgkdM2V7ReQc2HmrFVKnxmhXTEhDJtTF1KkGZlZeg98dn-612GhQvaqthFbkVswIiYU-RWgKYUA0vTQ", "width": 3264}], "place_id": "ChIJ_a5fX-hCZIgROJNx2A5Arp4", "plus_code": {"compound_code": "67XJ+M9 Nashville, TN, USA", "global_code": "868M67XJ+M9"}, "rating": 4.5, "reference": "ChIJ_a5fX-hCZIgROJNx2A5Arp4", "scope": "GOOGLE", "types": ["point_of_interest", "store", "establishment"], "user_ratings_total": 72, "vicinity": "1101 Gallatin Pike South, Madison"}, {"business_status": "OPERATIONAL", "geometry": {"location": {"lat": 36.249017, "lng": -86.71926200000001}, "viewport": {"northeast": {"lat": 36.2503113802915, "lng": -86.7179422197085}, "southwest": {"lat": 36.2476134197085, "lng": -86.72064018029151}}}, "icon": "https://maps.gstatic.com/mapfiles/place_api/icons/v1/png_71/restaurant-71.png", "name": "Las Maracas", "photos": [{"height": 1080, "html_attributions": ["<a href=\"https://maps.google.com/maps/contrib/105858320648256102875\">Jay Voorhees</a>"], "photo_reference": "CmRaAAAA-UU8FvKKU5MC9OUnaWWOFrX24v7NZ7UiFbuGPv46jRrN6v2TL_eMl96AoJcWVzIPx82tK7AX4gfBrxY6cLPGSElMIaMyjdUUVyPJPS0o3BDGDTvzWFYTqPQRNTN1RI8GEhC-4P3IHZibjJ3BWYstN_QzGhQ8ZWyBTs75huStF7vCCBu1QHs-8w", "width": 1920}], "place_id": "ChIJkR3yWOhCZIgRYPK8Y1D7u_Q", "plus_code": {"compound_code": "67XJ+J7 Nashville, TN, USA", "global_code": "868M67XJ+J7"}, "price_level": 1, "rating": 4.3, "reference": "ChIJkR3yWOhCZIgRYPK8Y1D7u_Q", "scope": "GOOGLE", "types": ["restaurant", "food", "point_of_interest", "establishment"], "user_ratings_total": 811, "vicinity": "1107 Gallatin Pike South, Madison"}, {"business_status": "OPERATIONAL", "geometry": {"location": {"lat": 36.2495325, "lng": -86.7189277}, "viewport": {"northeast": {"lat": 36.25078038029149, "lng": -86.71760776970848}, "southwest": {"lat": 36.2480824197085, "lng": -86.7203057302915}}}, "icon": "https://maps.gstatic.com/mapfiles/place_api/icons/v1/png_71/generic_business-71.png", "name": "Jiffy Lube", "opening_hours": {"open_now": true}, "photos": [{"height": 3024, "html_attributions": ["<a href=\"https://maps.google.com/maps/contrib/100256170460034897252\">Zachary Clifford</a>"], "photo_reference": "CmRaAAAAsyL4zpAyUpagkX0Xp5-D_lwV7sNplamkMElpxXQgm4dIYl9gxh0XgXKzSLC8VJG7yCPmjPVhXdV_vfP_KDvFYASpMhJ3y8Vy0YSkVnGyn0PsvvaqQ0vSiKqdiXtsi3IsEhB6_c59OyeH6QoxG8SpxcSiGhThiMbCaMs3yZp6CpqSgDShkPM9ow", "width": 4032}], "place_id": "ChIJwc5vKOZCZIgRjPpNvZEoSYM", "plus_code": {"compound_code": "67XJ+RC Nashville, TN, USA", "global_code": "868M67XJ+RC"}, "rating": 4.3, "reference": "ChIJwc5vKOZCZIgRjPpNvZEoSYM", "scope": "GOOGLE", "types": ["car_repair", "point_of_interest", "store", "establishment"], "user_ratings_total": 183, "vicinity": "1023 Gallatin Avenue S, Madison"}, {"business_status": "OPERATIONAL", "geometry": {"location": {"lat": 36.24884449999999, "lng": -86.7184712}, "viewport": {"northeast": {"lat": 36.2502315302915, "lng": -86.71724396970849}, "southwest": {"lat": 36.2475335697085, "lng": -86.7199419302915}}}, "icon": "https://maps.gstatic.com/mapfiles/place_api/icons/v1/png_71/bar-71.png", "name": "Dee's Country Cocktail Lounge", "opening_hours": {"open_now": false}, "photos": [{"height": 3036, "html_attributions": ["<a href=\"https://maps.google.com/maps/contrib/106523789157306439192\">David Cappel</a>"], "photo_reference": "CmRaAAAA4_JurGTAC1bzLJEjsG72BB7HtvyF3Y8gWLqPhiZ0t5dJrI0vXMZm-3VAQtG0dhiuMR0CULNYAHUPTu-NO3wcjG-3ItMq3MXIJ_LUI1vB_j1jh0kqjbxYggaHX6w6nZQwEhCfwIms6WNaZ5ypq9zkbsxYGhSW12khLSgiV9tA4M77Y_AcVFdE5A", "width": 4048}], "place_id": "ChIJM5lQ8OhCZIgRiKh1lml3bRk", "plus_code": {"compound_code": "67XJ+GJ Nashville, TN, USA", "global_code": "868M67XJ+GJ"}, "price_level": 1, "rating": 4.5, "reference": "ChIJM5lQ8OhCZIgRiKh1lml3bRk", "scope": "GOOGLE", "types": ["bar", "night_club", "restaurant", "food", "point_of_interest", "establishment"], "user_ratings_total": 390, "vicinity": "102 East Palestine Avenue, Madison"}, {"business_status": "OPERATIONAL", "geometry": {"location": {"lat": 36.24878599999999, "lng": -86.71941699999999}, "viewport": {"northeast": {"lat": 36.25009688029149, "lng": -86.7180760197085}, "southwest": {"lat": 36.24739891970849, "lng": -86.72077398029151}}}, "icon": "https://maps.gstatic.com/mapfiles/place_api/icons/v1/png_71/restaurant-71.png", "name": "McGaugh's Donuts", "opening_hours": {"open_now": true},