[{"mapped_location": "(36.32111476167425, -86.71544930674591)", "address": "200 Memorial Dr, Goodlettsville", "results": [{"business_status": "OPERATIONAL", "geometry": {"location": {"lat": 36.3210235, "lng": -86.7154654}, "viewport": {"northeast": {"lat": 36.3224637302915, "lng": -86.71407066970849}, "southwest": {"lat": 36.3197657697085, "lng": -86.71676863029151}}}, "icon": "https://maps.gstatic.com/mapfiles/place_api/icons/v1/png_71/generic_business-71.png", "name": "Delmas Long Community Center", "opening_hours": {"open_now": true}, "photos": [{"height": 1836, "html_attributions": ["<a href=\"https://maps.google.com/maps/contrib/115719401492053075829\">kasey miller</a>"], "photo_reference": "CmRaAAAAYHL4vD6Hd_bqgIlvhux8Y9ty_0cmMGk6gj1UowYCSvgkbFXCsf1MEuytiom_yE14X2FiWNhM5rxfCr71Xv8QkcwRUGrvheVl0oJfuNMPcCD_9joAZEbD4AdsOiPNngEhEhCnEYpoDLmuwkQYP-Z7Z9jKGhSh8falgkT2xXCxXVtBtOPWxGhQtg", "width": 3264}], "place_id": "ChIJ1d3iypNEZIgRE-Wt5FRqDjo", "plus_code": {"compound_code": "87CM+CR Goodlettsville, TN, USA", "global_code": "868M87CM+CR"}, "rating": 4.7, "reference": "ChIJ1d3iypNEZIgRE-Wt5FRqDjo", "scope": "GOOGLE", "types": ["point_of_interest", "establishment"], "user_ratings_total": 77, "vicinity": "200 Memorial Drive, Goodlettsville"}, {"business_status": "OPERATIONAL", "geometry": {"location": {"lat": 36.3209726, "lng": -86.71572839999999}, "viewport": {"northeast": {"lat": 36.3223215802915, "lng": -86.7143794197085}, "southwest": {"lat": 36.3196236197085, "lng": -86.7170773802915}}}, "icon": "https://maps.gstatic.com/mapfiles/place_api/icons/v1/png_71/civic_building-71.png", "name": "Voting at Goodlettsville Community Center", "opening_hours": {"open_now": true}, "place_id": "ChIJ04hQWJFEZIgRZuPqh_g5Ros", "reference": "ChIJ04hQWJFEZIgRZuPqh_g5Ros", "scope": "GOOGLE", "types": ["point_of_interest", "establishment"], "vicinity": "200 Memorial Drive, Goodlettsville"}, {"business_status": "OPERATIONAL", "geometry": {"location": {"lat": 36.32102649999999, "lng": -86.7151202}, "viewport": {"northeast": {"lat": 36.3224171802915, "lng": -86.71375031970848}, "southwest": {"lat": 36.3197192197085, "lng": -86.7164482802915}}}, "icon": "https://maps.gstatic.com/mapfiles/place_api/icons/v1/png_71/civic_building-71.png", "name": "Goodlettsville Codes Director", "place_id": "ChIJsR-B35NEZIgRcPyWy8lAkGU", "plus_code": {"compound_code": "87CM+CX Goodlettsville, TN, USA", "global_code": "868M87CM+CX"}, "reference": "ChIJsR-B35NEZIgRcPyWy8lAkGU", "scope": "GOOGLE", "types": ["fire_station", "point_of_interest", "establishment"], "vicinity": "117 Memorial Drive, Goodlettsville"}, {"business_status": "OPERATIONAL", "geometry": {"location": {"lat": 36.320672, "lng": -86.71473}, "viewport": {"northeast": {"lat": 36.3222212802915, "lng": -86.7133745197085}, "southwest": {"lat": 36.31952331970851, "lng": -86.7160724802915}}}, "icon": "https://maps.gstatic.com/mapfiles/place_api/icons/v1/png_71/generic_business-71.png", "name": "Jonah's Journey", "photos": [{"height": 804, "html_attributions": ["<a href=\"https://maps.google.com/maps/contrib/111566034253438108797\">Jonah&#39;s Journey</a>"], "photo_reference": "CmRaAAAA6SjyRjg1DuAb277NMMe6wuBVVp8rslrZRNzIH-OrJsJgyLmBD5K0pSVYWewLwG_7-056RdcNzUpswmZVj7GxHNtE2hEpJG3PjR1XehksrveCSa54IqDwzgjgJLuFTUL0EhCIlfg-ziG0hcmdQvtNowFmGhSzCP4_k3NHekdgzAQ8Y7TbNo9Glg", "width": 1434}], "place_id": "ChIJUfbZ-3MwZIgRFQ-5LJnxcJ0", "plus_code": {"compound_code": "87CP+74 Goodlettsville, TN, USA", "global_code": "868M87CP+74"}, "rating": 4.3, "reference": "ChIJUfbZ-3MwZIgRFQ-5LJnxcJ0", "scope": "GOOGLE", "types": ["point_of_interest", "establishment"], "user_ratings_total": 6, "vicinity": "107b Memorial Drive, Goodlettsville"}, {"business_status": "OPERATIONAL", "geometry": {"location": {"lat": 36.3207709, "lng": -86.7144851}, "viewport": {"northeast": {"lat": 36.3222693302915, "lng": -86.71314421970848}, "southwest": {"lat": 36.31957136970851, "lng": -86.71584218029149}}}, "icon": "https://maps.gstatic.com/mapfiles/place_api/icons/v1/png_71/restaurant-71.png", "name": "Liz's Kitchen", "opening_hours": {"open_now": false}, "photos": [{"height": 3024, "html_attributions": ["<a href=\"https://maps.google.com/maps/contrib/111949476397647694589\">Tony Adkins</a>"], "photo_reference": "CmRaAAAAlYBy5Pb9hCW9LtF87mhUa9Lp8TbGg1afhVftv4nT8N2LoYBp9ej1eF0nxB55jt1XQBglbuQMLvIo7I1WzRCyqsW8nLpgK1r1JAysvUPG-U8d6Nz_bJYHagQ95ffUT4UqEhCe4UyqS1SYVk2bHbKCn7jPGhRCLkogg5qkJd91u-D9v52zh-S_Kg", "width": 4032}], "place_id": "ChIJkbIaZZFEZIgRtASbJnOjZvM", "plus_code": {"compound_code": "87CP+86 Goodlettsville, TN, USA", "global_code": "868M87CP+86"}, "price_level": 1, "rating": 4.6, "reference": "ChIJkbIaZZFEZIgRtASbJnOjZvM", "scope": "GOOGLE", "types": ["restaurant", "food", "point_of_interest", "establishment"], "user_ratings_total": 601, "vicinity": "107 Memorial Drive, Goodlettsville"}]}, {"mapped_location": "(36.1522192, -86.7984352)", "address": "1908 West End Ave, Nashville", "results": [{"business_status": "OPERATIONAL", "geometry": {"location": {"lat": 36.1521982, "lng": -86.79841069999999}, "viewport": {"northeast": {"lat": 36.1535185302915, "lng": -86.79711891970848}, "southwest": {"lat": 36.1508205697085, "lng": -86.79981688029149}}}, "icon": "https://maps.gstatic.com/mapfiles/place_api/icons/v1/png_71/generic_business-71.png", "name": "Pizza Hut", "opening_hours": {"open_now": true}, "photos": [{"height": 1867, "html_attributions": ["<a href=\"https://maps.google.com/maps/contrib/118397530509957598984\">Jonathan Cutrer</a>"], "photo_reference": "CmRaAAAA82XoAE8uJrxdgbZKVu_JeTFG5ES__Z54uyqFbEZP3pZ9fmFm2KWy-toLnQUMabUtsR2AVff-rPI8YZ0OqeNjfF_9cBpNCaYwMuLlSYDU_Vmf8BICOlt5QtFwZSgO7-2GEhD-jVeWjgbnuF49Rg8-3ltYGhTJTl3l-gNoJXsj1A8eV2EgnvmpAw", "width": 3320}], "place_id": "ChIJ2TkpXZRmZIgR3W2SvDCZubc", "plus_code": {"compound_code": "5622+VJ Nashville, TN, USA", "global_code": "868M5622+VJ"}, "price_level": 1, "rating": 2.6, "reference": "ChIJ2TkpXZRmZIgR3W2SvDCZubc", "scope": "GOOGLE", "types": ["meal_delivery", "meal_takeaway", "restaurant", "food", "point_of_interest", "establishment"], "user_ratings_total": 243, "vicinity": "1908 West End Avenue, Nashville"}, {"business_status": "OPERATIONAL", "geometry": {"location": {"lat": 36.15219189999999, "lng": -86.7984012}, "viewport": {"northeast": {"lat": 36.15351138029149, "lng": -86.79711111970849}, "southwest": {"lat": 36.15081341970849, "lng": -86.79980908029151}}}, "icon": "https://maps.gstatic.com/mapfiles/place_api/icons/v1/png_71/restaurant-71.png", "name": "Wing Street", "opening_hours": {"open_now": true}, "place_id": "ChIJK7E6XJRmZIgRUgWEDk3FGZM", "plus_code": {"compound_code": "5622+VJ Nashville, TN, USA", "global_code": "868M5622+VJ"}, "price_level": 2, "rating": 4.8, "reference": "ChIJK7E6XJRmZIgRUgWEDk3FGZM", "scope": "GOOGLE", "types": ["meal_takeaway", "restaurant", "food", "point_of_interest", "establishment"], "user_ratings_total": 4, "vicinity": "1908 West End Avenue, Nashville"}, {"business_status": "OPERATIONAL", "geometry": {"location": {"lat": 36.1523267, "lng": -86.7982972}, "viewport": {"northeast": {"lat": 36.15371663029151, "lng": -86.7968347697085}, "southwest": {"lat": 36.15101866970851, "lng": -86.7995327302915}}}, "icon": "https://maps.gstatic.com/mapfiles/place_api/icons/v1/png_71/generic_business-71.png", "name": "Cloud Katharine R", "place_id": "ChIJgW8OXpRmZIgRV86SeY1hF3I", "plus_code": {"compound_code": "5622+WM Nashville, TN, USA", "global_code": "868M5622+WM"}, "reference": "ChIJgW8OXpRmZIgRV86SeY1hF3I", "scope": "GOOGLE", "types": ["lawyer", "point_of_interest", "establishment"], "vicinity": "1906 West End Avenue, Nashville"}, {"business_status": "OPERATIONAL", "geometry": {"location": {"lat": 36.1523625, "lng": -86.7982768}, "viewport": {"northeast": {"lat": 36.1537463802915, "lng": -86.79683116970848}, "southwest": {"lat": 36.1510484197085, "lng": -86.79952913029149}}}, "icon": "https://maps.gstatic.com/mapfiles/place_api/icons/v1/png_71/generic_business-71.png", "name": "GREGORY S. REYNOLDS", "place_id": "ChIJgW8OXpRmZIgRPPO2ASBIUtI", "plus_code": {"compound_code": "5622+WM Nashville, TN, USA", "global_code": "868M5622+WM"}, "reference": "ChIJgW8OXpRmZIgRPPO2ASBIUtI", "scope": "GOOGLE", "types": ["lawyer", "point_of_interest", "establishment"], "vicinity": "1906 West End Avenue, Nashville"}, {"business_status": "OPERATIONAL", "geometry": {"location": {"lat": 36.1522678, "lng": -86.7981856}, "viewport": {"northeast": {"lat": 36.1536541302915, "lng": -86.79675631970848}, "southwest": {"lat": 36.1509561697085, "lng": -86.7994542802915}}}, "icon": "https://maps.gstatic.com/mapfiles/place_api/icons/v1/png_71/generic_business-71.png", "name": "Riley Warnock & Jacobson, PLC", "place_id": "ChIJgW8OXpRmZIgRQDHRwCSgvw4", "plus_code": {"compound_code": "5622+WP Nashville, TN, USA", "global_code": "868M5622+WP"}, "rating": 4, "reference": "ChIJgW8OXpRmZIgRQDHRwCSgvw4", "scope": "GOOGLE", "types": ["lawyer", "point_of_interest", "establishment"], "user_ratings_total": 4, "vicinity": "1906 West End Avenue, Nashville"}]}, {"mapped_location": "(36.204357711624496, -86.6931214932541)", "address": "127 Opry Mills Dr, Nashville", "results": [{"business_status": "OPERATIONAL", "geometry": {"location": {"lat": 36.20438599999999, "lng": -86.69324}, "viewport": {"northeast": {"lat": 36.2056903802915, "lng": -86.6920291197085}, "southwest": {"lat": 36.2029924197085, "lng": -86.6947270802915}}}, "icon": "https://maps.gstatic.com/mapfiles/place_api/icons/v1/png_71/shopping-71.png", "name": "Earthbound Trading Co", "opening_hours": {"open_now": true}, "photos": [{"height": 4968, "html_attributions": ["<a href=\"https://maps.google.com/maps/contrib/118317801062564343102\">Jason Williams</a>"], "photo_reference": "CmRaAAAA8zAS5_CuyRKDFQp3pRL12YcLCQLgBTP0Ru_3gUTNvln0_Hn5yC3tN8olqWZQFxgmoJCP8Jn6ukyj4_4qaZVJbgwwl4-I7LRTV7gZTBlwqY3Z67iW5tR4sHcxffHh4weYEhBf-FnYjDzzPHvTFkm8CP2yGhTiqwyNKoHWE3cW2kBpufozZaGApQ", "width": 3726}], "place_id": "ChIJ_3ZBpc9pZIgRM7yq5Ngqw-M", "plus_code": {"compound_code": "6834+QP Nashville, TN, USA", "global_code": "868M6834+QP"}, "rating": 4.7, "reference": "ChIJ_3ZBpc9pZIgRM7yq5Ngqw-M", "scope": "GOOGLE", "types": ["clothing_store", "jewelry_store", "point_of_interest", "store", "establishment"], "user_ratings_total": 100, "vicinity": "Earthbound Trading Co, 135 Opry Mills Drive, Nashville"}, {"business_status": "OPERATIONAL", "geometry": {"location": {"lat": 36.2044567, "lng": -86.6931054}, "viewport": {"northeast": {"lat": 36.2057066802915, "lng": -86.69209271970848}, "southwest": {"lat": 36.2030087197085, "lng": -86.6947906802915}}}, "icon": "https://maps.gstatic.com/mapfiles/place_api/icons/v1/png_71/school-71.png", "name": "Mall Opry Mills", "place_id": "ChIJt0COdfhpZIgRc7WtxgJZwJM", "plus_code": {"compound_code": "6834+QQ Nashville, TN, USA", "global_code": "868M6834+QQ"}, "reference": "ChIJt0COdfhpZIgRc7WtxgJZwJM", "scope": "GOOGLE", "types": ["school", "point_of_interest", "establishment"], "vicinity": "127 Opry Mills Drive, Nashville"}, {"business_status": "OPERATIONAL", "geometry": {"location": {"lat": 36.20450099999999, "lng": -86.693208}, "viewport": {"northeast": {"lat": 36.2058039302915, "lng": -86.69210766970849}, "southwest": {"lat": 36.2031059697085, "lng": -86.69480563029151}}}, "icon": "https://maps.gstatic.com/mapfiles/place_api/icons/v1/png_71/shopping-71.png", "name": "rue21", "opening_hours": {"open_now": true}, "photos": [{"height": 2448, "html_attributions": ["<a href=\"https://maps.google.com/maps/contrib/113827070569302562718\">Andrew L</a>"], "photo_reference": "CmRaAAAA0PMAF2qqvH42H2xMXdkBOrY4cRvhW_tOBJ6b3iDv__FU3m7rG-xVeDpi__Zb5EDVvZ-0J_jwqyR91d6sAFrOdEwSKvHsNVZ3D8sg5UegdMsrEbiHUMbm0W41vmzmslmeEhBdkpTxx0Rmw1I08dVR2gVsGhRCmE-S_SAV17OrHVRnK6sE-tM28g", "width": 3264}], "place_id": "ChIJf0kSAc9pZIgRUZcfd3OdCcs", "plus_code": {"compound_code": "6834+RP Nashville, TN, USA", "global_code": "868M6834+RP"}, "price_level": 1, "rating": 4, "reference": "ChIJf0kSAc9pZIgRUZcfd3OdCcs", "scope": "GOOGLE", "types": ["clothing_store", "point_of_interest", "store", "establishment"], "user_ratings_total": 153, "vicinity": "131 Opry Mills Drive Space 329 A, Nashville"}, {"business_status": "OPERATIONAL", "geometry": {"location": {"lat": 36.2041636, "lng": -86.6931982}, "viewport": {"northeast": {"lat": 36.2054777302915, "lng": -86.6919707197085}, "southwest": {"lat": 36.20277976970851, "lng": -86.6946686802915}}}, "icon": "https://maps.gstatic.com/mapfiles/place_api/icons/v1/png_71/shopping-71.png", "name": "Boot Factory Outlet", "opening_hours": {"open_now": true}, "photos": [{"height": 3144, "html_attributions": ["<a href=\"https://maps.google.com/maps/contrib/111282725270054086886\">Debra Sheridan</a>"], "photo_reference": "CmRaAAAAsnzP3xaZ7ec8lyRANnfU_T16Q4ju1sfTGiBj-rDjqcY0GNcXs6Gssv8SFLNinM8tWCmxGlOArR_Q5AojPOhSo7TQZrAgQ5L72X35_iYrpeZ4CkUQQ7JGEshJAVy05RoaEhBNYgjnv-o3RWUaU8CzXChqGhRXz7uVgw507fWxNYcg0AUcHFICBQ", "width": 4192}], "place_id": "ChIJO3FHXs5pZIgR-PguHofNh5I", "plus_code": {"compound_code": "6834+MP Nashville, TN, USA", "global_code": "868M6834+MP"}, "rating": 4.4, "reference": "ChIJO3FHXs5pZIgR-PguHofNh5I", "scope": "GOOGLE", "types": ["shoe_store", "point_of_interest", "store", "establishment"], "user_ratings_total": 232, "vicinity": "127 Opry Mills Drive #325b, Nashville"}, {"business_status": "OPERATIONAL", "geometry": {"location": {"lat": 36.2043826, "lng": -86.6928576}, "viewport": {"northeast": {"lat": 36.2056363302915, "lng": -86.69195756970849}, "southwest": {"lat": 36.20293836970851, "lng": -86.6946555302915}}}, "icon": "https://maps.gstatic.com/mapfiles/place_api/icons/v1/png_71/shopping-71.png", "name": "Haagen-Dazs", "photos": [{"height": 4032, "html_attributions": ["<a href=\"https://maps.google.com/maps/contrib/103744099832202128982\">Debbie Simler-Goff</a>"], "photo_reference": "CmRaAAAAcAKJCQZutq0klzLAaYaKpaog1u6i7sRnWY3FetqTthxeRabY0lPky_8_QcQzL-IpOdXiMWb4PoSGEPqAV4Avplzns1DKKehG9Cf5yBnmnBLDmjqj4Xxjw3ga-zoocvgQEhDPJpXwUeq9zo5FthkcHU7-GhTKzMXaZHGIOadwxuKXKWSuQ0QZ2Q", "width": 3024}], "place_id": "ChIJYaoNxj9pZIgRGMIJAP4I8iw", "plus_code": {"compound_code": "6834+QV Nashville, TN, USA", "global_code": "868M6834+QV"}, "rating": 3, "reference": "ChIJYaoNxj9pZIgRGMIJAP4I8iw", "scope": "GOOGLE", "types": ["food", "point_of_interest", "store", "establishment"], "user_ratings_total": 10, "vicinity": "433 Opry Mills Drive, Nashville"}]}, {"mapped_location": "(36.1922048, -86.6232825)", "address": "3475 Lebanon Pike, Hermitage", "results": [{"business_status": "OPERATIONAL", "geometry": {"location": {"lat": 36.1922048, "lng": -86.6232825}, "viewport": {"northeast": {"lat": 36.1933154302915, "lng": -86.62206956970849}, "southwest": {"lat": 36.1906174697085, "lng": -86.6247675302915}}}, "icon": "https://maps.gstatic.com/mapfiles/place_api/icons/v1/png_71/generic_business-71.png", "name": "Food Distribution Center - Hermitage Hills Baptist Church - Heartbeat Ministries", "place_id": "ChIJPfBQs19qZIgRDGQDXABgmKY", "plus_code": {"compound_code": "59RG+VM Nashville, TN, USA", "global_code": "868M59RG+VM"}, "reference": "ChIJPfBQs19qZIgRDGQDXABgmKY", "scope": "GOOGLE", "types": ["food", "point_of_interest", "establishment"], "vicinity": "3475 Lebanon Pike, Nashville"}, {"business_status": "OPERATIONAL", "geometry": {"location": {"lat": 36.1923295, "lng": -86.6231473}, "viewport": {"northeast": {"lat": 36.19337778029151, "lng": -86.62200196970848}, "southwest": {"lat": 36.19067981970851, "lng": -86.6246999302915}}}, "icon": "https://maps.gstatic.com/mapfiles/place_api/icons/v1/png_71/generic_business-71.png", "name": "Worship Center East", "place_id": "ChIJG-JetF9qZIgRFF5z2TdnQwU", "plus_code": {"compound_code": "59RG+WP Nashville, TN, USA", "global_code": "868M59RG+WP"}, "reference": "ChIJG-JetF9qZIgRFF5z2TdnQwU", "scope": "GOOGLE", "types": ["point_of_interest", "establishment"], "vicinity": "United States"}, {"business_status": "OPERATIONAL", "geometry": {"location": {"lat": 36.1921599, "lng": -86.6236294}, "viewport": {"northeast": {"lat": 36.1932929802915, "lng": -86.62218276970849}, "southwest": {"lat": 36.1905950197085, "lng": -86.6248807302915}}}, "icon": "https://maps.gstatic.com/mapfiles/place_api/icons/v1/png_71/school-71.png", "name": "Hermitage Hills Baptist Preschool", "opening_hours": {"open_now": true}, "photos": [{"height": 3024, "html_attributions": ["<a href=\"https://maps.google.com/maps/contrib/113890435250045612467\">sweetsunnydaygirl</a>"], "photo_reference": "CmRaAAAAi9IYPO9S0I6zgjzXAMe4hACRtHaJrRWvHL5hx4y2Hs3uUcroVeh2aqKjNIpBLFN9ugT98AMTp9Puu4ch2VOIF8Or1H4pq5plipoE86W_4CszbI7xD2NmbMUboqDUn-OYEhCgmAvh6Zql83irPxc_rD4_GhTLQv0N2ZaXdKnl29vI4EDptliO3g", "width": 4032}], "place_id": "ChIJPZv7SF5qZIgRjz8dtFWulPk", "plus_code": {"compound_code": "59RG+VG Nashville, TN, USA", "global_code": "868M59RG+VG"}, "reference": "ChIJPZv7SF5qZIgRjz8dtFWulPk", "scope": "GOOGLE", "types": ["school", "point_of_interest", "establishment"], "vicinity": "3475 Lebanon Pike, Hermitage"}, {"business_status": "OPERATIONAL", "geometry": {"location": {"lat": 36.1921599, "lng": -86.62362949999999}, "viewport": {"northeast": {"lat": 36.1932929802915, "lng": -86.62218281970848}, "southwest": {"lat": 36.1905950197085, "lng": -86.6248807802915}}}, "icon": "https://maps.gstatic.com/mapfiles/place_api/icons/v1/png_71/generic_business-71.png", "name": "Food Distribution Center - Heartbeat Ministries", "place_id": "ChIJTf4fTF5qZIgRGbq9RqLFBwo", "plus_code": {"compound_code": "59RG+VG Nashville, TN, USA", "global_code": "868M59RG+VG"}, "reference": "ChIJTf4fTF5qZIgRGbq9RqLFBwo", "scope": "GOOGLE", "types": ["food", "point_of_interest", "establishment"], "vicinity": "3475 Lebanon Pike, Nashville"}, {"business_status": "OPERATIONAL", "geometry": {"location": {"lat": 36.19220300000001, "lng": -86.6236957}, "viewport": {"northeast": {"lat": 36.1933145302915, "lng": -86.6222159197085}, "southwest": {"lat": 36.1906165697085, "lng": -86.6249138802915}}}, "icon": "https://maps.gstatic.com/mapfiles/place_api/icons/v1/png_71/worship_general-71.png", "name": "Hermitage Hills Baptist Church", "opening_hours": {"open_now": true}, "photos": [{"height": 576, "html_attributions": ["<a href=\"https://maps.google.com/maps/contrib/116148124461611192299\">Hermitage Hills Baptist Church</a>"], "photo_reference": "CmRaAAAAThjnLdl2G1j_yEuUhu60mU_GCUZlpC16Hb7Z5GEz7eaVISaXGR_kOyx1205OUyCBPaxTMl4c9kS3nkx__pH7GtxYpZrK47ldZ3gA1UXD9SJ6njzCu6GQmRS2_MWcF75BEhAn07_3RTNfe8DTJsQex0cQGhRKIpRwVEnGHqg4wW8igYYVLaApBQ", "width": 1024}], "place_id": "ChIJPZv7SF5qZIgRJc2PGMRZT1E", "plus_code": {"compound_code": "59RG+VG Nashville, TN, USA", "global_code": "868M59RG+VG"}, "rating": 4.6, "reference": "ChIJPZv7SF5qZIgRJc2PGMRZT1E", "scope": "GOOGLE", "types": ["church", "place_of_worship", "point_of_interest", "establishment"], "user_ratings_total": 69, "vicinity": "3475 Lebanon Pike, Hermitage"}]}, {"mapped_location": "(36.20629337255894, -86.74632791429758)", "address": "939 Dr Richard G Adams Dr, Nashville", "results": [{"business_status": "OPERATIONAL", "geometry": {"location": {"lat": 36.2062535, "lng": -86.74634329999999}, "viewport": {"northeast": {"lat": 36.2076411302915, "lng": -86.74498961970849}, "southwest": {"lat": 36.2049431697085, "lng": -86.7476875802915}}}, "icon": "https://maps.gstatic.com/mapfiles/place_api/icons/v1/png_71/generic_business-71.png", "name": "East Convenience Center", "opening_hours": {"open_now": true}, "photos": [{"height": 3024, "html_attributions": ["<a href=\"https://maps.google.com/maps/contrib/102180476513775764202\">Jeremy Haggard</a>"], "photo_reference": "CmRaAAAAyWW2AEtT1kdT6M4nmbFMj2ysy1mTea-2nUkMxcD4F8nUZwXwGjmXwKLC4Wb5yp_QJ7qEiqh6JrF6yaKPiSEwwpTO2Zy2D9e9o2POEanawwZre3UnoNn7w8cm7cwY_f2cEhDNkwkFmvB85lg6amBI_KNVGhS35W9Btk1IYK41Nj0T5_yW2fu0iQ", "width": 4032}], "place_id": "ChIJFWzqe-NnZIgRX2dZ2oRYMXY", "plus_code": {"compound_code": "6743+GF Nashville, TN, USA", "global_code": "868M6743+GF"}, "rating": 4.2, "reference": "ChIJFWzqe-NnZIgRX2dZ2oRYMXY", "scope": "GOOGLE", "types": ["point_of_interest", "establishment"], "user_ratings_total": 62, "vicinity": "943 Doctor Richard G Adams Drive, Nashville"}, {"business_status": "OPERATIONAL", "geometry": {"location": {"lat": 36.2062535, "lng": -86.74634329999999}, "viewport": {"northeast": {"lat": 36.2074012302915, "lng": -86.74527861970849}, "southwest": {"lat": 36.2047032697085, "lng": -86.74797658029149}}}, "icon": "https://maps.gstatic.com/mapfiles/place_api/icons/v1/png_71/civic_building-71.png", "name": "Davidson Public Works-Road Division", "place_id": "ChIJbVj3heRnZIgRok1fLTAAQQA", "plus_code": {"compound_code": "6743+GF Nashville, TN, USA", "global_code": "868M6743+GF"}, "reference": "ChIJbVj3heRnZIgRok1fLTAAQQA", "scope": "GOOGLE", "types": ["local_government_office", "point_of_interest", "establishment"], "vicinity": "943 Doctor Richard G Adams Drive, Nashville"}, {"business_status": "OPERATIONAL", "geometry": {"location": {"lat": 36.2059039, "lng": -86.74673320000001}, "viewport": {"northeast": {"lat": 36.2072701302915, "lng": -86.74549881970849}, "southwest": {"lat": 36.2045721697085, "lng": -86.7481967802915}}}, "icon": "https://maps.gstatic.com/mapfiles/place_api/icons/v1/png_71/generic_business-71.png", "name": "Pet Community Center", "opening_hours": {"open_now": true}, "photos": [{"height": 1920, "html_attributions": ["<a href=\"https://maps.google.com/maps/contrib/114270367434570522241\">Pet Community Center</a>"], "photo_reference": "CmRaAAAAPK-BgYuq-4Vq3yQvg2qJg2ruHvSSkQTwY08czvQ7QZQ14YjDxZqo3zwIq0mNTqQzqOSewS8gJxuAC4di0r8fUhEnIo_37lsWAM91PmT9AY4_Gljw0_uuFhBJVjgRnGvIEhBJ9Vfavh683WpQSmnMzrjlGhTe-rJ6prRT5XkBr1V1U8wJA6Knxg", "width": 1536}], "place_id": "ChIJtYvpg-RnZIgRA1my4YuJMZ8", "plus_code": {"compound_code": "6743+98 Nashville, TN, USA", "global_code": "868M6743+98"}, "rating": 4.8, "reference": "ChIJtYvpg-RnZIgRA1my4YuJMZ8", "scope": "GOOGLE", "types": ["veterinary_care", "point_of_interest", "establishment"], "user_ratings_total": 501, "vicinity": "943b Doctor Richard G Adams Drive, Nashville"}, {"business_status": "OPERATIONAL", "geometry": {"location": {"lat": 36.2068466, "lng": -86.7458296}, "viewport": {"northeast": {"lat": 36.20816413029149, "lng": -86.7444828197085}, "southwest": {"lat": 36.20546616970849, "lng": -86.7471807802915}}}, "icon": "https://maps.gstatic.com/mapfiles/place_api/icons/v1/png_71/civic_building-71.png", "name": "Metropolitan Transportation Licensing Commission", "place_id": "ChIJzTZuQuNnZIgRp3L3MnAmOPI", "plus_code": {"compound_code": "6743+PM Nashville, TN, USA", "global_code": "868M6743+PM"}, "reference": "ChIJzTZuQuNnZIgRp3L3MnAmOPI", "scope": "GOOGLE", "types": ["local_government_office", "point_of_interest", "establishment"], "vicinity": "939 Doctor Richard G Adams Drive, Nashville"}, {"business_status": "OPERATIONAL", "geometry": {"location": {"lat": 36.2058603, "lng": -86.7471915}, "viewport": {"northeast": {"lat": 36.2072448802915, "lng": -86.7458402697085}, "southwest": {"lat": 36.20454691970851, "lng": -86.7485382302915}}}, "icon": "https://maps.gstatic.com/mapfiles/place_api/icons/v1/png_71/civic_building-71.png", "name": "Davidson County Solid Waste", "place_id": "ChIJbVj3heRnZIgRCwtNnf5r2II", "plus_code": {"compound_code": "6743+84 Nashville, TN, USA", "global_code": "868M6743+84"}, "rating": 1, "reference": "ChIJbVj3heRnZIgRCwtNnf5r2II", "scope": "GOOGLE", "types": ["local_government_office", "point_of_interest", "establishment"], "user_ratings_total": 1, "vicinity": "930 Doctor Richard G Adams Drive, Nashville"}]}, {"mapped_location": "(36.25786, -86.82901)", "address": "4125 Whites Creek Pike, Whites Creek", "results": [{"business_status": "OPERATIONAL", "geometry": {"location": {"lat": 36.25785699999999, "lng": -86.829011}, "viewport": {"northeast": {"lat": 36.25896803029149, "lng": -86.8276553197085}, "southwest": {"lat": 36.2562700697085, "lng": -86.8303532802915}}}, "icon": "https://maps.gstatic.com/mapfiles/place_api/icons/v1/png_71/generic_business-71.png", "name": "The Mansion at Fontanel", "opening_hours": {"open_now": true}, "photos": [{"height": 3036, "html_attributions": ["<a href=\"https://maps.google.com/maps/contrib/114100012157138939416\">jay white</a>"], "photo_reference": "CmRaAAAAKnvs0bmDmvKE4O3MkupMpee3h5j_xM59sOuod0bVTgA084ua-25j3AmFtTzhcq1N6KWUHCKhqNC9GhZONue5EGiO9Zyhm4RsCesGbVUwAUdt4U27WDctkYJce4DqeiG9EhD862FcipmcCMZzI_xAQYMHGhQHYwhr3KOLrLDK_uBxGu4FHrMnbQ", "width": 4048}], "place_id": "ChIJT0vWBnteZIgR0VvEq1SGvBw", "plus_code": {"compound_code": "755C+49 Nashville, TN, USA", "global_code": "868M755C+49"}, "rating": 4.5, "reference": "ChIJT0vWBnteZIgR0VvEq1SGvBw", "scope": "GOOGLE", "types": ["point_of_interest", "establishment"], "user_ratings_total": 183, "vicinity": "4125 Whites Creek Pike, Whites Creek"}, {"business_status": "OPERATIONAL", "geometry": {"location": {"lat": 36.2574949, "lng": -86.8293855}, "viewport": {"northeast": {"lat": 36.2588261302915, "lng": -86.82845751970848}, "southwest": {"lat": 36.2561281697085, "lng": -86.8311554802915}}}, "icon": "https://maps.gstatic.com/mapfiles/place_api/icons/v1/png_71/generic_business-71.png", "name": "Adventureworks Zipline Forest", "opening_hours": {"open_now": true}, "photos": [{"height": 1356, "html_attributions": ["<a href=\"https://maps.google.com/maps/contrib/114573181012326189325\">Rebecca Mcknight</a>"], "photo_reference": "CmRaAAAAaBTrwLZN4MijMGkGurZNFw7UB2526vcBQtx-LDDZKcTebBnu_J8VAD__AsKalAEscCDX-ktqPooq73B8_-sr3Mc0vgcli54ufpvLirZ-ROzu92s7Iq9kQY2JinTkWT5lEhD-mF0eJFk4z0yzcd-8EnvSGhSZX_k7CIJ2v4FNaNNaLUHUo5Lhqg", "width": 2048}], "place_id": "ChIJVUssoXteZIgRHroYCccSpto", "plus_code": {"compound_code": "754C+X6 Nashville, TN, USA", "global_code": "868M754C+X6"}, "rating": 4.9, "reference": "ChIJVUssoXteZIgRHroYCccSpto", "scope": "GOOGLE", "types": ["tourist_attraction", "point_of_interest", "establishment"], "user_ratings_total": 295, "vicinity": "4129 Whites Creek Pike, Whites Creek"}, {"business_status": "OPERATIONAL", "geometry": {"location": {"lat": 36.2572257, "lng": -86.829486}, "viewport": {"northeast": {"lat": 36.2584611302915, "lng": -86.8281847197085}, "southwest": {"lat": 36.2557631697085, "lng": -86.83088268029151}}}, "icon": "https://maps.gstatic.com/mapfiles/place_api/icons/v1/png_71/generic_business-71.png", "name": "Music City on Stage! Live at Fontanel", "place_id": "ChIJaVJZk3xeZIgRuN_aNOa8vtA", "plus_code": {"compound_code": "754C+V6 Nashville, TN, USA", "global_code": "868M754C+V6"}, "reference": "ChIJaVJZk3xeZIgRuN_aNOa8vtA", "scope": "GOOGLE", "types": ["point_of_interest", "establishment"], "vicinity": "4225 Whites Creek Pike, Whites Creek"}, {"business_status": "OPERATIONAL", "geometry": {"location": {"lat": 36.2572257, "lng": -86.829486}, "viewport": {"northeast": {"lat": 36.2584611302915, "lng": -86.8281847197085}, "southwest": {"lat": 36.2557631697085, "lng": -86.83088268029151}}}, "icon": "https://maps.gstatic.com/mapfiles/place_api/icons/v1/png_71/shopping-71.png", "name": "The Stone House at Fontanel", "opening_hours": {"open_now": true}, "place_id": "ChIJaVJZk3xeZIgRs4ADLAFBMy0", "plus_code": {"compound_code": "754C+V6 Nashville, TN, USA", "global_code": "868M754C+V6"}, "rating": 5, "reference": "ChIJaVJZk3xeZIgRs4ADLAFBMy0", "scope": "GOOGLE", "types": ["travel_agency", "point_of_interest", "store", "establishment"], "user_ratings_total": 2, "vicinity": "4225 Whites Creek Pike, Whites Creek"}, {"business_status": "OPERATIONAL", "geometry": {"location": {"lat": 36.2572128, "lng": -86.8294914}, "viewport": {"northeast": {"lat": 36.25845468029149, "lng": -86.82818741970848}, "southwest": {"lat": 36.2557567197085, "lng": -86.8308853802915}}}, "icon": "https://maps.gstatic.com/mapfiles/place_api/icons/v1/png_71/generic_business-71.png", "name": "Music City Zips", "place_id": "ChIJL13qp3teZIgRTOcPiltfmTo", "plus_code": {"compound_code": "754C+V6 Nashville, TN, USA", "global_code": "868M754C+V6"}, "rating": 5, "reference": "ChIJL13qp3teZIgRTOcPiltfmTo", "scope": "GOOGLE", "types": ["point_of_interest", "establishment"], "user_ratings_total": 2, "vicinity": "4225 Whites Creek Pike, Whites Creek"}]}, {"mapped_location": "(36.10843996158369, -86.82061789325407)", "address": "3817 Bedford Ave, Nashville", "results": [{"business_status": "OPERATIONAL", "geometry": {"location": {"lat": 36.1083978, "lng": -86.82060179999999}, "viewport": {"northeast": {"lat": 36.10970218029149, "lng": -86.81912106970849}, "southwest": {"lat": 36.1070042197085, "lng": -86.8218190302915}}}, "icon": "https://maps.gstatic.com/mapfiles/place_api/icons/v1/png_71/school-71.png", "name": "Ariella Golovizki Baby Store", "place_id": "ChIJS19fbxllZIgRQcve7KW9J6g", "plus_code": {"compound_code": "455H+9Q Nashville, TN, USA", "global_code": "868M455H+9Q"}, "reference": "ChIJS19fbxllZIgRQcve7KW9J6g", "scope": "GOOGLE", "types": ["point_of_interest", "clothing_store", "store", "establishment"], "vicinity": "3817 Bedford Avenue #122, Nashville"}, {"business_status": "OPERATIONAL", "geometry": {"location": {"lat": 36.1083978, "lng": -86.82060179999999}, "viewport": {"northeast": {"lat": 36.10970218029149, "lng": -86.81912106970849}, "southwest": {"lat": 36.1070042197085, "lng": -86.8218190302915}}}, "icon": "https://maps.gstatic.com/mapfiles/place_api/icons/v1/png_71/generic_business-71.png", "name": "Lumine Capital Partners", "place_id": "ChIJy1JGv3VkZIgRwQ7EKCzTtpU", "plus_code": {"compound_code": "455H+9Q Nashville, TN, USA", "global_code": "868M455H+9Q"}, "reference": "ChIJy1JGv3VkZIgRwQ7EKCzTtpU", "scope": "GOOGLE", "types": ["finance", "point_of_interest", "establishment"], "vicinity": "3817 Bedford Avenue, Nashville"}, {"business_status": "OPERATIONAL", "geometry": {"location": {"lat": 36.1083978, "lng": -86.82060179999999}, "viewport": {"northeast": {"lat": 36.10970218029149, "lng": -86.81912106970849}, "southwest": {"lat": 36.1070042197085, "lng": -86.8218190302915}}}, "icon": "https://maps.gstatic.com/mapfiles/place_api/icons/v1/png_71/generic_business-71.png", "name": "Graham Healthcare Capital", "place_id": "ChIJg-GFwHVkZIgR6rT477hJ78I", "plus_code": {"compound_code": "455H+9Q Nashville, TN, USA", "global_code": "868M455H+9Q"}, "reference": "ChIJg-GFwHVkZIgR6rT477hJ78I", "scope": "GOOGLE", "types": ["point_of_interest", "establishment"], "vicinity": "3817 Bedford Avenue, Nashville"}, {"business_status": "OPERATIONAL", "geometry": {"location": {"lat": 36.1083978, "lng": -86.82060179999999}, "viewport": {"northeast": {"lat": 36.10970218029149, "lng": -86.81912106970849}, "southwest": {"lat": 36.1070042197085, "lng": -86.8218190302915}}}, "icon": "https://maps.gstatic.com/mapfiles/place_api/icons/v1/png_71/generic_business-71.png", "name": "Tessera Development", "place_id": "ChIJ__-_WnJkZIgRVMPgjbTTPwA", "plus_code": {"compound_code": "455H+9Q Nashville, TN, USA", "global_code": "868M455H+9Q"}, "reference": "ChIJ__-_WnJkZIgRVMPgjbTTPwA", "scope": "GOOGLE", "types": ["general_contractor", "point_of_interest", "establishment"], "vicinity": "3817 Bedford Avenue, Nashville"}, {"business_status": "OPERATIONAL", "geometry": {"location": {"lat": 36.1083978, "lng": -86.82060179999999}, "viewport": {"northeast": {"lat": 36.10970218029149, "lng": -86.81912106970849}, "southwest": {"lat": 36.1070042197085, "lng": -86.8218190302915}}}, "icon": "https://maps.gstatic.com/mapfiles/place_api/icons/v1/png_71/generic_business-71.png", "name": "Magnolia Capital Investments", "place_id": "ChIJg-GFwHVkZIgR0O9GOBTodWQ", "plus_code": {"compound_code": "455H+9Q Nashville, TN, USA", "global_code": "868M455H+9Q"}, "reference": "ChIJg-GFwHVkZIgR0O9GOBTodWQ", "scope": "GOOGLE", "types": ["point_of_interest", "establishment"], "vicinity": "3817 Bedford Avenue, Nashville"}]}, {"mapped_location": "(36.050033, -86.649542)", "address": "847 Bell Rd, Antioch", "results": [{"business_status": "OPERATIONAL", "geometry": {"location": {"lat": 36.050033, "lng": -86.649542}, "viewport": {"northeast": {"lat": 36.0513953302915, "lng": -86.6481804197085}, "southwest": {"lat": 36.0486973697085, "lng": -86.65087838029152}}}, "icon": "https://maps.gstatic.com/mapfiles/place_api/icons/v1/png_71/generic_business-71.png", "name": "Special Needs Dentist", "place_id": "ChIJr-q37fBtZIgRhg2Y2647Vqw", "plus_code": {"compound_code": "3922+25 Nashville, TN, USA", "global_code": "868M3922+25"}, "reference": "ChIJr-q37fBtZIgRhg2Y2647Vqw", "scope": "GOOGLE", "types": ["health", "point_of_interest", "establishment"], "vicinity": "5357 Mount View Road, Antioch"}, {"business_status": "OPERATIONAL", "geometry": {"location": {"lat": 36.050233, "lng": -86.6504425}, "viewport": {"northeast": {"lat": 36.0513788802915, "lng": -86.64900026970848}, "southwest": {"lat": 36.0486809197085, "lng": -86.6516982302915}}}, "icon": "https://maps.gstatic.com/mapfiles/place_api/icons/v1/png_71/shopping-71.png", "name": "Family Dollar", "opening_hours": {"open_now": true}, "photos": [{"height": 2268, "html_attributions": ["<a href=\"https://maps.google.com/maps/contrib/105416978734367891625\">Albert T. Spaw</a>"], "photo_reference": "CmRaAAAAxaqrPvG-T9THejNhdvOBH82tRxIe8si4hWesGqh1dZexlKrvJ1mrOl8u0yMhktyrIV-yPBzAD31nNR-JFuvd0j10ZFchiH2X0nMIpXDEAng_IYAan_AoY1QOZpf9n3dGEhBM8quc2vNZMYM8XEsLncFiGhTPZz6pwD8wS81xzap_H5mSwLNQhA", "width": 4032}], "place_id": "ChIJR-IeevptZIgRwaNRxtYFGKQ", "plus_code": {"compound_code": "382X+3R Nashville, TN, USA", "global_code": "868M382X+3R"}, "price_level": 1, "rating": 3.2, "reference": "ChIJR-IeevptZIgRwaNRxtYFGKQ", "scope": "GOOGLE", "types": ["supermarket", "grocery_or_supermarket", "liquor_store", "food", "point_of_interest", "clothing_store", "store", "establishment"], "user_ratings_total": 69, "vicinity": "853 Bell Road, Antioch"}, {"business_status": "OPERATIONAL", "geometry": {"location": {"lat": 36.0502428, "lng": -86.6506385}, "viewport": {"northeast": {"lat": 36.0515745302915, "lng": -86.64945736970849}, "southwest": {"lat": 36.0488765697085, "lng": -86.65215533029149}}}, "icon": "https://maps.gstatic.com/mapfiles/place_api/icons/v1/png_71/shopping-71.png", "name": "T-Mobile", "opening_hours": {"open_now": true}, "photos": [{"height": 3024, "html_attributions": ["<a href=\"https://maps.google.com/maps/contrib/102971172185357837422\">Daniel B</a>"], "photo_reference": "CmRaAAAAEUJ27p653YZ5ZzbpKeVrfdMO6ZwI4CcgFfreYb4nMeFwfOoaVOk_nQ1yRNtIMhfbdNRV0TifhlcXQ4Jdwqv80JFLjFji1qe8_aCz_dwqMkPDSpRKG7m37ANFgyD4bGtvEhB7iJQAGmOQ4MnOk-thiu5bGhTd0hYZLl_Rz1szQsbpsiQ4h7Rmdg", "width": 4032}], "place_id": "ChIJxw3jy4dtZIgRaQOuk6oN7zQ", "plus_code": {"compound_code": "382X+3P Nashville, TN, USA", "global_code": "868M382X+3P"}, "rating": 3.5, "reference": "ChIJxw3jy4dtZIgRaQOuk6oN7zQ", "scope": "GOOGLE", "types": ["electronics_store", "point_of_interest", "store", "establishment"], "user_ratings_total": 77, "vicinity": "887 Bell Road, Antioch"}, {"business_status": "OPERATIONAL", "geometry": {"location": {"lat": 36.0491032, "lng": -86.64949779999999}, "viewport": {"northeast": {"lat": 36.0503634802915, "lng": -86.64792486970849}, "southwest": {"lat": 36.0476655197085, "lng": -86.65062283029151}}}, "icon": "https://maps.gstatic.com/mapfiles/place_api/icons/v1/png_71/generic_business-71.png", "name": "Action HVAC Repair Antioch", "opening_hours": {"open_now": true}, "place_id": "ChIJ80l7HKVtZIgRPTvJp7QM2nw", "plus_code": {"compound_code": "29X2+J6 Nashville, TN, USA", "global_code": "868M29X2+J6"}, "rating": 5, "reference": "ChIJ80l7HKVtZIgRPTvJp7QM2nw", "scope": "GOOGLE", "types": ["general_contractor", "point_of_interest", "establishment"], "user_ratings_total": 1, "vicinity": "5300 Mount View Road #921, Antioch"}, {"business_status": "OPERATIONAL", "geometry": {"location": {"lat": 36.0498343, "lng": -86.6484149}, "viewport": {"northeast": {"lat": 36.0512482302915, "lng": -86.64708561970849}, "southwest": {"lat": 36.0485502697085, "lng": -86.6497835802915}}}, "icon": "https://maps.gstatic.com/mapfiles/place_api/icons/v1/png_71/gas_station-71.png", "name": "Kroger Fuel Center", "opening_hours": {"open_now": true}, "photos": [{"height": 270, "html_attributions": ["<a href=\"https://maps.google.com/maps/contrib/115448099848716002900\">Kroger Fuel Center</a>"], "photo_reference": "CmRaAAAA7Z67OHZNYvuJ1_nx3o4dNbf_Jy7RT06bKHjGe7KszyQz1Yyb8KIi_ciao8n-ilk3va1eePb92y7RS7I8a2R3s9XFdw7-WL7AGheoSRzAYokHr8FI61sBJYKdWxJB90q5EhCNn6teMS4Dn210TzXz_DscGhRBjvFtNuIc8R13sdaZJcLVMDFDVA", "width": 480}], "place_id": "ChIJo1HpHfFtZIgRr1f622jjE6k", "plus_code": {"compound_code": "29X2+WJ Nashville, TN, USA", "global_code": "868M29X2+WJ"}, "price_level": 2, "rating": 4.4, "reference": "ChIJo1HpHfFtZIgRr1f622jjE6k", "scope": "GOOGLE", "types": ["gas_station", "point_of_interest", "establishment"], "user_ratings_total": 47, "vicinity": "5319 Mount View Road, Antioch"}]}, {"mapped_location": "(36.16071, -86.77718)", "address": "401 Broadway, Nashville", "results": [{"business_status": "OPERATIONAL", "geometry": {"location": {"lat": 36.1607129, "lng": -86.7771752}, "viewport": {"northeast": {"lat": 36.1621648802915, "lng": -86.7759513197085}, "southwest": {"lat": 36.1594669197085, "lng": -86.7786492802915}}}, "icon": "https://maps.gstatic.com/mapfiles/place_api/icons/v1/png_71/restaurant-71.png", "name": "Merchants", "opening_hours": {"open_now": true}, "photos": [{"height": 2268, "html_attributions": ["<a href=\"https://maps.google.com/maps/contrib/105392042624704381006\">J T</a>"], "photo_reference": "CmRaAAAA34tk3roooO1y-YZfGq1eP8Y3PK99YcOMoQ5KHFT8RoT1EhZJfLpuOU9KP3EWudoaoSrzEKd9_FDucMCastGGmZH_o463-_iQ4ltLA9SCzDHGqxkMaBCGNvhrb0a5IQkgEhAGkUslgPOHCkrsklhtpqdLGhSwUv2gZvGLroph4IfGFKpjQu8mNg", "width": 4032}], "place_id": "ChIJ82PBUFlmZIgR5AJxzL28PUw", "plus_code": {"compound_code": "566F+74 Nashville, TN, USA", "global_code": "868M566F+74"}, "price_level": 2, "rating": 4.5, "reference": "ChIJ82PBUFlmZIgR5AJxzL28PUw", "scope": "GOOGLE", "types": ["bar", "restaurant", "food", "point_of_interest", "establishment"], "user_ratings_total": 2143, "vicinity": "401 Broadway, Nashville"}, {"business_status": "OPERATIONAL", "geometry": {"location": {"lat": 36.16055659999999, "lng": -86.77735729999999}, "viewport": {"northeast": {"lat": 36.1620579302915, "lng": -86.77610906970848}, "southwest": {"lat": 36.1593599697085, "lng": -86.7788070302915}}}, "icon": "https://maps.gstatic.com/mapfiles/place_api/icons/v1/png_71/bar-71.png", "name": "Nashville, TM", "place_id": "ChIJS9-7lsVnZIgRQLh662jIg40", "plus_code": {"compound_code": "566F+63 Nashville, TN, USA", "global_code": "868M566F+63"}, "reference": "ChIJS9-7lsVnZIgRQLh662jIg40", "scope": "GOOGLE", "types": ["bar", "point_of_interest", "establishment"], "vicinity": "409 Broadway, Nashville"}, {"business_status": "OPERATIONAL", "geometry": {"location": {"lat": 36.16069299999999, "lng": -86.7774455}, "viewport": {"northeast": {"lat": 36.16212858029149, "lng": -86.77614756970848}, "southwest": {"lat": 36.1594306197085, "lng": -86.7788455302915}}}, "icon": "https://maps.gstatic.com/mapfiles/place_api/icons/v1/png_71/bar-71.png", "name": "Nudie's Honky Tonk", "opening_hours": {"open_now": true}, "photos": [{"height": 2988, "html_attributions": ["<a href=\"https://maps.google.com/maps/contrib/104314879746006135757\">Kim Londergan-Colburn</a>"], "photo_reference": "CmRaAAAAjgHPD9e62EqcWZGAZeD9lTIGpJpJlgMFLppd2DJudpCLYI4WH6lE_1Sn0s-LxbzGsg0IyjQ_6BAmHoMCugpZXz_aOPn_svjzOVeBPMyJta6vWIDJ-SYCL3tvoCehtFgtEhDExGpr9ANHzyeprSZmHEJJGhT-gL3_iDVYQmxCd934rxUbzkaP0g", "width": 5312}], "place_id": "ChIJA0yJUVlmZIgR-mj8fWX7VRA", "plus_code": {"compound_code": "566F+72 Nashville, TN, USA", "global_code": "868M566F+72"}, "price_level": 2, "rating": 4.5, "reference": "ChIJA0yJUVlmZIgR-mj8fWX7VRA", "scope": "GOOGLE", "types": ["bar", "point_of_interest", "establishment"], "user_ratings_total": 1859, "vicinity": "409 Broadway, Nashville"}, {"business_status": "OPERATIONAL", "geometry": {"location": {"lat": 36.1609843, "lng": -86.7773134}, "viewport": {"northeast": {"lat": 36.1623476802915, "lng": -86.77597396970847}, "southwest": {"lat": 36.1596497197085, "lng": -86.7786719302915}}}, "icon": "https://maps.gstatic.com/mapfiles/place_api/icons/v1/png_71/generic_business-71.png", "name": "Heart's Desire Hunting Club", "place_id": "ChIJ67_2WllmZIgRLXPUZlXj_bM", "plus_code": {"compound_code": "566F+93 Nashville, TN, USA", "global_code": "868M566F+93"}, "reference": "ChIJ67_2WllmZIgRLXPUZlXj_bM", "scope": "GOOGLE", "types": ["point_of_interest", "establishment"], "vicinity": "400 Broadway, Nashville"}, {"business_status": "OPERATIONAL", "geometry": {"location": {"lat": 36.1608463, "lng": -86.77683809999999}, "viewport": {"northeast": {"lat": 36.1621976802915, "lng": -86.77561061970849}, "southwest": {"lat": 36.1594997197085, "lng": -86.7783085802915}}}, "icon": "https://maps.gstatic.com/mapfiles/place_api/icons/v1/png_71/bar-71.png", "name": "Honky Tonk Central", "opening_hours": {"open_now": true}, "photos": [{"height": 306, "html_attributions": ["<a href=\"https://maps.google.com/maps/contrib/116092466498707436408\">Honky Tonk Central</a>"], "photo_reference": "CmRaAAAAqDGJFxXVIRdiNulgZ5xnaB26lVmV3FqWSv8j3nlPWj3YEv0e-DxgGMWS0PoirgFpqGF1fdPFanm3FkJke_8Xjqo1i2N74iGv7P75xfpbqna12HkVH_9nDLz2xbnVU3KjEhD2JDOh822b2MPl4s3dxZzhGhSQLhvY67rSDVs6-TiriT11gP5s1A", "width": 576}], "place_id": "ChIJJ_4AWFlmZIgReQqVGByBFNk", "plus_code": {"compound_code": "566F+87 Nashville, TN, USA", "global_code": "868M566F+87"}, "price_level": 2, "rating": 4.5, "reference": "ChIJJ_4AWFlmZIgReQqVGByBFNk", "scope": "GOOGLE", "types": ["bar", "restaurant", "food", "point_of_interest", "establishment"], "user_ratings_total": 3950, "vicinity": "329 Broadway, Nashville"}]}, {"mapped_location": "(36.1213323, -86.7752094)", "address": "2608 8th Ave S, Nashville", "results": [{"business_status": "OPERATIONAL", "geometry": {"location": {"lat": 36.1213323, "lng": -86.7752094}, "viewport": {"northeast": {"lat": 36.1227354802915, "lng": -86.77388556970848}, "southwest": {"lat": 36.1200375197085, "lng": -86.7765835302915}}}, "icon": "https://maps.gstatic.com/mapfiles/place_api/icons/v1/png_71/generic_business-71.png", "name": "Vanderbilt Primary Care Melrose", "place_id": "ChIJKR79RuNlZIgRm2y4Yukwxlg", "plus_code": {"compound_code": "46CF+GW Nashville, TN, USA", "global_code": "868M46CF+GW"}, "rating": 2.5, "reference": "ChIJKR79RuNlZIgRm2y4Yukwxlg", "scope": "GOOGLE", "types": ["health", "point_of_interest", "establishment"], "user_ratings_total": 4, "vicinity": "2608 8th Avenue South Suite 102B, Nashville"}, {"business_status": "OPERATIONAL", "geometry": {"location": {"lat": 36.1213323, "lng": -86.7752094}, "viewport": {"northeast": {"lat": 36.1227354802915, "lng": -86.77388556970848}, "southwest": {"lat": 36.1200375197085, "lng": -86.7765835302915}}}, "icon": "https://maps.gstatic.com/mapfiles/place_api/icons/v1/png_71/generic_business-71.png", "name": "Vanderbilt Health Walk-In Clinic Melrose", "photos": [{"height": 4032, "html_attributions": ["<a href=\"https://maps.google.com/maps/contrib/112402989940271361262\">Sarah Hendricks</a>"], "photo_reference": "CmRaAAAAhnbMfTtRgnNi2VWv59OdfztfMpaNWQwe89k6HlR9hEIFbMdpK6EpGymzI7-s8Sp_68uFC13vWrSoj4_aSKsJJ9lanZEp7R-eY-GcbeN3pJ8-1ykd70h6BnxVVM4W7MHkEhD_VK25-OmyKkeMmqYegX98GhT1XudX930xOkos1S-zMvwwzK5Tnw", "width": 3024}], "place_id": "ChIJw5xVCD1lZIgRcvI6HMUVvzU", "plus_code": {"compound_code": "46CF+GW Nashville, TN, USA", "global_code": "868M46CF+GW"}, "rating": 3.5, "reference": "ChIJw5xVCD1lZIgRcvI6HMUVvzU", "scope": "GOOGLE", "types": ["health", "point_of_interest", "establishment"], "user_ratings_total": 28, "vicinity": "2608 8th Avenue South Suite 102 A, Nashville"}, {"business_status": "OPERATIONAL", "geometry": {"location": {"lat": 36.1213323, "lng": -86.7752094}, "viewport": {"northeast": {"lat": 36.1227354802915, "lng": -86.77388556970848}, "southwest": {"lat": 36.1200375197085, "lng": -86.7765835302915}}}, "icon": "https://maps.gstatic.com/mapfiles/place_api/icons/v1/png_71/generic_business-71.png", "name": "Western Union", "opening_hours": {"open_now": true}, "photos": [{"height": 1000, "html_attributions": ["<a href=\"https://maps.google.com/maps/contrib/102675255769381436710\">Western Union</a>"], "photo_reference": "CmRaAAAABQzstsJ1RIfTxcFTWr0YNltDxIJ97VWE02W8DFqCujlFrzeI9NJdljkYqKVUUztvL48JK1bs3LQeINjUyefnTX2NPuP5wJVRT-kh8lcC5KcxwTjUBdKxCQSZ4pYazwKvEhCkkeM4KJTOVJ8MzvSrXsAhGhSS2mAL3NSew1W7EbpgLaCPfalmlA", "width": 1000}], "place_id": "ChIJ59GtMM5lZIgR4UeR4EgawWM", "plus_code": {"compound_code": "46CF+GW Berry Hill, TN, USA", "global_code": "868M46CF+GW"}, "reference": "ChIJ59GtMM5lZIgR4UeR4EgawWM", "scope": "GOOGLE", "types": ["finance", "point_of_interest", "establishment"], "vicinity": "Regions, 2608 8th Avenue South Apt 101, Berry Hill"}, {"business_status": "OPERATIONAL", "geometry": {"location": {"lat": 36.1213139, "lng": -86.77515389999999}, "viewport": {"northeast": {"lat": 36.1227277802915, "lng": -86.77385466970848}, "southwest": {"lat": 36.1200298197085, "lng": -86.7765526302915}}}, "icon": "https://maps.gstatic.com/mapfiles/place_api/icons/v1/png_71/bank-71.png", "name": "Regions Bank", "opening_hours": {"open_now": true}, "photos": [{"height": 1115, "html_attributions": ["<a href=\"https://maps.google.com/maps/contrib/107643110199528850763\">Jody May</a>"], "photo_reference": "CmRaAAAAcPleU-QNReeWASdpW5MpzbWoToOQoX4ONCk2N5Q5M9ivqMtsKAfZkIEkXf-GHB2Mnd_q7nNjWweS1JhIoJgTd980opxNcVYqZKQEJlETQjpAMOZ4wNXvCUEqOWP4U4zDEhBY_2WxArqfMaMG1P_xxH73GhRImNNDfe4KV5IzjrsU7SvPXZrodw", "width": 1487}], "place_id": "ChIJLQBTUc5lZIgRwsxEplkefI0", "plus_code": {"compound_code": "46CF+GW Berry Hill, TN, USA", "global_code": "868M46CF+GW"}, "rating": 3, "reference": "ChIJLQBTUc5lZIgRwsxEplkefI0", "scope": "GOOGLE", "types": ["bank", "atm", "finance", "point_of_interest", "establishment"], "user_ratings_total": 8, "vicinity": "2608 8th Avenue South Suite 101, Berry Hill"}, {"business_status": "OPERATIONAL", "geometry": {"location": {"lat": 36.12117310000001, "lng": -86.77498200000001}, "viewport": {"northeast": {"lat": 36.1226573802915, "lng": -86.7737687197085}, "southwest": {"lat": 36.1199594197085, "lng": -86.7764666802915}}}, "icon": "https://maps.gstatic.com/mapfiles/place_api/icons/v1/png_71/generic_business-71.png", "name": "Regions Mortgage", "photos": [{"height": 1115, "html_attributions": ["<a href=\"https://maps.google.com/maps/contrib/107643110199528850763\">Jody May</a>"], "photo_reference": "CmRaAAAA21BteTWMnXyLjVav86_ix5T5ql0grY36N_o2p4JWsuCZI-SykwGL0sVDUTjDs2TcIK35CHMxXWlN2_7XTAA9O0VTJpSCGPBUEk_GkH5gG0hPww0uWFKAAWXNwGlbrbwyEhAaEogR2UnwgYxaRgN00N8VGhQ6vjFIjZ1LUrE7-oyLPPaiFP6cNQ", "width": 1487}], "place_id": "ChIJAz8TOs5lZIgRt_6P4fPeSi4", "plus_code": {"compound_code": "46CG+F2 Berry Hill, TN, USA", "global_code": "868M46CG+F2"}, "reference": "ChIJAz8TOs5lZIgRt_6P4fPeSi4", "scope": "GOOGLE", "types": ["finance", "point_of_interest", "establishment"], "vicinity": "Berry Hill"}]}, {"mapped_location": "(36.1530467, -86.7905272)", "address": "1524 Demonbreun St, Nashville", "results": [{"business_status": "OPERATIONAL", "geometry": {"location": {"lat": 36.1530467, "lng": -86.7905272}, "viewport": {"northeast": {"lat": 36.15451353029149, "lng": -86.78925561970848}, "southwest": {"lat": 36.15181556970849, "lng": -86.79195358029149}}}, "icon": "https://maps.gstatic.com/mapfiles/place_api/icons/v1/png_71/bar-71.png", "name": "Vibes Bar & Lounge", "opening_hours": {"open_now": false}, "photos": [{"height": 1365, "html_attributions": ["<a href=\"https://maps.google.com/maps/contrib/107352924507635477369\">Vibes Bar &amp; Lounge</a>"], "photo_reference": "CmRaAAAAcKEsThMG0EJ7e4os0qYTIWG-3mjq9x3hbrkA9H5i8d8vO2HFau-lQv-ilU3Aqc2zV7zICbgR0BHjsODf5e15LCVebKtsYt3BnmWDzj_MmpFZjLpfQ7M22MOm3bgSuvVOEhADVVXdiJmegrK1BhnDv1WMGhTU1ZptkmFWxOzFsegnm0UYcc4WAA", "width": 2048}], "place_id": "ChIJ4SZM1pNnZIgRGOjUcpXY76k", "plus_code": {"compound_code": "5635+6Q Nashville, TN, USA", "global_code": "868M5635+6Q"}, "rating": 4.8, "reference": "ChIJ4SZM1pNnZIgRGOjUcpXY76k", "scope": "GOOGLE", "types": ["bar", "point_of_interest", "establishment"], "user_ratings_total": 11, "vicinity": "1524 Demonbreun Street, Nashville"}, {"business_status": "OPERATIONAL", "geometry": {"location": {"lat": 36.1530003, "lng": -86.7904921}, "viewport": {"northeast": {"lat": 36.15423998029149, "lng": -86.7890685197085}, "southwest": {"lat": 36.1515420197085, "lng": -86.7917664802915}}}, "icon": "https://maps.gstatic.com/mapfiles/place_api/icons/v1/png_71/shopping-71.png", "name": "Suraj Global Market", "opening_hours": {"open_now": true}, "photos": [{"height": 1704, "html_attributions": ["<a href=\"https://maps.google.com/maps/contrib/109084121399847221869\">Nobuhiro Maruoka</a>"], "photo_reference": "CmRaAAAAGAqHJUdQq_x4HlbW687rjpsWIPAq5xVlz1ozg_qPEX3tVcj6Rgqizq74O7oGtrsLHqNjGW0DJ3Ul1ScM0BGx7emGBMJ5TPD9VQ-5pctnvWAyceSVXru5gj6S1ATVRC87EhAWWfPQxrN2nIDtFj2HqQFDGhRi_zleoOPCs_v2P0V2fTqQyQL6xg", "width": 2272}], "place_id": "ChIJJVCUDo1mZIgR3qhTEdEXSbI", "plus_code": {"compound_code": "5635+6R Nashville, TN, USA", "global_code": "868M5635+6R"}, "reference": "ChIJJVCUDo1mZIgR3qhTEdEXSbI", "scope": "GOOGLE", "types": ["point_of_interest", "establishment"], "vicinity": "1524 Demonbreun Street, Nashville"}, {"business_status": "OPERATIONAL", "geometry": {"location": {"lat": 36.1529421, "lng": -86.79042199999999}, "viewport": {"northeast": {"lat": 36.1542160802915, "lng": -86.78902181970848}, "southwest": {"lat": 36.1515181197085, "lng": -86.7917197802915}}}, "icon": "https://maps.gstatic.com/mapfiles/place_api/icons/v1/png_71/generic_business-71.png", "name": "Little Chicago Pizzeria And Grill", "opening_hours": {"open_now": true}, "photos": [{"height": 1000, "html_attributions": ["<a href=\"https://maps.google.com/maps/contrib/114836620927246954835\">Little Chicago Pizzeria And Grill</a>"], "photo_reference": "CmRaAAAAd5yBCx3I9xoWHjLrqlsin689Pd_UoxjsXKJAtf3dL1RTuWc8fwLAvEx1iulzXU7eGs50nNEkCyDZIhVUwxiVVC2rmF7jUcGvElc00wZlgwqtBD9hzCh_BLq1USgNYn0SEhDB2odU1f9HpNCfIWxZeIyMGhT-MGRb74MZu87pqz9avRr-Z1i1gg", "width": 1498}], "place_id": "ChIJDwTADo1mZIgRsc2-xfDHC_M", "plus_code": {"compound_code": "5635+5R Nashville, TN, USA", "global_code": "868M5635+5R"}, "rating": 3.6, "reference": "ChIJDwTADo1mZIgRsc2-xfDHC_M", "scope": "GOOGLE", "types": ["meal_delivery", "restaurant", "food", "point_of_interest", "establishment"], "user_ratings_total": 533, "vicinity": "1524A Demonbreun Street, Nashville"}, {"business_status": "OPERATIONAL", "geometry": {"location": {"lat": 36.1530528, "lng": -86.79032219999999}, "viewport": {"northeast": {"lat": 36.1542932802915, "lng": -86.78891746970851}, "southwest": {"lat": 36.1515953197085, "lng": -86.79161543029151}}}, "icon": "https://maps.gstatic.com/mapfiles/place_api/icons/v1/png_71/restaurant-71.png", "name": "DawgHouse Saloon", "opening_hours": {"open_now": true}, "photos": [{"height": 3096, "html_attributions": ["<a href=\"https://maps.google.com/maps/contrib/114626528815629100712\">James Griffin</a>"], "photo_reference": "CmRaAAAAyTsIqe-16VirHbXOrpmfozN5OZWd7X1KS9PafM0lOqvTUpf6NkAPlnYMcmOMRc-67-yDolvNuG2CPipSM0TbhD_QsIhPuSfDUfIBnJGcHLaa2qsAV8F20fOZglxd0fY7EhBtU4DMKB95Iskg2lCzTqQpGhQ_ernZW8q-TG-YQNIVcVGTRB0z_A", "width": 4128}], "place_id": "ChIJpeEdEo1mZIgRMPwZECdAJSA", "plus_code": {"compound_code": "5635+6V Nashville, TN, USA", "global_code": "868M5635+6V"}, "price_level": 2, "rating": 4.2, "reference": "ChIJpeEdEo1mZIgRMPwZECdAJSA", "scope": "GOOGLE", "types": ["bar", "restaurant", "food", "point_of_interest", "establishment"], "user_ratings_total": 451, "vicinity": "1522 Demonbreun Street, Nashville"}, {"business_status": "OPERATIONAL", "geometry": {"location": {"lat": 36.1528572, "lng": -86.7905662}, "viewport": {"northeast": {"lat": 36.1541391302915, "lng": -86.7891714197085}, "southwest": {"lat": 36.1514411697085, "lng": -86.7918693802915}}}, "icon": "https://maps.gstatic.com/mapfiles/place_api/icons/v1/png_71/restaurant-71.png", "name": "Sushi Yobi", "opening_hours": {"open_now": true}, "photos": [{"height": 3024, "html_attributions": ["<a href=\"https://maps.google.com/maps/contrib/109025203305171759456\">Weston Hall</a>"], "photo_reference": "CmRaAAAAdrC2xEtx0ZwnhN6QfSOClI2iwUiooZCPDkaKax6hAd19Yw6JNlOi9axZGBqG0ecp0vL9aKLRKmpvRxOi7kQSUhRxgvLwys4hJNDbOW6yaVsYK6JbxxHNhnY4kG6WpP3XEhBHKzqJWNafq6twaEpM3EmmGhRrv2aLxSg_sjn5Hg5qk8SoiYLfMw", "width": 4032}], "place_id": "ChIJvfp_u4xmZIgR78AZe17PwOc", "plus_code": {"compound_code": "5635+4Q Nashville, TN, USA", "global_code": "868M5635+4Q"}, "price_level": 2, "rating": 4.4, "reference": "ChIJvfp_u4xmZIgR78AZe17PwOc", "scope": "GOOGLE", "types": ["restaurant", "food", "point_of_interest", "establishment"], "user_ratings_total": 183, "vicinity": "1526 Demonbreun Street, Nashville"}]}, {"mapped_location": "(36.1493813, -86.6729128)", "address": "525 Royal Pkwy, Nashville", "results": [{"business_status": "OPERATIONAL", "geometry": {"location": {"lat": 36.1493813, "lng": -86.6729128}, "viewport": {"northeast": {"lat": 36.1505527802915, "lng": -86.67135136970849}, "southwest": {"lat": 36.1478548197085, "lng": -86.67404933029151}}}, "icon": "https://maps.gstatic.com/mapfiles/place_api/icons/v1/png_71/generic_business-71.png", "name": "Inspire Consulting LLC", "opening_hours": {"open_now": true}, "photos": [{"height": 500, "html_attributions": ["<a href=\"https://maps.google.com/maps/contrib/107711292030069710165\">Inspire Consulting LLC</a>"], "photo_reference": "CmRaAAAAb7DfeTzvS45HIXbIGoo5dBAOU8rBL07srx4Y0XfXDU7e4daOpWp8oQySsMgyke9U2qTKIlznHtffmKvcFaiVvqzWVifphbVopiA4UiIhlXFqPlOnXlPQoufdDl6bBWKqEhD2BoT5F3pmBjVP5kku0NNlGhTdoF25AioKnwQhUxM8LTjVsgYDTQ", "width": 1500}], "place_id": "ChIJOd-9GhZpZIgResOUxtlYg6U", "plus_code": {"compound_code": "48XG+QR Nashville, TN, USA", "global_code": "868M48XG+QR"}, "reference": "ChIJOd-9GhZpZIgResOUxtlYg6U", "scope": "GOOGLE", "types": ["point_of_interest", "establishment"], "vicinity": "525 Royal Parkway #292324, Nashville"}, {"business_status": "OPERATIONAL", "geometry": {"location": {"lat": 36.1493813, "lng": -86.6729128}, "viewport": {"northeast": {"lat": 36.1505527802915, "lng": -86.67135136970849}, "southwest": {"lat": 36.1478548197085, "lng": -86.67404933029151}}}, "icon": "https://maps.gstatic.com/mapfiles/place_api/icons/v1/png_71/generic_business-71.png", "name": "Stiletto\u2019s Boutique", "opening_hours": {"open_now": true}, "place_id": "ChIJUVocMItpZIgRsjsVtlSjKgI", "plus_code": {"compound_code": "48XG+QR Nashville, TN, USA", "global_code": "868M48XG+QR"}, "reference": "ChIJUVocMItpZIgRsjsVtlSjKgI", "scope": "GOOGLE", "types": ["point_of_interest", "establishment"], "vicinity": "525 Royal Parkway Unit 290371, Nashville"}, {"business_status": "OPERATIONAL", "geometry": {"location": {"lat": 36.1493813, "lng": -86.6729128}, "viewport": {"northeast": {"lat": 36.1505527802915, "lng": -86.67135136970849}, "southwest": {"lat": 36.1478548197085, "lng": -86.67404933029151}}}, "icon": "https://maps.gstatic.com/mapfiles/place_api/icons/v1/png_71/generic_business-71.png", "name": "Succentrix Business Advisors - Sylvia Alexander", "opening_hours": {"open_now": true}, "photos": [{"height": 278, "html_attributions": ["<a href=\"https://maps.google.com/maps/contrib/107533667086962431642\">Succentrix Business Advisors - Sylvia Alexander</a>"], "photo_reference": "CmRaAAAALDfCuWkXdpBD1W9T_yHnKCmDv9IEDemQmYvRZbNe9WmlZ0ZeEYEPq9rEJiFlX2g7y7QiKEfU3JjqNwLjmyZuokkn5SPIFkf2C0xhlhVsBnD3VQbEjEq3olCJGxR-KahYEhCPp9rWc5Iha3WGmz6L2EO6GhQEZYWn3Wr-X-LNMKFMQ-nXBA8mYQ", "width": 408}], "place_id": "ChIJfV5yLyFpZIgRClOrmotsIVc", "plus_code": {"compound_code": "48XG+QR Nashville, TN, USA", "global_code": "868M48XG+QR"}, "rating": 5, "reference": "ChIJfV5yLyFpZIgRClOrmotsIVc", "scope": "GOOGLE", "types": ["accounting", "finance", "point_of_interest", "establishment"], "user_ratings_total": 2, "vicinity": "525 Royal Parkway, Nashville"}, {"business_status": "OPERATIONAL", "geometry": {"location": {"lat": 36.1493813, "lng": -86.6729128}, "viewport": {"northeast": {"lat": 36.1505527802915, "lng": -86.67135136970849}, "southwest": {"lat": 36.1478548197085, "lng": -86.67404933029151}}}, "icon": "https://maps.gstatic.com/mapfiles/place_api/icons/v1/png_71/generic_business-71.png", "name": "Financially Better Credit Services", "opening_hours": {"open_now": true}, "photos": [{"height": 672, "html_attributions": ["<a href=\"https://maps.google.com/maps/contrib/109914049688615288401\">Financially Better Credit Services</a>"], "photo_reference": "CmRaAAAAJP2x3cZ9vbcoOdw3dKip_Wtqq4EyLoayWZgJr4cA9EM00CaKxBiIjnY-v_RonwQgdtmxnfmmTlEcfPn8NEPRstUrF1ERKeKQGh4VcrypR46yFRf-05omrgsI8EN8nPsHEhBwsJAeX4_-4xDamPwU9kO1GhTwIg0YnLC0vgaF832WyA1eQFHbrQ", "width": 1200}], "place_id": "ChIJR974oDtpZIgRbSFx4EEwQAo", "plus_code": {"compound_code": "48XG+QR Nashville, TN, USA", "global_code": "868M48XG+QR"}, "reference": "ChIJR974oDtpZIgRbSFx4EEwQAo", "scope": "GOOGLE", "types": ["finance", "point_of_interest", "establishment"], "vicinity": "525 Royal Parkway, Nashville"}, {"business_status": "OPERATIONAL", "geometry": {"location": {"lat": 36.1493813, "lng": -86.6729128}, "viewport": {"northeast": {"lat": 36.1505527802915, "lng": -86.67135136970849}, "southwest": {"lat": 36.1478548197085, "lng": -86.67404933029151}}}, "icon": "https://maps.gstatic.com/mapfiles/place_api/icons/v1/png_71/generic_business-71.png", "name": "2-Way Street Communications", "opening_hours": {"open_now": true}, "photos": [{"height": 3024, "html_attributions": ["<a href=\"https://maps.google.com/maps/contrib/111703292222791295494\">2-Way Street Communications</a>"], "photo_reference": "CmRaAAAAZDx1DqCMwdQRVBf6VRzPdkBEt9oVaELEBCWmgVGLgcTwZ6kz7nX8WEwilbPIeRq9xxkySvM4d2SkeqP4fRHrur7Z5I0l5PzlcnuEx5m8naLsHIjBZGoATqlftdZlcodkEhDiBBHbIVmPC_wApERWz94AGhTWUVv1woVSVTnDLESik_8Sr9B-zA", "width": 4032}], "place_id": "ChIJ-9SezMZrZIgRak1Y1GXDH60", "plus_code": {"compound_code": "48XG+QR Nashville, TN, USA", "global_code": "868M48XG+QR"}, "rating": 5, "reference": "ChIJ-9SezMZrZIgRak1Y1GXDH60", "scope": "GOOGLE", "types": ["point_of_interest", "establishment"], "user_ratings_total": 3, "vicinity": "POB 291931, 525 Royal Parkway, Nashville"}]}, {"mapped_location": "(36.22229741163213, -86.5860107)", "address": "4938 Big Horn Dr, Old Hickory", "results": [{"business_status": "OPERATIONAL", "geometry": {"location": {"lat": 36.22348340000001, "lng": -86.5861237}, "viewport": {"northeast": {"lat": 36.2247738802915, "lng": -86.5847101197085}, "southwest": {"lat": 36.2220759197085, "lng": -86.58740808029151}}}, "icon": "https://maps.gstatic.com/mapfiles/place_api/icons/v1/png_71/generic_business-71.png", "name": "Countryside LogisticsTN LLC", "opening_hours": {"open_now": true}, "photos": [{"height": 3025, "html_attributions": ["<a href=\"https://maps.google.com/maps/contrib/114281808295056697736\">Countryside LogisticsTN LLC</a>"], "photo_reference": "CmRaAAAASMgU3NeyiGXGXejA1UMKsNEP6Sjtrt6XNMaZs5d5iQ5V1EBHCy6Bsecf_8BfBcN98X2KQ8pwxe_h86KR4Asxb2zhUcPhJvUvyNpCJHHoau9roUPMAKlbJQM4PTZZIPE8EhBKsGO9ef9cuFz0DpBR1NI-GhQ03Y-w5F8auAKvPL3FaTIg1o9b_Q", "width": 3024}], "place_id": "ChIJzRGrgHNBZIgRKMRcQWzhRwo", "plus_code": {"compound_code": "6CF7+9H Old Hickory, Nashville, TN, USA", "global_code": "868M6CF7+9H"}, "rating": 4.7, "reference": "ChIJzRGrgHNBZIgRKMRcQWzhRwo", "scope": "GOOGLE", "types": ["moving_company", "storage", "point_of_interest", "establishment"], "user_ratings_total": 27, "vicinity": "4856 Everest Drive, Old Hickory"}, {"business_status": "OPERATIONAL", "geometry": {"location": {"lat": 36.221168, "lng": -86.586884}, "viewport": {"northeast": {"lat": 36.2224465802915, "lng": -86.58539526970848}, "southwest": {"lat": 36.2197486197085, "lng": -86.58809323029149}}}, "icon": "https://maps.gstatic.com/mapfiles/place_api/icons/v1/png_71/generic_business-71.png", "name": "D D King General Contractor", "place_id": "ChIJ93kEawRAZIgR3BXbJfOC4gc", "plus_code": {"compound_code": "6CC7+F6 Old Hickory, Nashville, TN, USA", "global_code": "868M6CC7+F6"}, "reference": "ChIJ93kEawRAZIgR3BXbJfOC4gc", "scope": "GOOGLE", "types": ["general_contractor", "point_of_interest", "establishment"], "vicinity": "4876 Big Horn Drive, Old Hickory"}, {"business_status": "OPERATIONAL", "geometry": {"location": {"lat": 36.2233922, "lng": -86.5846451}, "viewport": {"northeast": {"lat": 36.2246438302915, "lng": -86.58320931970849}, "southwest": {"lat": 36.2219458697085, "lng": -86.58590728029151}}}, "icon": "https://maps.gstatic.com/mapfiles/place_api/icons/v1/png_71/shopping-71.png", "name": "Old hickory sewing and upholstery", "opening_hours": {"open_now": true}, "photos": [{"height": 715, "html_attributions": ["<a href=\"https://maps.google.com/maps/contrib/118299208395947869065\">Old hickory sewing and upholstery</a>"], "photo_reference": "CmRaAAAA0KPYMaiTyUz_F0YOE6vnQl18ffwEL0TQJ8un3jBwI1jcuFEZLioc7nT1HP-asG_nY8AceOgQMwaXKaXOhliPhn1XvWJskb8bk7hzRzfdiLujxexZd8ovbiW5xpYcQRVkEhB1tAq141hDF_0uIo6zyx0GGhSyoh1kmFBFva7o797Yj1AJIVBQiw", "width": 750}], "place_id": "ChIJ17VL2wpBZIgRREm3U991990", "plus_code": {"compound_code": "6CF8+94 Old Hickory, Nashville, TN, USA", "global_code": "868M6CF8+94"}, "rating": 5, "reference": "ChIJ17VL2wpBZIgRREm3U991990", "scope": "GOOGLE", "types": ["furniture_store", "home_goods_store", "point_of_interest", "store", "establishment"], "user_ratings_total": 3, "vicinity": "4932 Big Horn Drive, Old Hickory"}, {"business_status": "OPERATIONAL", "geometry": {"location": {"lat": 36.2231508, "lng": -86.5879142}, "viewport": {"northeast": {"lat": 36.2244482802915, "lng": -86.58646666970849}, "southwest": {"lat": 36.22175031970851, "lng": -86.58916463029149}}}, "icon": "https://maps.gstatic.com/mapfiles/place_api/icons/v1/png_71/generic_business-71.png", "name": "Hazel's Tupperware", "place_id": "ChIJaZOPwxdBZIgR-kIhuzB1zNk", "plus_code": {"compound_code": "6CF6+7R Old Hickory, Nashville, TN, USA", "global_code": "868M6CF6+7R"}, "reference": "ChIJaZOPwxdBZIgR-kIhuzB1zNk", "scope": "GOOGLE", "types": ["point_of_interest", "establishment"], "vicinity": "4872 Whittier Drive, Old Hickory"}, {"business_status": "OPERATIONAL", "geometry": {"location": {"lat": 36.220945, "lng": -86.5876586}, "viewport": {"northeast": {"lat": 36.2223815802915, "lng": -86.5864316697085}, "southwest": {"lat": 36.2196836197085, "lng": -86.58912963029151}}}, "icon": "https://maps.gstatic.com/mapfiles/place_api/icons/v1/png_71/generic_business-71.png", "name": "GregoryNET", "place_id": "ChIJJaVnHKJqZIgRJMv48LnOoMo", "plus_code": {"compound_code": "6CC6+9W Old Hickory, Nashville, TN, USA", "global_code": "868M6CC6+9W"}, "rating": 5, "reference": "ChIJJaVnHKJqZIgRJMv48LnOoMo", "scope": "GOOGLE", "types": ["point_of_interest", "establishment"], "user_ratings_total": 1, "vicinity": "4809 Everest Drive, Old Hickory"}]}, {"mapped_location": "(36.1528631, -86.77496239999999)", "address": "535 Lafayette St, Nashville", "results": [{"business_status": "OPERATIONAL", "geometry": {"location": {"lat": 36.1528631, "lng": -86.77496239999999}, "viewport": {"northeast": {"lat": 36.1542920802915, "lng": -86.77357166970847}, "southwest": {"lat": 36.15159411970851, "lng": -86.7762696302915}}}, "icon": "https://maps.gstatic.com/mapfiles/place_api/icons/v1/png_71/generic_business-71.png", "name": "Sprocket Rocket Party Bike", "opening_hours": {"open_now": true}, "photos": [{"height": 426, "html_attributions": ["<a href=\"https://maps.google.com/maps/contrib/115484712640325880454\">Sprocket Rocket Party Bike</a>"], "photo_reference": "CmRaAAAAoD4a5popL1Xq204b5tkoVaFecLxXFUSiUcHw4eUbok-iE9KN5EDU_hJdQ3Ubu3Hq2WxJfkUjc1vQx1TWxjJVNpRPX2p9EWztUz-Iz0DF3GC7gon-dBM_WBB63uCXa4rTEhC9Hfd6GUsVSKD2Z075Jl8lGhTXI0KNPW71qxijR7MNWx3Y70ATyQ", "width": 640}], "place_id": "ChIJd1UrgF1mZIgRGCstmDgE8hw", "plus_code": {"compound_code": "563G+42 Nashville, TN, USA", "global_code": "868M563G+42"}, "rating": 4.6, "reference": "ChIJd1UrgF1mZIgRGCstmDgE8hw", "scope": "GOOGLE", "types": ["travel_agency", "point_of_interest", "establishment"], "user_ratings_total": 302, "vicinity": "535 Lafayette Street, Nashville"}, {"business_status": "OPERATIONAL", "geometry": {"location": {"lat": 36.1526522, "lng": -86.7750016}, "viewport": {"northeast": {"lat": 36.15417643029151, "lng": -86.7735612197085}, "southwest": {"lat": 36.15147846970851, "lng": -86.7762591802915}}}, "icon": "https://maps.gstatic.com/mapfiles/place_api/icons/v1/png_71/generic_business-71.png", "name": "The Nashville Mural", "opening_hours": {"open_now": true}, "photos": [{"height": 933, "html_attributions": ["<a href=\"https://maps.google.com/maps/contrib/111774939115985021154\">The Nashville Mural</a>"], "photo_reference": "CmRaAAAA_w0LUNanBxgKrxs5e9mHu-IZ9P1fJJ22MRRi4DLXvpQulCMTzPR_zvdJNO1-RpSSEiCmbnNQcM-pwPDFxICERYYgYW81qNBDK7IV0oyuRBmieo66AW4KOaqbU2KdShYhEhAms9Onyoa0CfnMllRDp-UmGhT6Phk-7lEQ8ovr1rKAxU0mjGYoAw", "width": 1656}], "place_id": "ChIJK3hCXmlnZIgR5oMoai6k77g", "plus_code": {"compound_code": "563F+3X Nashville, TN, USA", "global_code": "868M563F+3X"}, "rating": 4.8, "reference": "ChIJK3hCXmlnZIgR5oMoai6k77g", "scope": "GOOGLE", "types": ["tourist_attraction", "point_of_interest", "establishment"], "user_ratings_total": 214, "vicinity": "533 Lafayette Street, Nashville"}, {"business_status": "OPERATIONAL", "geometry": {"location": {"lat": 36.152857, "lng": -86.775233}, "viewport": {"northeast": {"lat": 36.1541899802915, "lng": -86.77392161970849}, "southwest": {"lat": 36.1514920197085, "lng": -86.7766195802915}}}, "icon": "https://maps.gstatic.com/mapfiles/place_api/icons/v1/png_71/generic_business-71.png", "name": "6th Ave & Lafayette", "photos": [{"height": 1536, "html_attributions": ["<a href=\"https://maps.google.com/maps/contrib/114572002587801084721\">Marco Driussi</a>"], "photo_reference": "CmRaAAAA-9jUWkp1ZruExqAx_ePJXZTsDLR_NhqBniHiXEhbybjcmylINv821U4jSVDnSXNGfeeVYraUjbOcnzsx4ppkXtgPiLDuu1gLBHYyTMAz2DnjS0LnCHYqZvEWlMlHYViZEhC4rsP3WQVcjO1AdjH611NdGhROZ0EwMnZl1QInBxeASRed5KQ46Q", "width": 2048}], "place_id": "ChIJe5cpEWdmZIgRF9HmrUycE4s", "plus_code": {"compound_code": "563F+4W Nashville, TN, USA", "global_code": "868M563F+4W"}, "reference": "ChIJe5cpEWdmZIgRF9HmrUycE4s", "scope": "GOOGLE", "types": ["transit_station", "point_of_interest", "establishment"], "vicinity": "United States"}, {"business_status": "OPERATIONAL", "geometry": {"location": {"lat": 36.1530243, "lng": -86.77459569999999}, "viewport": {"northeast": {"lat": 36.1543318802915, "lng": -86.77326831970848}, "southwest": {"lat": 36.1516339197085, "lng": -86.7759662802915}}}, "icon": "https://maps.gstatic.com/mapfiles/place_api/icons/v1/png_71/generic_business-71.png", "name": "Tennessee Tree services co.", "place_id": "ChIJUR1omGBmZIgRI-amd5P3pu0", "plus_code": {"compound_code": "563G+65 Nashville, TN, USA", "global_code": "868M563G+65"}, "reference": "ChIJUR1omGBmZIgRI-amd5P3pu0", "scope": "GOOGLE", "types": ["point_of_interest", "establishment"], "vicinity": "508 Lafayette Street, Nashville"}, {"business_status": "OPERATIONAL", "geometry": {"location": {"lat": 36.153231, "lng": -86.77489000000001}, "viewport": {"northeast": {"lat": 36.1544932802915, "lng": -86.77358621970849}, "southwest": {"lat": 36.1517953197085, "lng": -86.77628418029151}}}, "icon": "https://maps.gstatic.com/mapfiles/place_api/icons/v1/png_71/generic_business-71.png", "name": "Davidson County Republican", "opening_hours": {"open_now": true}, "place_id": "ChIJ2VluVatmZIgRxABYmlmDVWY", "plus_code": {"compound_code": "563G+72 Nashville, TN, USA", "global_code": "868M563G+72"}, "rating": 4, "reference": "ChIJ2VluVatmZIgRxABYmlmDVWY", "scope": "GOOGLE", "types": ["point_of_interest", "establishment"], "user_ratings_total": 4, "vicinity": "520 Lafayette Street, Nashville"}]}, {"mapped_location": "(36.1861846, -86.6085439)", "address": "Rusty Nail, Hermitage", "results": [{"business_status": "OPERATIONAL", "geometry": {"location": {"lat": 36.1861502, "lng": -86.6085183}, "viewport": {"northeast": {"lat": 36.1874735802915, "lng": -86.6070589697085}, "southwest": {"lat": 36.1847756197085, "lng": -86.60975693029151}}}, "icon": "https://maps.gstatic.com/mapfiles/place_api/icons/v1/png_71/bar-71.png", "name": "The Rusty Nail Bar", "opening_hours": {"open_now": true}, "photos": [{"height": 1948, "html_attributions": ["<a href=\"https://maps.google.com/maps/contrib/104383027662343671597\">The Rusty Nail Bar</a>"], "photo_reference": "CmRaAAAA02-uF1iWaYtmatb-Oi3STM3h2N8LK-zkNS3XeR0bzrgZdKTRUFC2CRSsimPuWkM_6_WYrZa_0RAlPTP7PoD7mE63hlTXrwdYqxcb8e-4pwAhwBVZcyKxOmE3V94rAnsiEhCBv3XrP3vmYQnEcFVKDKohGhTBdIbMUf4dvvW3OZr7HOMBdy1c5Q", "width": 3211}], "place_id": "ChIJebzc9O5qZIgR1ipjnTrZnY0", "plus_code": {"compound_code": "59PR+FH Nashville, TN, USA", "global_code": "868M59PR+FH"}, "price_level": 1, "rating": 4.2, "reference": "ChIJebzc9O5qZIgR1ipjnTrZnY0", "scope": "GOOGLE", "types": ["bar", "night_club", "restaurant", "food", "point_of_interest", "establishment"], "user_ratings_total": 401, "vicinity": "Rusty Nail, 4054 Andrew Jackson Way, Hermitage"}, {"business_status": "OPERATIONAL", "geometry": {"location": {"lat": 36.1863335, "lng": -86.6085636}, "viewport": {"northeast": {"lat": 36.18760528029151, "lng": -86.60706731970849}, "southwest": {"lat": 36.18490731970851, "lng": -86.6097652802915}}}, "icon": "https://maps.gstatic.com/mapfiles/place_api/icons/v1/png_71/generic_business-71.png", "name": "Euro Sport Auto Center", "opening_hours": {"open_now": true}, "place_id": "ChIJv76ZXu5qZIgR4BMbpkJY-wg", "plus_code": {"compound_code": "59PR+GH Nashville, TN, USA", "global_code": "868M59PR+GH"}, "rating": 4.8, "reference": "ChIJv76ZXu5qZIgR4BMbpkJY-wg", "scope": "GOOGLE", "types": ["car_repair", "point_of_interest", "establishment"], "user_ratings_total": 25, "vicinity": "4056 Andrew Jackson Parkway, Hermitage"}, {"business_status": "OPERATIONAL", "geometry": {"location": {"lat": 36.18596000000001, "lng": -86.608677}, "viewport": {"northeast": {"lat": 36.18729683029151, "lng": -86.6071495197085}, "southwest": {"lat": 36.18459886970851, "lng": -86.6098474802915}}}, "icon": "https://maps.gstatic.com/mapfiles/place_api/icons/v1/png_71/generic_business-71.png", "name": "All Things Audio & Upholstery", "place_id": "ChIJeb9eUO5qZIgRrdFdHmxi1Ag", "plus_code": {"compound_code": "59PR+9G Nashville, TN, USA", "global_code": "868M59PR+9G"}, "reference": "ChIJeb9eUO5qZIgRrdFdHmxi1Ag", "scope": "GOOGLE", "types": ["car_repair", "point_of_interest", "establishment"], "vicinity": "4050 Andrew Jackson Parkway, Hermitage"}, {"business_status": "OPERATIONAL", "geometry": {"location": {"lat": 36.18596000000001, "lng": -86.608677}, "viewport": {"northeast": {"lat": 36.18729683029151, "lng": -86.6071495197085}, "southwest": {"lat": 36.18459886970851, "lng": -86.6098474802915}}}, "icon": "https://maps.gstatic.com/mapfiles/place_api/icons/v1/png_71/generic_business-71.png", "name": "D H S Holding Co", "place_id": "ChIJeb9eUO5qZIgRgUvHD21_ChU", "plus_code": {"compound_code": "59PR+9G Nashville, TN, USA", "global_code": "868M59PR+9G"}, "reference": "ChIJeb9eUO5qZIgRgUvHD21_ChU", "scope": "GOOGLE", "types": ["finance", "point_of_interest", "establishment"], "vicinity": "4050 Andrew Jackson Parkway, Hermitage"}, {"business_status": "OPERATIONAL", "geometry": {"location": {"lat": 36.1859327, "lng": -86.6086227}, "viewport": {"northeast": {"lat": 36.1872816802915, "lng": -86.6072737197085}, "southwest": {"lat": 36.1845837197085, "lng": -86.60997168029151}}}, "icon": "https://maps.gstatic.com/mapfiles/place_api/icons/v1/png_71/generic_business-71.png", "name": "Curry Corp", "place_id": "ChIJg7sfBEJrZIgR0ZRghFkKAL4", "plus_code": {"compound_code": "59PR+9H Nashville, TN, USA", "global_code": "868M59PR+9H"}, "reference": "ChIJg7sfBEJrZIgR0ZRghFkKAL4", "scope": "GOOGLE", "types": ["point_of_interest", "establishment"], "vicinity": "4050 Andrew Jackson Parkway, Hermitage"}]}, {"mapped_location": "(36.1055233, -86.81605139999999)", "address": "2131 Bandywood Dr, Nashville", "results": [{"business_status": "OPERATIONAL", "geometry": {"location": {"lat": 36.1055233, "lng": -86.81605139999999}, "viewport": {"northeast": {"lat": 36.1068699802915, "lng": -86.8146824197085}, "southwest": {"lat": 36.1041720197085, "lng": -86.81738038029151}}}, "icon": "https://maps.gstatic.com/mapfiles/place_api/icons/v1/png_71/generic_business-71.png", "name": "Ascirus Partners LLC", "place_id": "ChIJT03QOnFkZIgRvpidAYRZPZI", "plus_code": {"compound_code": "454M+6H Nashville, TN, USA", "global_code": "868M454M+6H"}, "reference": "ChIJT03QOnFkZIgRvpidAYRZPZI", "scope": "GOOGLE", "types": ["insurance_agency", "point_of_interest", "establishment"], "vicinity": "2131 Bandywood Drive, Nashville"}, {"business_status": "OPERATIONAL", "geometry": {"location": {"lat": 36.10542909999999, "lng": -86.8158476}, "viewport": {"northeast": {"lat": 36.1067882802915, "lng": -86.81461836970848}, "southwest": {"lat": 36.1040903197085, "lng": -86.8173163302915}}}, "icon": "https://maps.gstatic.com/mapfiles/place_api/icons/v1/png_71/shopping-71.png", "name": "Dsquared Nashville", "opening_hours": {"open_now": true}, "photos": [{"height": 1421, "html_attributions": ["<a href=\"https://maps.google.com/maps/contrib/106326245859844240986\">Dsquared Nashville</a>"], "photo_reference": "CmRaAAAA51RpplPYtXQKHHey5Ncfcc4SHbxIsNlRZc8UCxncbQ2p4OFxD-zOZ3sxYtmpvvVhoeRcGtM4L3ibq_TKE41U0IQgChZnov-PjQ-kONHp__rRgBpSm_vIEVMr7EgUWAVvEhBVqCy5EeTOVldqDRMQybxGGhRtmFj51_hUc05YW7j6k1LJeZGwTQ", "width": 1261}], "place_id": "ChIJ2bSrYNtlZIgRq1GA0IYvj1w", "plus_code": {"compound_code": "454M+5M Nashville, TN, USA", "global_code": "868M454M+5M"}, "reference": "ChIJ2bSrYNtlZIgRq1GA0IYvj1w", "scope": "GOOGLE", "types": ["point_of_interest", "clothing_store", "store", "establishment"], "vicinity": "2135 Bandywood Drive, Nashville"}, {"business_status": "OPERATIONAL", "geometry": {"location": {"lat": 36.1055127, "lng": -86.8158164}, "viewport": {"northeast": {"lat": 36.10716618029149, "lng": -86.8144249697085}, "southwest": {"lat": 36.10446821970849, "lng": -86.8171229302915}}}, "icon": "https://maps.gstatic.com/mapfiles/place_api/icons/v1/png_71/shopping-71.png", "name": "5.11 Tactical", "opening_hours": {"open_now": true}, "photos": [{"height": 2046, "html_attributions": ["<a href=\"https://maps.google.com/maps/contrib/102749362375635822131\">5.11 Tactical</a>"], "photo_reference": "CmRaAAAAZEMDRX6gzOuUusVmCQI_r0-5ynkwlmKLKcYfz3Wu-TOhPLefhatyPamWU0GpJA6uIfTPnWuvSL5fVp5kkmUHEene4h6ew4FeFumlYknp1vEpY69y-24s0Jx1dIX8zp7tEhDOrEJsFtuUZZ-K0NRN-Wj-GhSRrQX4cCQqevmfGu43TAdnUHmufA", "width": 1538}], "place_id": "ChIJNzWUanFkZIgRhiLwpAlcfYQ", "plus_code": {"compound_code": "454M+6M Nashville, TN, USA", "global_code": "868M454M+6M"}, "rating": 4.7, "reference": "ChIJNzWUanFkZIgRhiLwpAlcfYQ", "scope": "GOOGLE", "types": ["shoe_store", "point_of_interest", "clothing_store", "store", "establishment"], "user_ratings_total": 136, "vicinity": "2109 Abbott Martin Road, Nashville"}, {"business_status": "OPERATIONAL", "geometry": {"location": {"lat": 36.1056894, "lng": -86.8162511}, "viewport": {"northeast": {"lat": 36.10698738029149, "lng": -86.8149016197085}, "southwest": {"lat": 36.10428941970849, "lng": -86.8175995802915}}}, "icon": "https://maps.gstatic.com/mapfiles/place_api/icons/v1/png_71/atm-71.png", "name": "ATM (Regions Bank)", "opening_hours": {"open_now": true}, "photos": [{"height": 400, "html_attributions": ["<a href=\"https://maps.google.com/maps/contrib/107450309916116103468\">ATM (Regions Bank)</a>"], "photo_reference": "CmRaAAAAMvV0yXi9NJAGybES1lBwOKy3j7HnjMnKDmmacXHDSBKKEAJRX2IsW3h3dvxXNuQlSw1Tg5uWhd-N7QQjKnlfX0r77B1bxPyCD5thPtpGt-F9Bb8zPEC6sN-GGCgGX-OfEhAD9o_mbliR4wM7A35lUW9xGhQvFxGP3Lk9VP_tPTwguNLaU8l1Kg", "width": 400}], "place_id": "ChIJR6l8InJkZIgRI51lfsxTzO8", "plus_code": {"compound_code": "454M+7F Nashville, TN, USA", "global_code": "868M454M+7F"}, "reference": "ChIJR6l8InJkZIgRI51lfsxTzO8", "scope": "GOOGLE", "types": ["atm", "finance", "point_of_interest", "establishment"], "vicinity": "2111 Abbott Martin Road, Nashville"}, {"business_status": "OPERATIONAL", "geometry": {"location": {"lat": 36.105687, "lng": -86.815804}, "viewport": {"northeast": {"lat": 36.1070466802915, "lng": -86.81457501970849}, "southwest": {"lat": 36.1043487197085, "lng": -86.8172729802915}}}, "icon": "https://maps.gstatic.com/mapfiles/place_api/icons/v1/png_71/generic_business-71.png", "name": "Model Shoe Rebuilders", "opening_hours": {"open_now": true}, "place_id": "ChIJQaQ7QXFkZIgR76upliKFjco", "plus_code": {"compound_code": "454M+7M Nashville, TN, USA", "global_code": "868M454M+7M"}, "rating": 2.5, "reference": "ChIJQaQ7QXFkZIgR76upliKFjco", "scope": "GOOGLE", "types": ["point_of_interest", "establishment"], "user_ratings_total": 19, "vicinity": "2109 Bandywood Drive, Nashville"}]}, {"mapped_location": "(36.0744341, -86.92334029999999)", "address": "7124 Hwy 70 S, Nashville", "results": [{"business_status": "OPERATIONAL", "geometry": {"location": {"lat": 36.0744293, "lng": -86.9233567}, "viewport": {"northeast": {"lat": 36.0757795802915, "lng": -86.92196906970848}, "southwest": {"lat": 36.0730816197085, "lng": -86.92466703029149}}}, "icon": "https://maps.gstatic.com/mapfiles/place_api/icons/v1/png_71/generic_business-71.png", "name": "Valvoline Instant Oil Change", "opening_hours": {"open_now": true}, "photos": [{"height": 1192, "html_attributions": ["<a href=\"https://maps.google.com/maps/contrib/103773584708537883486\">Valvoline Instant Oil Change</a>"], "photo_reference": "CmRaAAAAbYvGuZZ-wrOCIpbgkfTTbHnHa6q1zJ8CsI37HTi6u7CXgUT15PxkOSCDhwe2d55lVcYAdCeqAMU6Rh7ZCeplGCUf8Hq8nqgWXW5QVnAFqNkyG2PGQHPia5oV1Ugh6n7YEhBKDnASMTLQnNi1j79jyoEUGhQyE_2LwfGkGPjfq3YuXAX8olUZxg", "width": 2119}], "place_id": "ChIJrTbdYUCIZIgR_F-EQQ5Dztk", "plus_code": {"compound_code": "33FG+QM Nashville, TN, USA", "global_code": "868M33FG+QM"}, "rating": 4.4, "reference": "ChIJrTbdYUCIZIgR_F-EQQ5Dztk", "scope": "GOOGLE", "types": ["car_repair", "point_of_interest", "establishment"], "user_ratings_total": 200, "vicinity": "7124 Highway 70 South, Nashville"}, {"business_status": "OPERATIONAL", "geometry": {"location": {"lat": 36.0744974, "lng": -86.92313299999999}, "viewport": {"northeast": {"lat": 36.0757765802915, "lng": -86.92177991970848}, "southwest": {"lat": 36.0730786197085, "lng": -86.9244778802915}}}, "icon": "https://maps.gstatic.com/mapfiles/place_api/icons/v1/png_71/generic_business-71.png", "name": "Advance Financial", "opening_hours": {"open_now": true}, "photos": [{"height": 405, "html_attributions": ["<a href=\"https://maps.google.com/maps/contrib/110274393176057836614\">Advance Financial</a>"], "photo_reference": "CmRaAAAAtVHnQRxkHiVB_PcTf1wdwQ_gSw4J4zCvbNp2qeHrMJ9W28_d03caBpHa3YQlWZnUTYaZV12FUvcgzrKijUWOQNX1nR_-RfsIvzcqoRfKlWxIH3Q1dgxI9wkhkg5PF-FWEhBu4uBM7KTeFnraxOOJwAiqGhTQrQuZbhbOR0iANRNJdLfGAgnxNw", "width": 720}], "place_id": "ChIJc_AvY0CIZIgRlUIlRbHoc28", "plus_code": {"compound_code": "33FG+QP Nashville, TN, USA", "global_code": "868M33FG+QP"}, "rating": 4.8, "reference": "ChIJc_AvY0CIZIgRlUIlRbHoc28", "scope": "GOOGLE", "types": ["finance", "point_of_interest", "establishment"], "user_ratings_total": 45, "vicinity": "7120 Highway 70 South, Nashville"}, {"business_status": "OPERATIONAL", "geometry": {"location": {"lat": 36.0745147, "lng": -86.9231122}, "viewport": {"northeast": {"lat": 36.0758712302915, "lng": -86.92171076970848}, "southwest": {"lat": 36.07317326970851, "lng": -86.9244087302915}}}, "icon": "https://maps.gstatic.com/mapfiles/place_api/icons/v1/png_71/generic_business-71.png", "name": "Western Union", "opening_hours": {"open_now": true}, "photos": [{"height": 1000, "html_attributions": ["<a href=\"https://maps.google.com/maps/contrib/103653672853785186536\">Western Union</a>"], "photo_reference": "CmRaAAAAK0V1Ey08f61js9IA-D3VJvA86piKCzIEglIYMC0OUU2NHsbBk9hrcAzPtOtVyGFb5uOEqTDbRDHUDmRmplYB-hAYRKirowxQLAk-jOz9ccCzZg1TEYCqMA0Nee3P-tJmEhDYgMLoMh4-0CD24o7LIRtTGhR2blG288ch90oD3pL8wTidX6LmeQ", "width": 1000}], "place_id": "ChIJyVaXgzyIZIgRqwTY_m2Lz-4", "plus_code": {"compound_code": "33FG+RQ Nashville, TN, USA", "global_code": "868M33FG+RQ"}, "reference": "ChIJyVaXgzyIZIgRqwTY_m2Lz-4", "scope": "GOOGLE", "types": ["finance", "point_of_interest", "establishment"], "vicinity": "Advance Financial, 7120 Highway 70 South, Nashville"}, {"business_status": "OPERATIONAL", "geometry": {"location": {"lat": 36.0741684, "lng": -86.92318499999999}, "viewport": {"northeast": {"lat": 36.0754549302915, "lng": -86.92182276970848}, "southwest": {"lat": 36.0727569697085, "lng": -86.92452073029149}}}, "icon": "https://maps.gstatic.com/mapfiles/place_api/icons/v1/png_71/generic_business-71.png", "name": "Hwy 70 S & Old Harding Pike WB", "place_id": "ChIJZ7QRgT-IZIgR7oOSrof-K48", "plus_code": {"compound_code": "33FG+MP Nashville, TN, USA", "global_code": "868M33FG+MP"}, "reference": "ChIJZ7QRgT-IZIgR7oOSrof-K48", "scope": "GOOGLE", "types": ["transit_station", "point_of_interest", "establishment"], "vicinity": "United States"}, {"business_status": "OPERATIONAL", "geometry": {"location": {"lat": 36.0745327, "lng": -86.9238781}, "viewport": {"northeast": {"lat": 36.07588038029149, "lng": -86.9224497197085}, "southwest": {"lat": 36.07318241970849, "lng": -86.9251476802915}}}, "icon": "https://maps.gstatic.com/mapfiles/place_api/icons/v1/png_71/generic_business-71.png", "name": "Champion Car Wash", "opening_hours": {"open_now": true}, "photos": [{"height": 700, "html_attributions": ["<a href=\"https://maps.google.com/maps/contrib/104062189419194614313\">Champion Car Wash</a>"], "photo_reference": "CmRaAAAAsmoM64M_8PvlzYzBczpuW1y1yg7iR5ZF8BGyPIvCXnDysWxBqIpiCU1r2ULF8_d1hn2p58zSbMT7-s1vnZiRJnSUVa90xERi6yPm6vvQFH3UxlNlJcOyMW032yoRce1fEhDC2ucCOt5LgoFa675ueHexGhTkLY2iOZaMfa7IADwJT4xE4PnSLQ", "width": 1242}], "place_id": "ChIJIZdnX0CIZIgRiMTBgTm6C08", "plus_code": {"compound_code": "33FG+RC Nashville, TN, USA", "global_code": "868M33FG+RC"}, "rating": 3.9, "reference": "ChIJIZdnX0CIZIgRiMTBgTm6C08", "scope": "GOOGLE", "types": ["car_wash", "point_of_interest", "establishment"], "user_ratings_total": 215, "vicinity": "7128 Highway 70 South, Nashville"}]}, {"mapped_location": "(36.06896551156696, -86.6813232)", "address": "933 Richards Rd, Antioch", "results": [{"business_status": "OPERATIONAL", "geometry": {"location": {"lat": 36.06896500000001, "lng": -86.68134599999999}, "viewport": {"northeast": {"lat": 36.0703297302915, "lng": -86.6799950197085}, "southwest": {"lat": 36.0676317697085, "lng": -86.6826929802915}}}, "icon": "https://maps.gstatic.com/mapfiles/place_api/icons/v1/png_71/generic_business-71.png", "name": "Richards Rd & Cummings Park Dr EB", "place_id": "ChIJLXCBdmpuZIgRZKQSmrHHcfc", "plus_code": {"compound_code": "3899+HF Nashville, TN, USA", "global_code": "868M3899+HF"}, "reference": "ChIJLXCBdmpuZIgRZKQSmrHHcfc", "scope": "GOOGLE", "types": ["transit_station", "point_of_interest", "establishment"], "vicinity": "United States"}, {"business_status": "OPERATIONAL", "geometry": {"location": {"lat": 36.0690051, "lng": -86.6814385}, "viewport": {"northeast": {"lat": 36.07033753029151, "lng": -86.68009161970849}, "southwest": {"lat": 36.06763956970851, "lng": -86.6827895802915}}}, "icon": "https://maps.gstatic.com/mapfiles/place_api/icons/v1/png_71/shopping-71.png", "name": "Wireless Plus", "opening_hours": {"open_now": true}, "place_id": "ChIJ0eTP2EFuZIgR_0pdJFOrNA8", "plus_code": {"compound_code": "3899+JC Nashville, TN, USA", "global_code": "868M3899+JC"}, "reference": "ChIJ0eTP2EFuZIgR_0pdJFOrNA8", "scope": "GOOGLE", "types": ["point_of_interest", "store", "establishment"], "vicinity": "933 Richards Road, Antioch"}, {"business_status": "OPERATIONAL", "geometry": {"location": {"lat": 36.0690398, "lng": -86.68116250000001}, "viewport": {"northeast": {"lat": 36.0703783302915, "lng": -86.6798148197085}, "southwest": {"lat": 36.0676803697085, "lng": -86.6825127802915}}}, "icon": "https://maps.gstatic.com/mapfiles/place_api/icons/v1/png_71/shopping-71.png", "name": "Betty's Flowers", "opening_hours": {"open_now": true}, "place_id": "ChIJUZ9nR3lvZIgRKmwNc5FTB08", "plus_code": {"compound_code": "3899+JG Nashville, TN, USA", "global_code": "868M3899+JG"}, "reference": "ChIJUZ9nR3lvZIgRKmwNc5FTB08", "scope": "GOOGLE", "types": ["florist", "point_of_interest", "store", "establishment"], "vicinity": "Richards Road, Nashville"}, {"business_status": "OPERATIONAL", "geometry": {"location": {"lat": 36.069081, "lng": -86.681443}, "viewport": {"northeast": {"lat": 36.0704013302915, "lng": -86.68009761970849}, "southwest": {"lat": 36.0677033697085, "lng": -86.6827955802915}}}, "icon": "https://maps.gstatic.com/mapfiles/place_api/icons/v1/png_71/generic_business-71.png", "name": "Richards Rd & Cummings Park Dr WB", "place_id": "ChIJ527Q3kFuZIgRq3rHilXCd5o", "plus_code": {"compound_code": "3899+JC Nashville, TN, USA", "global_code": "868M3899+JC"}, "reference": "ChIJ527Q3kFuZIgRq3rHilXCd5o", "scope": "GOOGLE", "types": ["transit_station", "point_of_interest", "establishment"], "vicinity": "United States"}, {"business_status": "OPERATIONAL", "geometry": {"location": {"lat": 36.06933559999999, "lng": -86.68146510000001}, "viewport": {"northeast": {"lat": 36.07062113029149, "lng": -86.6801035197085}, "southwest": {"lat": 36.06792316970849, "lng": -86.6828014802915}}}, "icon": "https://maps.gstatic.com/mapfiles/place_api/icons/v1/png_71/shopping-71.png", "name": "CARNICERIA EL TORITO", "opening_hours": {"open_now": true}, "photos": [{"height": 2240, "html_attributions": ["<a href=\"https://maps.google.com/maps/contrib/102398714756792507635\">Camerino Castro</a>"], "photo_reference": "CmRaAAAAyOpC4z_dGwkbmj3edmirvS6s_VKW54NMvITINLvDkeGbUwMtQfX6BVgR_Ka1_J5KWSgeXn3X7eryqlLLt-xyxem8C4LpvcCZ9wejFONLF475gJrQ9fItZZ3GCb9BpxFnEhCloQ51wu1GLDKBSPa7htUkGhQkkEec3sRvyduI6RPnbSvHEF24zQ", "width": 4032}], "place_id": "ChIJ2waRvQBvZIgRTw-fepcNJbM", "plus_code": {"compound_code": "3899+PC Nashville, TN, USA", "global_code": "868M3899+PC"}, "rating": 4.4, "reference": "ChIJ2waRvQBvZIgRTw-fepcNJbM", "scope": "GOOGLE", "types": ["supermarket", "grocery_or_supermarket", "food", "point_of_interest", "store", "establishment"], "user_ratings_total": 124, "vicinity": "929 Richards Road, Antioch"}]}, {"mapped_location": "(36.11099, -86.74961)", "address": "527 Thompson Ln, Nashville", "results": [{"business_status": "OPERATIONAL", "geometry": {"location": {"lat": 36.1110154, "lng": -86.7495735}, "viewport": {"northeast": {"lat": 36.1124636802915, "lng": -86.7482108697085}, "southwest": {"lat": 36.1097657197085, "lng": -86.75090883029151}}}, "icon": "https://maps.gstatic.com/mapfiles/place_api/icons/v1/png_71/shopping-71.png", "name": "Walker Lumber & Supply", "opening_hours": {"open_now": true}, "photos": [{"height": 608, "html_attributions": ["<a href=\"https://maps.google.com/maps/contrib/112236432018228121290\">Walker Lumber &amp; Supply</a>"], "photo_reference": "CmRaAAAA1mb4RJ4XSfMxMfdgUx_03QbqguM3V3KQ9HI9x9myORJlyMaLo-bbl5mUuDbrhV-r5AbKYXRfEs1-5a96pFTQenkvtle1m9u630yUZCgDNYgd0GWQG-ccFSHXRg5nJ4GhEhC6GeI26liRFEGqnkU_76_AGhSYHfQBo2FcKb7sds0PhVXvtOnnTg", "width": 1080}], "place_id": "ChIJ0TBQ0vJlZIgRovQGfGKWMLM", "plus_code": {"compound_code": "4762+C5 Nashville, TN, USA", "global_code": "868M4762+C5"}, "rating": 4.6, "reference": "ChIJ0TBQ0vJlZIgRovQGfGKWMLM", "scope": "GOOGLE", "types": ["hardware_store", "home_goods_store", "point_of_interest", "store", "establishment"], "user_ratings_total": 77, "vicinity": "527 West Thompson Lane, Nashville"}, {"business_status": "OPERATIONAL", "geometry": {"location": {"lat": 36.111093, "lng": -86.74960999999999}, "viewport": {"northeast": {"lat": 36.1125045802915, "lng": -86.74825241970849}, "southwest": {"lat": 36.1098066197085, "lng": -86.75095038029151}}}, "icon": "https://maps.gstatic.com/mapfiles/place_api/icons/v1/png_71/generic_business-71.png", "name": "Thompson Ln & Seaboard Dr EB", "place_id": "ChIJXU8b0fJlZIgRpgXo_B5GF2A", "plus_code": {"compound_code": "4762+C5 Nashville, TN, USA", "global_code": "868M4762+C5"}, "reference": "ChIJXU8b0fJlZIgRpgXo_B5GF2A", "scope": "GOOGLE", "types": ["transit_station", "point_of_interest", "establishment"], "vicinity": "United States"}, {"business_status": "OPERATIONAL", "geometry": {"location": {"lat": 36.11131299999999, "lng": -86.749256}, "viewport": {"northeast": {"lat": 36.1126017802915, "lng": -86.7479132697085}, "southwest": {"lat": 36.1099038197085, "lng": -86.75061123029153}}}, "icon": "https://maps.gstatic.com/mapfiles/place_api/icons/v1/png_71/generic_business-71.png", "name": "Thompson Ln & Landers Ave WB", "place_id": "ChIJtW8Y2PJlZIgR3Yy-vxz_IHI", "plus_code": {"compound_code": "4762+G7 Nashville, TN, USA", "global_code": "868M4762+G7"}, "reference": "ChIJtW8Y2PJlZIgR3Yy-vxz_IHI", "scope": "GOOGLE", "types": ["transit_station", "point_of_interest", "establishment"], "vicinity": "United States"}, {"business_status": "OPERATIONAL", "geometry": {"location": {"lat": 36.1115204, "lng": -86.7497401}, "viewport": {"northeast": {"lat": 36.1128742302915, "lng": -86.74845731970849}, "southwest": {"lat": 36.1101762697085, "lng": -86.7511552802915}}}, "icon": "https://maps.gstatic.com/mapfiles/place_api/icons/v1/png_71/generic_business-71.png", "name": "Alva's Automotive and Tire Center", "opening_hours": {"open_now": true}, "photos": [{"height": 4032, "html_attributions": ["<a href=\"https://maps.google.com/maps/contrib/101171100798988839208\">Paul King</a>"], "photo_reference": "CmRaAAAAwzouTDbWF7WWvTLGeZQINm85LiUCcD9UwNDH6jmK9NQ2enlXTjFqcSfRbtNUtI8cU7Uan97y1dh9sns9P0Hw377VxguyKDPEbhr-W1CyBG_35Ove5ixYYkHn4MehU6WEEhDwlV_ctw7gnecofzSPDHRlGhT1Zk8AnZHMs49LNEtbwaUrvqz9Ew", "width": 3024}], "place_id": "ChIJWTa62_JlZIgRIAd36dVGwqA", "plus_code": {"compound_code": "4762+J4 Nashville, TN, USA", "global_code": "868M4762+J4"}, "rating": 4.1, "reference": "ChIJWTa62_JlZIgRIAd36dVGwqA", "scope": "GOOGLE", "types": ["car_repair", "point_of_interest", "establishment"], "user_ratings_total": 30, "vicinity": "530 Thompson Lane, Nashville"}, {"business_status": "OPERATIONAL", "geometry": {"location": {"lat": 36.1115153, "lng": -86.7492632}, "viewport": {"northeast": {"lat": 36.11270388029151, "lng": -86.74793081970849}, "southwest": {"lat": 36.11000591970851, "lng": -86.75062878029149}}}, "icon": "https://maps.gstatic.com/mapfiles/place_api/icons/v1/png_71/generic_business-71.png", "name": "Alva's Quick Lube Plus Inc", "opening_hours": {"open_now": true}, "photos": [{"height": 4160, "html_attributions": ["<a href=\"https://maps.google.com/maps/contrib/109131168348197972940\">Jessie Ortiz</a>"], "photo_reference": "CmRaAAAAAvQDzcloCHW2KVr5ECpMwwiMiVamnSk0B4FA7Kik2o5BY1224Qw1bHjcqEWr_t5lOiGKj0dLketwAkkkX4nvhUg62LU6MCqVIHPkUQCzW47HgoYosROxgPdU5XN_M83WEhAuWQSYTS7ogExKxcHKL-zUGhQQo3yQ_S6fQWYTmn1H8Hi3hhQjNQ", "width": 2340}], "place_id": "ChIJ2259J_NlZIgRMm7MEuqCTcw", "plus_code": {"compound_code": "4762+J7 Nashville, TN, USA", "global_code": "868M4762+J7"}, "rating": 3.6, "reference": "ChIJ2259J_NlZIgRMm7MEuqCTcw", "scope": "GOOGLE", "types": ["car_repair", "point_of_interest", "establishment"], "user_ratings_total": 11, "vicinity": "524 West Thompson Lane, Nashville"}]}, {"mapped_location": "(36.1280044, -86.85196739999999)", "address": "Post Pl & White Bridge Rd, Nashville", "results": [{"business_status": "OPERATIONAL", "geometry": {"location": {"lat": 36.127999, "lng": -86.851772}, "viewport": {"northeast": {"lat": 36.1293125802915, "lng": -86.85045396970851}, "southwest": {"lat": 36.1266146197085, "lng": -86.85315193029152}}}, "icon": "https://maps.gstatic.com/mapfiles/place_api/icons/v1/png_71/generic_business-71.png", "name": "White Bridge Pike & Post Rd NB", "place_id": "ChIJJ5V8cdpjZIgRdgWtiD-57lM", "plus_code": {"compound_code": "44HX+57 Nashville, TN, USA", "global_code": "868M44HX+57"}, "reference": "ChIJJ5V8cdpjZIgRdgWtiD-57lM", "scope": "GOOGLE", "types": ["transit_station", "point_of_interest", "establishment"], "vicinity": "United States"}, {"business_status": "OPERATIONAL", "geometry": {"location": {"lat": 36.128043, "lng": -86.85222700000001}, "viewport": {"northeast": {"lat": 36.1294279802915, "lng": -86.85084706970851}, "southwest": {"lat": 36.1267300197085, "lng": -86.85354503029151}}}, "icon": "https://maps.gstatic.com/mapfiles/place_api/icons/v1/png_71/generic_business-71.png", "name": "White Bridge Pike & Post Rd SB", "place_id": "ChIJ936JddpjZIgRlly9Fy_8jLo", "plus_code": {"compound_code": "44HX+64 Nashville, TN, USA", "global_code": "868M44HX+64"}, "reference": "ChIJ936JddpjZIgRlly9Fy_8jLo", "scope": "GOOGLE", "types": ["transit_station", "point_of_interest", "establishment"], "vicinity": "United States"}, {"business_status": "OPERATIONAL", "geometry": {"location": {"lat": 36.1281639, "lng": -86.8511965}, "viewport": {"northeast": {"lat": 36.1294533802915, "lng": -86.8499168697085}, "southwest": {"lat": 36.1267554197085, "lng": -86.8526148302915}}}, "icon": "https://maps.gstatic.com/mapfiles/place_api/icons/v1/png_71/pharmacy-71.png", "name": "Cynthia S. Mason, PharmD", "place_id": "ChIJdyqIvNBjZIgRCZLv2OJl2yI", "plus_code": {"compound_code": "44HX+7G Nashville, TN, USA", "global_code": "868M44HX+7G"}, "reference": "ChIJdyqIvNBjZIgRCZLv2OJl2yI", "scope": "GOOGLE", "types": ["pharmacy", "health", "point_of_interest", "store", "establishment"], "vicinity": "32 White Bridge Pike, Nashville"}, {"business_status": "OPERATIONAL", "geometry": {"location": {"lat": 36.1284385, "lng": -86.8512973}, "viewport": {"northeast": {"lat": 36.1297534802915, "lng": -86.84986236970849}, "southwest": {"lat": 36.1270555197085, "lng": -86.85256033029151}}}, "icon": "https://maps.gstatic.com/mapfiles/place_api/icons/v1/png_71/generic_business-71.png", "name": "Villa Maria Manor", "place_id": "ChIJ3ckCw9BjZIgRWuDjl3Bu4dQ", "plus_code": {"compound_code": "44HX+9F Nashville, TN, USA", "global_code": "868M44HX+9F"}, "rating": 4.7, "reference": "ChIJ3ckCw9BjZIgRWuDjl3Bu4dQ", "scope": "GOOGLE", "types": ["point_of_interest", "establishment"], "user_ratings_total": 7, "vicinity": "32 White Bridge Pike, Nashville"}, {"business_status": "OPERATIONAL", "geometry": {"location": {"lat": 36.127717, "lng": -86.852784}, "viewport": {"northeast": {"lat": 36.1291681302915, "lng": -86.85134461970848}, "southwest": {"lat": 36.1264701697085, "lng": -86.85404258029149}}}, "icon": "https://maps.gstatic.com/mapfiles/place_api/icons/v1/png_71/restaurant-71.png", "name": "O'Charley\u2019s Restaurant & Bar", "opening_hours": {"open_now": true}, "photos": [{"height": 3024, "html_attributions": ["<a href=\"https://maps.google.com/maps/contrib/114988425944109133839\">Scott</a>"], "photo_reference": "CmRaAAAAB2Mi2T3KZ4HD44yNKnk8IbBoK1idLt773WTzS7Fr0AB1olSFkAJbg-6NJm_ZnGMiSfwfQkMOG-mOOfxw4MlmR2erWwSeggVsEwh2Xk9tbgd82xWHGqA3y_y1eJP4HDD5EhBJvOG-f-Qq-5MbdSTjQrwVGhR1KoIud80exXXw_BN_EA-dmL66WA", "width": 4032}], "place_id": "ChIJ42P8mtBjZIgRbrLw2YYCjb8", "plus_code": {"compound_code": "44HW+3V Nashville, TN, USA", "global_code": "868M44HW+3V"}, "price_level": 2, "rating": 3.9, "reference": "ChIJ42P8mtBjZIgRbrLw2YYCjb8", "scope": "GOOGLE", "types": ["bar", "restaurant", "food", "point_of_interest", "establishment"], "user_ratings_total": 1172, "vicinity": "17 White Bridge Road, Nashville"}]}, {"mapped_location": "(35.94796400000001, -86.378886)", "address": "5995 Lebanon Rd, Nan", "results": [{"business_status": "OPERATIONAL", "geometry": {"location": {"lat": 35.94796400000001, "lng": -86.378886}, "viewport": {"northeast": {"lat": 35.94930538029151, "lng": -86.3774284197085}, "southwest": {"lat": 35.94660741970851, "lng": -86.3801263802915}}}, "icon": "https://maps.gstatic.com/mapfiles/place_api/icons/v1/png_71/generic_business-71.png", "name": "Spooky's Pizza & Grill", "opening_hours": {"open_now": false}, "photos": [{"height": 4032, "html_attributions": ["<a href=\"https://maps.google.com/maps/contrib/116403889672952320436\">matt petty</a>"], "photo_reference": "CmRaAAAA4CgVTdAI5ZIy5nsPeNpynubX3xAW37htfGk5Dl5OuNedjO84JmhqQGiPJ1-ZfkQlzwxfCPSFlVH4PGyNCYjqJ-xTF165PPe4i9zlSXYiPvXNon09qya5T5VrOnI2U5EyEhDt0GG_com9vcUT03Uh3xzXGhQCcEBJ8QEW0OTm3TLC1dEPuZGyzw", "width": 3024}], "place_id": "ChIJAw6cfn0GZIgRrO3NsHpte2E", "plus_code": {"compound_code": "WJXC+5C Murfreesboro, TN, USA", "global_code": "867MWJXC+5C"}, "rating": 4.4, "reference": "ChIJAw6cfn0GZIgRrO3NsHpte2E", "scope": "GOOGLE", "types": ["meal_delivery", "meal_takeaway", "restaurant", "food", "point_of_interest", "establishment"], "user_ratings_total": 614, "vicinity": "5995 Lebanon Road, Murfreesboro"}, {"business_status": "OPERATIONAL", "geometry": {"location": {"lat": 35.9479564, "lng": -86.3788991}, "viewport": {"northeast": {"lat": 35.9492973302915, "lng": -86.37743541970849}, "southwest": {"lat": 35.9465993697085, "lng": -86.38013338029151}}}, "icon": "https://maps.gstatic.com/mapfiles/place_api/icons/v1/png_71/generic_business-71.png", "name": "Postal Plus Shipping and More", "opening_hours": {"open_now": true}, "photos": [{"height": 3024, "html_attributions": ["<a href=\"https://maps.google.com/maps/contrib/102989639752608730285\">Postal Plus Shipping and More</a>"], "photo_reference": "CmRZAAAAeH1ahr01v0WVGkKhJbydFXhrIDe4TPvLe3SbkTafULJMM-sghSux-4RcqbT9WVgSvxjX3MILvZM9H5DR44Bzm9NjN-S3WlLIQ0PRl7Fx5v-MgQjP8ooIEEB6EvCFxokbEhArWu-mqFSb5DydQL9fT68AGhQe-KUFW3GTekRBwao7C3hj1n4XbA", "width": 4032}], "place_id": "ChIJrVIBoQ4HZIgRo_bnFU4nxNo", "plus_code": {"compound_code": "WJXC+5C Murfreesboro, TN, USA", "global_code": "867MWJXC+5C"}, "rating": 5, "reference": "ChIJrVIBoQ4HZIgRo_bnFU4nxNo", "scope": "GOOGLE", "types": ["finance", "point_of_interest", "store", "establishment"], "user_ratings_total": 7, "vicinity": "5987 Lebanon Road, Murfreesboro"}, {"business_status": "OPERATIONAL", "geometry": {"location": {"lat": 35.9478991, "lng": -86.3789025}, "viewport": {"northeast": {"lat": 35.9492409802915, "lng": -86.3774400697085}, "southwest": {"lat": 35.9465430197085, "lng": -86.3801380302915}}}, "icon": "https://maps.gstatic.com/mapfiles/place_api/icons/v1/png_71/restaurant-71.png", "name": "Great Wall", "opening_hours": {"open_now": true}, "photos": [{"height": 1080, "html_attributions": ["<a href=\"https://maps.google.com/maps/contrib/109587084959164050776\">Tony Rooky</a>"], "photo_reference": "CmRaAAAA6eoPFNKRID9ygccAPZTsgD6NoKRGzlF3o5LWEGo2640pQWojSy5dxhDdVr82onRpHU1tLyo4hFtVA68ymfY0RxvjcxIs44dc06VskR95ufOu3hpFjPZiJry2_B0An8haEhDmWvU-PKglfGiLds4Fd2avGhRZGIEVMAhKzNqdvKeTRYfvOwQyUA", "width": 1920}], "place_id": "ChIJwX0pin0GZIgRm_MbkXQ35gs", "plus_code": {"compound_code": "WJXC+5C Murfreesboro, TN, USA", "global_code": "867MWJXC+5C"}, "price_level": 1, "rating": 4.4, "reference": "ChIJwX0pin0GZIgRm_MbkXQ35gs", "scope": "GOOGLE", "types": ["restaurant", "meal_takeaway", "food", "point_of_interest", "establishment"], "user_ratings_total": 204, "vicinity": "5983 Lebanon Road, Murfreesboro"}, {"business_status": "OPERATIONAL", "geometry": {"location": {"lat": 35.9480618, "lng": -86.3789761}, "viewport": {"northeast": {"lat": 35.94941078029149, "lng": -86.37762711970849}, "southwest": {"lat": 35.94671281970849, "lng": -86.38032508029151}}}, "icon": "https://maps.gstatic.com/mapfiles/place_api/icons/v1/png_71/generic_business-71.png", "name": "Silver Hill Medical Clinic", "opening_hours": {"open_now": true}, "photos": [{"height": 648, "html_attributions": ["<a href=\"https://maps.google.com/maps/contrib/117691225844258544384\">Silver Hill Medical Clinic</a>"], "photo_reference": "CmRaAAAARH9mdLmPI-pgJQwXdS8Lmcqf_o5jkanyTxVgDIuu3vg5Vfb2010a1Pl4-v1Y1ofjBGHPR2OpsAaaQjmjb2OaCojHCD64IzPFnJdrMVOKmgGSx1fHyKpo8mNss_g5GFbxEhD-AHP8SPDCw6L6iuUXK3QHGhRO3piGp5KNrrZN7lI0eU8CG1LEfA", "width": 2111}], "place_id": "ChIJxzCGovgEZIgRKFhls0DkMbg", "plus_code": {"compound_code": "WJXC+6C Murfreesboro, TN, USA", "global_code": "867MWJXC+6C"}, "rating": 4.8, "reference": "ChIJxzCGovgEZIgRKFhls0DkMbg", "scope": "GOOGLE", "types": ["health", "point_of_interest", "establishment"], "user_ratings_total": 24, "vicinity": "5991 Lebanon Road, Murfreesboro"},