[{"mapped_location": "(36.109845261584304, -86.72690660419003)", "address": "63 E National Hwy, Nashville", "results": [{"business_status": "OPERATIONAL", "geometry": {"location": {"lat": 36.1098373, "lng": -86.72689000000001}, "viewport": {"northeast": {"lat": 36.1111942302915, "lng": -86.7256389697085}, "southwest": {"lat": 36.1084962697085, "lng": -86.7283369302915}}}, "icon": "https://maps.gstatic.com/mapfiles/place_api/icons/v1/png_71/restaurant-71.png", "name": "Guacamayas", "opening_hours": {"open_now": true}, "photos": [{"height": 1960, "html_attributions": ["<a href=\"https://maps.google.com/maps/contrib/113796973401948046262\">She_ Just_iss</a>"], "photo_reference": "CmRaAAAArRK3VxG0p8XQLtRIljuQcPrx5q1VEw6Cm44puVHM8bX2tJwU1dXcJHcZeGKjczk8MSiTMuV-1rA3SIK1pHSD_zK1-9WhOltdObN8ZYkPhzcJd4l0fUelKOV07S6DKyBcEhCYQjzGHZSZ1NnpC3RfKOwRGhR_q-vYhGL4d9JbFBXGlgREccHxbw", "width": 4032}], "place_id": "ChIJ67Uw_mlvZIgR5GezHzGqf5I", "plus_code": {"compound_code": "475F+W6 Nashville, TN, USA", "global_code": "868M475F+W6"}, "rating": 4.3, "reference": "ChIJ67Uw_mlvZIgR5GezHzGqf5I", "scope": "GOOGLE", "types": ["restaurant", "food", "point_of_interest", "establishment"], "user_ratings_total": 158, "vicinity": "63 East Thompson Lane #100, Nashville"}, {"business_status": "OPERATIONAL", "geometry": {"location": {"lat": 36.1097749, "lng": -86.7267631}, "viewport": {"northeast": {"lat": 36.11106488029149, "lng": -86.72542961970849}, "southwest": {"lat": 36.1083669197085, "lng": -86.7281275802915}}}, "icon": "https://maps.gstatic.com/mapfiles/place_api/icons/v1/png_71/generic_business-71.png", "name": "Traditional Karate Nashville", "photos": [{"height": 3024, "html_attributions": ["<a href=\"https://maps.google.com/maps/contrib/101564067059878283091\">Traditional Karate Nashville</a>"], "photo_reference": "CmRaAAAAMEcT-9_UarBh0ZA_OHs4gsENoI7BphGo7rzw83ecLGZrJh7UmaXa2pqGswQDsN0Z38qyVwnAEEZZSQQxqJJrAkaB_BuskTYp8aK6oTjBjesmZ8nA7j6ynV8d1OvfOFayEhB_hg6reUwKLqJxqR9TW81fGhSawwW6K2Hz251HzkFtAViuzYYLPg", "width": 4032}], "place_id": "ChIJ4-ZfBmpvZIgRhZvivBX5kYQ", "plus_code": {"compound_code": "475F+W7 Nashville, TN, USA", "global_code": "868M475F+W7"}, "rating": 5, "reference": "ChIJ4-ZfBmpvZIgRhZvivBX5kYQ", "scope": "GOOGLE", "types": ["gym", "health", "point_of_interest", "establishment"], "user_ratings_total": 8, "vicinity": "63 East Thompson Lane #102, Nashville"}, {"business_status": "OPERATIONAL", "geometry": {"location": {"lat": 36.10980869999999, "lng": -86.7271631}, "viewport": {"northeast": {"lat": 36.1111551302915, "lng": -86.72578191970848}, "southwest": {"lat": 36.1084571697085, "lng": -86.7284798802915}}}, "icon": "https://maps.gstatic.com/mapfiles/place_api/icons/v1/png_71/generic_business-71.png", "name": "Electrify America Charging Station", "opening_hours": {"open_now": true}, "photos": [{"height": 4032, "html_attributions": ["<a href=\"https://maps.google.com/maps/contrib/111792271316487410194\">John C</a>"], "photo_reference": "CmRaAAAAa4gZ2CljXbZHNLASYhpQ1r06R4DqbguFulAJoxHCBI43mdNpq3BfDQYP06TIFVYorj90gMDIypbl1rh8sZp1XILyecIgUw6KDljcYUWnxT_6X1EFr7fkX14FW93P7Q4mEhBdQwh8BMuEoEoBPfaE8k7KGhRvruETM22CHOZYbQG6AIMc4UoVsg", "width": 3024}], "place_id": "ChIJBU2bwKZvZIgRn3x8coYMp7o", "plus_code": {"compound_code": "475F+W4 Nashville, TN, USA", "global_code": "868M475F+W4"}, "rating": 5, "reference": "ChIJBU2bwKZvZIgRn3x8coYMp7o", "scope": "GOOGLE", "types": ["point_of_interest", "establishment"], "user_ratings_total": 1, "vicinity": "61 East Thompson Lane, Nashville"}, {"business_status": "OPERATIONAL", "geometry": {"location": {"lat": 36.1097864, "lng": -86.72660189999999}, "viewport": {"northeast": {"lat": 36.1110607302915, "lng": -86.7252649197085}, "southwest": {"lat": 36.1083627697085, "lng": -86.7279628802915}}}, "icon": "https://maps.gstatic.com/mapfiles/place_api/icons/v1/png_71/restaurant-71.png", "name": "No 1 Chinese Restaurant", "opening_hours": {"open_now": true}, "photos": [{"height": 4160, "html_attributions": ["<a href=\"https://maps.google.com/maps/contrib/105495554959137446847\">Earl Wyatt McCrory</a>"], "photo_reference": "CmRaAAAAF_zUK_ktTPbXY0sf2J_sCccvSmFn545ytQCyOoghmDkDUHa9iCUHuPvOMqEzs_lk5_SNKE876_9HKb4ySWYzhTdHWmFv4yurkfWEIRfuITW3S3ySx8InDquWkRPwdMMTEhAfXw9mjiD9mI9JBo5u5IUfGhSCKYWyZaOHNp9simpQT7gPry7HMg", "width": 3120}], "place_id": "ChIJ97hdPv5vZIgRxoTn0SUm0Jg", "plus_code": {"compound_code": "475F+W9 Nashville, TN, USA", "global_code": "868M475F+W9"}, "rating": 3.9, "reference": "ChIJ97hdPv5vZIgRxoTn0SUm0Jg", "scope": "GOOGLE", "types": ["restaurant", "food", "point_of_interest", "establishment"], "user_ratings_total": 25, "vicinity": "63 East Thompson Lane #105, Nashville"}, {"business_status": "OPERATIONAL", "geometry": {"location": {"lat": 36.10986009999999, "lng": -86.7265439}, "viewport": {"northeast": {"lat": 36.11128063029149, "lng": -86.72518146970849}, "southwest": {"lat": 36.1085826697085, "lng": -86.72787943029151}}}, "icon": "https://maps.gstatic.com/mapfiles/place_api/icons/v1/png_71/generic_business-71.png", "name": "Dentist", "place_id": "ChIJj6InAGpvZIgRMqLJBT5QvRM", "plus_code": {"compound_code": "475F+W9 Nashville, TN, USA", "global_code": "868M475F+W9"}, "reference": "ChIJj6InAGpvZIgRMqLJBT5QvRM", "scope": "GOOGLE", "types": ["dentist", "health", "point_of_interest", "establishment"], "vicinity": "United States"}]}, {"mapped_location": "(36.1927327, -86.7394372)", "address": "Douglas Ave, Nashville", "results": [{"geometry": {"location": {"lat": 36.1927327, "lng": -86.7394372}, "viewport": {"northeast": {"lat": 36.1940450302915, "lng": -86.7382106697085}, "southwest": {"lat": 36.1913470697085, "lng": -86.7409086302915}}}, "icon": "https://maps.gstatic.com/mapfiles/place_api/icons/v1/png_71/park-71.png", "name": "Eastland Park", "place_id": "ChIJQQ3QznVoZIgRPx8T893CNAA", "reference": "ChIJQQ3QznVoZIgRPx8T893CNAA", "scope": "GOOGLE", "types": ["park", "premise", "point_of_interest", "establishment"], "vicinity": "Nashville"}, {"business_status": "OPERATIONAL", "geometry": {"location": {"lat": 36.1935273, "lng": -86.7397602}, "viewport": {"northeast": {"lat": 36.1947568802915, "lng": -86.7384299197085}, "southwest": {"lat": 36.1920589197085, "lng": -86.74112788029151}}}, "icon": "https://maps.gstatic.com/mapfiles/place_api/icons/v1/png_71/worship_general-71.png", "name": "St James Ame Church", "photos": [{"height": 1251, "html_attributions": ["<a href=\"https://maps.google.com/maps/contrib/115217577722900777098\">Jayley Evans</a>"], "photo_reference": "CmRaAAAA_044IAYuDCEYEsvsU3yk88iLSxY6uQKaAjoSYpg17O2MFimCXNxaSMWr8VB4hcwY1R6zPxV1ooe9KMJOtT3CHcvimlbLeNFL0sZzOYFTnKaTth9Z5NI0ln1-gnsnz8d_EhBTsUMN7DL9Gzv1WRjKB0nBGhSnY0qyCVZe2rW7NeYw7yX5nqIO9w", "width": 1063}], "place_id": "ChIJYZ-iuXVoZIgRAoxGYBlBiTo", "plus_code": {"compound_code": "57V6+C3 Nashville, TN, USA", "global_code": "868M57V6+C3"}, "rating": 4.7, "reference": "ChIJYZ-iuXVoZIgRAoxGYBlBiTo", "scope": "GOOGLE", "types": ["church", "place_of_worship", "point_of_interest", "establishment"], "user_ratings_total": 6, "vicinity": "1501 Straightway Avenue, Nashville"}, {"business_status": "OPERATIONAL", "geometry": {"location": {"lat": 36.1936174, "lng": -86.7398085}, "viewport": {"northeast": {"lat": 36.19497958029149, "lng": -86.73862001970849}, "southwest": {"lat": 36.1922816197085, "lng": -86.7413179802915}}}, "icon": "https://maps.gstatic.com/mapfiles/place_api/icons/v1/png_71/worship_general-71.png", "name": "Saint James African Methodist Episcopal Church", "place_id": "ChIJcf36t3VoZIgRd6HnU4qVQp4", "plus_code": {"compound_code": "57V6+C3 Nashville, TN, USA", "global_code": "868M57V6+C3"}, "reference": "ChIJcf36t3VoZIgRd6HnU4qVQp4", "scope": "GOOGLE", "types": ["church", "place_of_worship", "point_of_interest", "establishment"], "vicinity": "Nashville"}, {"business_status": "OPERATIONAL", "geometry": {"location": {"lat": 36.193154, "lng": -86.7405331}, "viewport": {"northeast": {"lat": 36.19460438029149, "lng": -86.73917006970849}, "southwest": {"lat": 36.19190641970849, "lng": -86.74186803029151}}}, "icon": "https://maps.gstatic.com/mapfiles/place_api/icons/v1/png_71/generic_business-71.png", "name": "Three Pigs One Blanket", "opening_hours": {"open_now": false}, "photos": [{"height": 300, "html_attributions": ["<a href=\"https://maps.google.com/maps/contrib/109200405063425778862\">Three Pigs One Blanket</a>"], "photo_reference": "CmRaAAAA6EfRQutbi5P5kR_HH9IG-kasa1ZJIgHIgBmKFbwqNGmAKrPD8CKa7puwkZcWMqAJkMb27mQLgKWBHA6UY6Dipaz6fJL4uodWfy4zNmI4x1nsc4BIkdVXnuYYMWcEZWl-EhC_ktozzypAHCScLyzGh1ZbGhTg448B8U3rlCkkwnNGbSgB8HKkaw", "width": 400}], "place_id": "ChIJNeKu5zlpZIgREESumRE347Y", "plus_code": {"compound_code": "57V5+7Q Nashville, TN, USA", "global_code": "868M57V5+7Q"}, "reference": "ChIJNeKu5zlpZIgREESumRE347Y", "scope": "GOOGLE", "types": ["point_of_interest", "establishment"], "vicinity": "1408 Straightway Avenue, Nashville"}, {"business_status": "OPERATIONAL", "geometry": {"location": {"lat": 36.1918153, "lng": -86.7388771}, "viewport": {"northeast": {"lat": 36.1932851802915, "lng": -86.7375089197085}, "southwest": {"lat": 36.1905872197085, "lng": -86.74020688029151}}}, "icon": "https://maps.gstatic.com/mapfiles/place_api/icons/v1/png_71/generic_business-71.png", "name": "Arthouse Gardens Inc", "place_id": "ChIJIYEZKnRoZIgR1lVajnV45j8", "plus_code": {"compound_code": "57R6+PC Nashville, TN, USA", "global_code": "868M57R6+PC"}, "reference": "ChIJIYEZKnRoZIgR1lVajnV45j8", "scope": "GOOGLE", "types": ["general_contractor", "point_of_interest", "establishment"], "vicinity": "1508 Douglas Avenue, Nashville"}]}, {"mapped_location": "(36.04888761155843, -86.67182780419)", "address": "5024 Blue Hole Rd, Antioch", "results": [{"business_status": "OPERATIONAL", "geometry": {"location": {"lat": 36.0494256, "lng": -86.6718112}, "viewport": {"northeast": {"lat": 36.0502365802915, "lng": -86.6706917197085}, "southwest": {"lat": 36.0475386197085, "lng": -86.6733896802915}}}, "icon": "https://maps.gstatic.com/mapfiles/place_api/icons/v1/png_71/school-71.png", "name": "Lighthouse Christian School", "opening_hours": {"open_now": true}, "photos": [{"height": 3840, "html_attributions": ["<a href=\"https://maps.google.com/maps/contrib/114448870809254771766\">Lighthouse Christian School</a>"], "photo_reference": "CmRaAAAAPc-CRuJskcCfSG_VbGt0uP56VBGZPRjWEDwfeLqZ2QtRvXiv1NMRuWyVuB1ZmaTga0o5bQDC0vcFTLmZcJa8bt6xTeAhRSc3XVpXOYmKA7mjZd6iDBWRTc9VR96iyQD3EhClViJQx1eW4GWyCSmp_zELGhToxDVcxUAsPv-zae-A3BRnb3fSIg", "width": 5760}], "place_id": "ChIJJbxIkhpuZIgRsV--lyMTTdo", "plus_code": {"compound_code": "28XH+Q7 Nashville, TN, USA", "global_code": "868M28XH+Q7"}, "rating": 4.5, "reference": "ChIJJbxIkhpuZIgRsV--lyMTTdo", "scope": "GOOGLE", "types": ["school", "point_of_interest", "establishment"], "user_ratings_total": 13, "vicinity": "5100 Blue Hole Road, Antioch"}, {"business_status": "OPERATIONAL", "geometry": {"location": {"lat": 36.0469727, "lng": -86.672135}, "viewport": {"northeast": {"lat": 36.04847838029151, "lng": -86.6713499197085}, "southwest": {"lat": 36.04578041970851, "lng": -86.67404788029151}}}, "icon": "https://maps.gstatic.com/mapfiles/place_api/icons/v1/png_71/generic_business-71.png", "name": "Family Golf Center Miniature Golf", "opening_hours": {"open_now": false}, "photos": [{"height": 4032, "html_attributions": ["<a href=\"https://maps.google.com/maps/contrib/103246392841606640412\">dougtowers</a>"], "photo_reference": "CmRaAAAARcebpBH-YgKMKDzThcVqAlIDlYbelxrgs5ySqySmjEQrvcAieYDxe0AziuO4q3NQdP9RADyEAFJ0gyrJkajvT8_ujuNSYz2h8p7NdE3Y-UW1r9FTxP0kfQlsuumEmpgjEhD_nGzzvqpWtGdFwOc3UCMNGhST8m4IXT5VW0TBlEg9qIW_6DnLow", "width": 3024}], "place_id": "ChIJw9SKwxxuZIgRfbYLk6PfBM8", "plus_code": {"compound_code": "28WH+Q4 Nashville, TN, USA", "global_code": "868M28WH+Q4"}, "rating": 3.9, "reference": "ChIJw9SKwxxuZIgRfbYLk6PfBM8", "scope": "GOOGLE", "types": ["point_of_interest", "establishment"], "user_ratings_total": 228, "vicinity": "5204 Blue Hole Road, Antioch"}, {"business_status": "OPERATIONAL", "geometry": {"location": {"lat": 36.0484378, "lng": -86.6694763}, "viewport": {"northeast": {"lat": 36.0497777302915, "lng": -86.66803326970849}, "southwest": {"lat": 36.0470797697085, "lng": -86.67073123029151}}}, "icon": "https://maps.gstatic.com/mapfiles/place_api/icons/v1/png_71/school-71.png", "name": "Meggison Music", "opening_hours": {"open_now": true}, "place_id": "ChIJX9Ex9dVvZIgRhQdjXYRV1W8", "plus_code": {"compound_code": "28XJ+96 Nashville, TN, USA", "global_code": "868M28XJ+96"}, "reference": "ChIJX9Ex9dVvZIgRhQdjXYRV1W8", "scope": "GOOGLE", "types": ["school", "point_of_interest", "establishment"], "vicinity": "1211 Bell Road Apt 15, Antioch"}, {"business_status": "OPERATIONAL", "geometry": {"location": {"lat": 36.0484378, "lng": -86.6694763}, "viewport": {"northeast": {"lat": 36.0497777302915, "lng": -86.66803326970849}, "southwest": {"lat": 36.0470797697085, "lng": -86.67073123029151}}}, "icon": "https://maps.gstatic.com/mapfiles/place_api/icons/v1/png_71/generic_business-71.png", "name": "Golden Cross Logistics Llc", "place_id": "ChIJqUyiYwNuZIgRdllI-NX62VA", "plus_code": {"compound_code": "28XJ+96 Nashville, TN, USA", "global_code": "868M28XJ+96"}, "rating": 1, "reference": "ChIJqUyiYwNuZIgRdllI-NX62VA", "scope": "GOOGLE", "types": ["point_of_interest", "establishment"], "user_ratings_total": 1, "vicinity": "1211 Bell Road, Antioch"}, {"business_status": "OPERATIONAL", "geometry": {"location": {"lat": 36.05085800000001, "lng": -86.6719004}, "viewport": {"northeast": {"lat": 36.0522507802915, "lng": -86.6711140197085}, "southwest": {"lat": 36.0495528197085, "lng": -86.67381198029152}}}, "icon": "https://maps.gstatic.com/mapfiles/place_api/icons/v1/png_71/worship_general-71.png", "name": "Filipino-American Bible Church", "place_id": "ChIJ2fw-JRtuZIgROpOpYp6Na1c", "plus_code": {"compound_code": "382H+86 Nashville, TN, USA", "global_code": "868M382H+86"}, "reference": "ChIJ2fw-JRtuZIgROpOpYp6Na1c", "scope": "GOOGLE", "types": ["church", "place_of_worship", "point_of_interest", "establishment"], "vicinity": "5100 Blue Hole Road, Antioch"}]}, {"mapped_location": "(36.062600385927965, -86.98099440032696)", "address": "7945 River Fork Dr, Nashville", "results": [{"business_status": "OPERATIONAL", "geometry": {"location": {"lat": 36.06187020000001, "lng": -86.97877369999999}, "viewport": {"northeast": {"lat": 36.06312243029151, "lng": -86.97737791970849}, "southwest": {"lat": 36.06042446970851, "lng": -86.9800758802915}}}, "icon": "https://maps.gstatic.com/mapfiles/place_api/icons/v1/png_71/generic_business-71.png", "name": "Alpha Omega Consulting Group", "place_id": "ChIJx4mTjK2IZIgR2TOS3hzEY2U", "plus_code": {"compound_code": "326C+PF Nashville, TN, USA", "global_code": "868M326C+PF"}, "reference": "ChIJx4mTjK2IZIgR2TOS3hzEY2U", "scope": "GOOGLE", "types": ["point_of_interest", "establishment"], "vicinity": "716 Vauxhall Drive, Nashville"}, {"business_status": "OPERATIONAL", "geometry": {"location": {"lat": 36.0611094, "lng": -86.978617}, "viewport": {"northeast": {"lat": 36.0623391302915, "lng": -86.97722681970849}, "southwest": {"lat": 36.05964116970851, "lng": -86.9799247802915}}}, "icon": "https://maps.gstatic.com/mapfiles/place_api/icons/v1/png_71/generic_business-71.png", "name": "Creek Content LLC", "place_id": "ChIJiaQt662IZIgRzhAz8PWbhJg", "plus_code": {"compound_code": "326C+CH Nashville, TN, USA", "global_code": "868M326C+CH"}, "rating": 5, "reference": "ChIJiaQt662IZIgRzhAz8PWbhJg", "scope": "GOOGLE", "types": ["point_of_interest", "establishment"], "user_ratings_total": 1, "vicinity": "512 Welton Court, Nashville"}, {"business_status": "OPERATIONAL", "geometry": {"location": {"lat": 36.0621409, "lng": -86.97769}, "viewport": {"northeast": {"lat": 36.0635428302915, "lng": -86.97644921970848}, "southwest": {"lat": 36.0608448697085, "lng": -86.97914718029149}}}, "icon": "https://maps.gstatic.com/mapfiles/place_api/icons/v1/png_71/generic_business-71.png", "name": "Gorham & Associates", "place_id": "ChIJFUk6_62IZIgRgcfPw4Zn3Ss", "plus_code": {"compound_code": "326C+VW Nashville, TN, USA", "global_code": "868M326C+VW"}, "rating": 5, "reference": "ChIJFUk6_62IZIgRgcfPw4Zn3Ss", "scope": "GOOGLE", "types": ["lawyer", "point_of_interest", "establishment"], "user_ratings_total": 1, "vicinity": "709 Vauxhall Drive, Nashville"}, {"business_status": "OPERATIONAL", "geometry": {"location": {"lat": 36.0644954, "lng": -86.98496639999999}, "viewport": {"northeast": {"lat": 36.06529868029151, "lng": -86.9836731197085}, "southwest": {"lat": 36.06260071970851, "lng": -86.9863710802915}}}, "icon": "https://maps.gstatic.com/mapfiles/place_api/icons/v1/png_71/civic_building-71.png", "name": "Nashville Electric Service McCrory Substation", "place_id": "ChIJuSgyJUuPZIgRjlpV7COESKc", "plus_code": {"compound_code": "3278+Q2 Nashville, TN, USA", "global_code": "868M3278+Q2"}, "rating": 5, "reference": "ChIJuSgyJUuPZIgRjlpV7COESKc", "scope": "GOOGLE", "types": ["point_of_interest", "establishment"], "user_ratings_total": 2, "vicinity": "8260 Coley Davis Road, Nashville"}, {"business_status": "OPERATIONAL", "geometry": {"location": {"lat": 36.0623457, "lng": -86.9753521}, "viewport": {"northeast": {"lat": 36.0635938302915, "lng": -86.9740971697085}, "southwest": {"lat": 36.0608958697085, "lng": -86.9767951302915}}}, "icon": "https://maps.gstatic.com/mapfiles/place_api/icons/v1/png_71/generic_business-71.png", "name": "A Well-Organized Home", "opening_hours": {"open_now": true}, "photos": [{"height": 4000, "html_attributions": ["<a href=\"https://maps.google.com/maps/contrib/103597099908803504962\">A Well-Organized Home</a>"], "photo_reference": "CmRaAAAA5B_XgnQtLWaznq-vzZtnuLYnPJZpTmOncxM8d7mA4fGtwE6zMFeMrl4PX38ihLQi2I8XBT-sqCgtFvgL52zV9693eHi_TwTsI5xB6Ooe0S1bATUyy7nlJJnMA_Vt0aXJEhDZRU92-rrky-Fgp3g22OXoGhQm_zizUkKifVOAeUaLC5euyWhMuA", "width": 6000}], "place_id": "ChIJf7hMUsCJZIgRAqB2w975w3I", "plus_code": {"compound_code": "326F+WV Nashville, TN, USA", "global_code": "868M326F+WV"}, "rating": 5, "reference": "ChIJf7hMUsCJZIgRAqB2w975w3I", "scope": "GOOGLE", "types": ["point_of_interest", "establishment"], "user_ratings_total": 1, "vicinity": "7808 River Fork Drive, Nashville"}]}, {"mapped_location": "(36.07574, -86.91999)", "address": "7040 US-70S, Nashville", "results": [{"business_status": "OPERATIONAL", "geometry": {"location": {"lat": 36.0757664, "lng": -86.9199532}, "viewport": {"northeast": {"lat": 36.07710208029149, "lng": -86.91859721970847}, "southwest": {"lat": 36.0744041197085, "lng": -86.9212951802915}}}, "icon": "https://maps.gstatic.com/mapfiles/place_api/icons/v1/png_71/generic_business-71.png", "name": "TCPR Enterprises Inc", "place_id": "ChIJ0xo6ID-IZIgRHsxY_JGh-QQ", "plus_code": {"compound_code": "33GJ+82 Nashville, TN, USA", "global_code": "868M33GJ+82"}, "reference": "ChIJ0xo6ID-IZIgRHsxY_JGh-QQ", "scope": "GOOGLE", "types": ["point_of_interest", "establishment"], "vicinity": "7040 U.S. 70S, Nashville"}, {"business_status": "OPERATIONAL", "geometry": {"location": {"lat": 36.0757978, "lng": -86.91998219999999}, "viewport": {"northeast": {"lat": 36.0771080802915, "lng": -86.91861296970849}, "southwest": {"lat": 36.0744101197085, "lng": -86.9213109302915}}}, "icon": "https://maps.gstatic.com/mapfiles/place_api/icons/v1/png_71/generic_business-71.png", "name": "Gold's Gym", "opening_hours": {"open_now": true}, "photos": [{"height": 2048, "html_attributions": ["<a href=\"https://maps.google.com/maps/contrib/112589329745950656378\">John Davis</a>"], "photo_reference": "CmRaAAAAMmRaRSSoYFviGz45BLii3qOYTWx4bkONuuRGjXV4yrL4rkAIWiKuvv49hhZ1PEyqEALOSo0PTR4YwTGwV2uhd6N9Td99UmiGFzHOkkhRSDfO-9XOw7T81kMlgIhPXUt6EhDx6uGLO2EcMvpaP0GMNAiAGhTV0MKPBbZiH1NGB9Ib1k5E4JTbNw", "width": 2048}], "place_id": "ChIJtVuyP5WJZIgRqFRnqqHdbsw", "plus_code": {"compound_code": "33GJ+82 Nashville, TN, USA", "global_code": "868M33GJ+82"}, "rating": 2.7, "reference": "ChIJtVuyP5WJZIgRqFRnqqHdbsw", "scope": "GOOGLE", "types": ["gym", "school", "health", "point_of_interest", "establishment"], "user_ratings_total": 64, "vicinity": "7062 Highway 70 South, Nashville"}, {"business_status": "OPERATIONAL", "geometry": {"location": {"lat": 36.075876, "lng": -86.9198}, "viewport": {"northeast": {"lat": 36.0771795802915, "lng": -86.91842721970849}, "southwest": {"lat": 36.0744816197085, "lng": -86.92112518029151}}}, "icon": "https://maps.gstatic.com/mapfiles/place_api/icons/v1/png_71/generic_business-71.png", "name": "J\u00f3n Alan Salon Bellevue", "opening_hours": {"open_now": true}, "photos": [{"height": 720, "html_attributions": ["<a href=\"https://maps.google.com/maps/contrib/111893310959897571247\">J\u00f3n Alan Salon Bellevue</a>"], "photo_reference": "CmRaAAAAW7pySizP4l2VaFp3UNW2WJ_J8wH6bu5ODF9Ex353D1NmmDWgUWolimjUIrMjkvlSRbRGMLTjjYsktYfNYu0HgknRkJ3aTj9X8ZaNlRssnj8JWwCnk0VOWIceON7LgSWxEhCDOXiF3xA5Z0OJUj99mo-oGhS__CIMMcq1lMdnYWRRxi0TfO8xSQ", "width": 960}], "place_id": "ChIJg5JxdHSIZIgRufWpuQZ7Vgs", "plus_code": {"compound_code": "33GJ+93 Nashville, TN, USA", "global_code": "868M33GJ+93"}, "rating": 4.6, "reference": "ChIJg5JxdHSIZIgRufWpuQZ7Vgs", "scope": "GOOGLE", "types": ["beauty_salon", "hair_care", "spa", "point_of_interest", "store", "establishment"], "user_ratings_total": 78, "vicinity": "7052 Highway 70 South, Nashville"}, {"business_status": "OPERATIONAL", "geometry": {"location": {"lat": 36.075908, "lng": -86.9202202}, "viewport": {"northeast": {"lat": 36.0771370302915, "lng": -86.9188083697085}, "southwest": {"lat": 36.0744390697085, "lng": -86.9215063302915}}}, "icon": "https://maps.gstatic.com/mapfiles/place_api/icons/v1/png_71/shopping-71.png", "name": "Red Spirits & Wine", "opening_hours": {"open_now": true}, "photos": [{"height": 719, "html_attributions": ["<a href=\"https://maps.google.com/maps/contrib/105239977878022913421\">Red Spirits &amp; Wine</a>"], "photo_reference": "CmRaAAAAHs0x4ieAowscwVrHitIJiMo9RsM0Fd4KJsgGrTvaQ6v4K92Z_nRfzwa0PDs86mGMDYFCyQeDPORYxo-JpcMSWGnwuDii_MdjE_Og0P7MoHqVHLr4n5HychJA5dsKkvxGEhArmj7RsC_UOaklOvMO-F3pGhSYkLbT2LPU3oq1Tm3Abmy8D1C6oA", "width": 960}], "place_id": "ChIJdcyyDz-IZIgRyqkIm5_W-cQ", "plus_code": {"compound_code": "33GH+9W Nashville, TN, USA", "global_code": "868M33GH+9W"}, "rating": 4.7, "reference": "ChIJdcyyDz-IZIgRyqkIm5_W-cQ", "scope": "GOOGLE", "types": ["liquor_store", "food", "point_of_interest", "store", "establishment"], "user_ratings_total": 659, "vicinity": "7066 U.S. 70S, Nashville"}, {"business_status": "CLOSED_TEMPORARILY", "geometry": {"location": {"lat": 36.07602620000001, "lng": -86.9200462}, "viewport": {"northeast": {"lat": 36.0775055802915, "lng": -86.9187634697085}, "southwest": {"lat": 36.07480761970851, "lng": -86.9214614302915}}}, "icon": "https://maps.gstatic.com/mapfiles/place_api/icons/v1/png_71/generic_business-71.png", "name": "Hot Yoga", "permanently_closed": true, "photos": [{"height": 4032, "html_attributions": ["<a href=\"https://maps.google.com/maps/contrib/112995790823584313088\">Thomas Harsham</a>"], "photo_reference": "CmRaAAAAteLjWjYuxOKqHHau2yvJX6UmWKK2fuZnQlMGAdTuy-TgZwQYAT5ylDSyvBABzNhvspnZ8VRIpGqZiiSqbAT38OiRvFmZs6Eukvp5MFMF7v0EeXOXHNfFRSsfumc_Q5ysEhDlwQUiJtYZfDGjPjR-yoVtGhRaulSPtXQcsHiCTqPm1hEPIBYCkw", "width": 3024}], "place_id": "ChIJR50wIT-IZIgREAuZgUDpfTs", "plus_code": {"compound_code": "33GH+CX Nashville, TN, USA", "global_code": "868M33GH+CX"}, "reference": "ChIJR50wIT-IZIgREAuZgUDpfTs", "scope": "GOOGLE", "types": ["gym", "health", "point_of_interest", "establishment"], "vicinity": "Belle Forest Circle, Nashville"}]}, {"mapped_location": "(36.01624769999999, -86.6678372)", "address": "709 Evening Ave, Antioch", "results": [{"business_status": "OPERATIONAL", "geometry": {"location": {"lat": 36.01561179999999, "lng": -86.6655747}, "viewport": {"northeast": {"lat": 36.01688323029149, "lng": -86.6642543697085}, "southwest": {"lat": 36.01418526970849, "lng": -86.66695233029151}}}, "icon": "https://maps.gstatic.com/mapfiles/place_api/icons/v1/png_71/generic_business-71.png", "name": "T-shirt designs by dungmalisisters", "place_id": "ChIJxcOtaNVxZIgRVhi7z7nx1Bw", "plus_code": {"compound_code": "288M+6Q Nashville, TN, USA", "global_code": "868M288M+6Q"}, "reference": "ChIJxcOtaNVxZIgRVhi7z7nx1Bw", "scope": "GOOGLE", "types": ["point_of_interest", "establishment"], "vicinity": "108 Sundown Drive, Cane Ridge"}, {"business_status": "OPERATIONAL", "geometry": {"location": {"lat": 36.0192807, "lng": -86.6700407}, "viewport": {"northeast": {"lat": 36.0205340802915, "lng": -86.6686872697085}, "southwest": {"lat": 36.0178361197085, "lng": -86.6713852302915}}}, "icon": "https://maps.gstatic.com/mapfiles/place_api/icons/v1/png_71/generic_business-71.png", "name": "Glory Cubed Productions", "photos": [{"height": 1440, "html_attributions": ["<a href=\"https://maps.google.com/maps/contrib/104349751959559503406\">Andy Klassen</a>"], "photo_reference": "CmRaAAAAPPgBgcnc6SJtDRE98PyfoE9Hz0xpQHWjqi_p-helA0wu9HeM3Fo7hAIl2MQxrTgTa1PBf-Tdvm4gYxlzJ1F8E7acmM1uDtPXkLrDsk0AeLFGgogd9Nmbr3INWZ1LzmzTEhAsGSO4OmIzwqcjZh6mMpDjGhRFbttZTCorGrg32N9n3xbGgmJPdQ", "width": 2560}], "place_id": "ChIJXyEjCgJuZIgRWWRKUw51Uxo", "plus_code": {"compound_code": "289H+PX Nashville, TN, USA", "global_code": "868M289H+PX"}, "rating": 5, "reference": "ChIJXyEjCgJuZIgRWWRKUw51Uxo", "scope": "GOOGLE", "types": ["point_of_interest", "establishment"], "user_ratings_total": 1, "vicinity": "3225 Hidden Creek Drive, Antioch"}, {"business_status": "OPERATIONAL", "geometry": {"location": {"lat": 36.01294850000001, "lng": -86.6728491}, "viewport": {"northeast": {"lat": 36.0143873302915, "lng": -86.6713260197085}, "southwest": {"lat": 36.0116893697085, "lng": -86.67402398029151}}}, "icon": "https://maps.gstatic.com/mapfiles/place_api/icons/v1/png_71/worship_dharma-71.png", "name": "Wat Lao Xaoput", "opening_hours": {"open_now": true}, "photos": [{"height": 2988, "html_attributions": ["<a href=\"https://maps.google.com/maps/contrib/110934054468213945723\">Lenn Ninnasopha</a>"], "photo_reference": "CmRaAAAAaVu7QAs3e74PYpaaKOAvVwHKksBJR1NacJI95TPX4J1mXJ4WAhdd85VIDscO1ArBQYpGlicaXcMmlecKX1SLSw31G30cuYyZoRtpgSiNCSx2syprPIoJtHSzFYPnTs4REhCSvbyepyIS7QO5B34Gr2PMGhQT5bEosSzvyfEgsX2_g_hgD4jN-w", "width": 5312}], "place_id": "ChIJTefhTpBxZIgRooT4UqckQw0", "plus_code": {"compound_code": "287G+5V Nashville, TN, USA", "global_code": "868M287G+5V"}, "rating": 5, "reference": "ChIJTefhTpBxZIgRooT4UqckQw0", "scope": "GOOGLE", "types": ["place_of_worship", "point_of_interest", "establishment"], "user_ratings_total": 3, "vicinity": "14131 Old Hickory Boulevard, Antioch"}, {"business_status": "OPERATIONAL", "geometry": {"location": {"lat": 36.01125099999999, "lng": -86.6697563}, "viewport": {"northeast": {"lat": 36.0128865302915, "lng": -86.66832776970848}, "southwest": {"lat": 36.0101885697085, "lng": -86.67102573029149}}}, "icon": "https://maps.gstatic.com/mapfiles/place_api/icons/v1/png_71/generic_business-71.png", "name": "Award Controls", "place_id": "ChIJi9jlWIVxZIgRkP_ZruilklM", "plus_code": {"compound_code": "286J+G3 Nashville, TN, USA", "global_code": "868M286J+G3"}, "reference": "ChIJi9jlWIVxZIgRkP_ZruilklM", "scope": "GOOGLE", "types": ["point_of_interest", "establishment"], "vicinity": "14087 Old Hickory Boulevard, Antioch"}, {"business_status": "OPERATIONAL", "geometry": {"location": {"lat": 36.0219488, "lng": -86.6644336}, "viewport": {"northeast": {"lat": 36.0232977802915, "lng": -86.6630846197085}, "southwest": {"lat": 36.0205998197085, "lng": -86.6657825802915}}}, "icon": "https://maps.gstatic.com/mapfiles/place_api/icons/v1/png_71/generic_business-71.png", "name": "A Z Kelley Cafeteria", "place_id": "ChIJtczjwfRxZIgRV8-EFkrE7xI", "plus_code": {"compound_code": "28CP+Q6 Nashville, TN, USA", "global_code": "868M28CP+Q6"}, "rating": 3.4, "reference": "ChIJtczjwfRxZIgRV8-EFkrE7xI", "scope": "GOOGLE", "types": ["point_of_interest", "establishment"], "user_ratings_total": 5, "vicinity": "5834 Pettus Road, Antioch"}]}, {"mapped_location": "(36.1689871, -86.7831684)", "address": "474 James Robertson Pkwy, Nashville", "results": [{"business_status": "OPERATIONAL", "geometry": {"location": {"lat": 36.1689871, "lng": -86.7831684}, "viewport": {"northeast": {"lat": 36.1702583802915, "lng": -86.78184256970849}, "southwest": {"lat": 36.1675604197085, "lng": -86.7845405302915}}}, "icon": "https://maps.gstatic.com/mapfiles/place_api/icons/v1/png_71/generic_business-71.png", "name": "WTVF - NewsChannel5", "opening_hours": {"open_now": true}, "photos": [{"height": 3456, "html_attributions": ["<a href=\"https://maps.google.com/maps/contrib/112488959428384457271\">Richard MacKinnon</a>"], "photo_reference": "CmRaAAAAYkEQa6x1-__ai9n-DoCLWJhezvFpB0ylJD56muNTe7IA0Ql2pGfJo1ju_XHIVs4basu5H-HNk4DlD6vwSX7fkQqOur1Wrcr7olcjP1EJqd56wD0I_nDCKxknNpBs_fNxEhBblwHvpnQMf_mWvWzN-pzdGhTx5QiHedqLDaBefMAITjoLvo-l2A", "width": 4608}], "place_id": "ChIJbWcMjPhmZIgRVo2ZYbpDNOI", "plus_code": {"compound_code": "5698+HP Nashville, TN, USA", "global_code": "868M5698+HP"}, "rating": 4.4, "reference": "ChIJbWcMjPhmZIgRVo2ZYbpDNOI", "scope": "GOOGLE", "types": ["point_of_interest", "establishment"], "user_ratings_total": 52, "vicinity": "474 James Robertson Parkway, Nashville"}, {"business_status": "OPERATIONAL", "geometry": {"location": {"lat": 36.1689878, "lng": -86.7831724}, "viewport": {"northeast": {"lat": 36.1702591302915, "lng": -86.78184656970849}, "southwest": {"lat": 36.16756116970851, "lng": -86.7845445302915}}}, "icon": "https://maps.gstatic.com/mapfiles/place_api/icons/v1/png_71/generic_business-71.png", "name": "Dans Network", "opening_hours": {"open_now": true}, "photos": [{"height": 280, "html_attributions": ["<a href=\"https://maps.google.com/maps/contrib/105492984982372157646\">Dans Network</a>"], "photo_reference": "CmRaAAAA6pnZdHaIFaFK3r78t0v-eIyHBr4XgoczMo-1K__rKlLLQlSJNgs3_HIJfWzad_Qm-2EqywS5VoHktyqfzAzJBh7dRbcsCAX_dsnNPnrfSlXB5ZiMLaS3lU6cQBHKobtCEhBVbY2qD7djn2TID4DJSBFvGhTALIxMF8SpzU7dFrwdgWwNvdVyaQ", "width": 480}], "place_id": "ChIJp_vM_SFnZIgRmKVXQh69ieU", "plus_code": {"compound_code": "5698+HP Nashville, TN, USA", "global_code": "868M5698+HP"}, "reference": "ChIJp_vM_SFnZIgRmKVXQh69ieU", "scope": "GOOGLE", "types": ["point_of_interest", "establishment"], "vicinity": "510 Gay Street #1110, Nashville"}, {"business_status": "OPERATIONAL", "geometry": {"location": {"lat": 36.16922, "lng": -86.78325459999999}, "viewport": {"northeast": {"lat": 36.1703841302915, "lng": -86.78194551970849}, "southwest": {"lat": 36.1676861697085, "lng": -86.7846434802915}}}, "icon": "https://maps.gstatic.com/mapfiles/place_api/icons/v1/png_71/generic_business-71.png", "name": "Adam Hammond: NewsChannel5", "opening_hours": {"open_now": false}, "place_id": "ChIJLVbz0KVnZIgRv6YNZgO3U8o", "plus_code": {"compound_code": "5698+MM Nashville, TN, USA", "global_code": "868M5698+MM"}, "rating": 5, "reference": "ChIJLVbz0KVnZIgRv6YNZgO3U8o", "scope": "GOOGLE", "types": ["point_of_interest", "establishment"], "user_ratings_total": 3, "vicinity": "474 James Robertson Parkway, Nashville"}, {"business_status": "OPERATIONAL", "geometry": {"location": {"lat": 36.16931099999999, "lng": -86.783143}, "viewport": {"northeast": {"lat": 36.17075178029149, "lng": -86.7820611697085}, "southwest": {"lat": 36.1680538197085, "lng": -86.7847591302915}}}, "icon": "https://maps.gstatic.com/mapfiles/place_api/icons/v1/png_71/generic_business-71.png", "name": "Talk of The Town", "opening_hours": {"open_now": true}, "photos": [{"height": 506, "html_attributions": ["<a href=\"https://maps.google.com/maps/contrib/114479679842652796590\">Delsenia Sales</a>"], "photo_reference": "CmRaAAAAernjn2VRmwtIla-bb5vps6dun7E32dBjix6UbOjPqMDE2VciYwhccWf1hZRC90glbG2PARUxcZ_B2vY3atWEG0cbJ7jf2n9HW68ri8ncv_S3D0jhbsXl8CNsMLQ_V1OhEhA5ENdzCNj6FiYjRQjtmzHcGhRIqzFVw82IqLZje6BqaQRepbjN-Q", "width": 720}], "place_id": "ChIJbWcMjPhmZIgRntC_1F_DcLw", "plus_code": {"compound_code": "5698+PP Nashville, TN, USA", "global_code": "868M5698+PP"}, "rating": 5, "reference": "ChIJbWcMjPhmZIgRntC_1F_DcLw", "scope": "GOOGLE", "types": ["point_of_interest", "establishment"], "user_ratings_total": 4, "vicinity": "474 James Robertson Parkway, Nashville"}, {"business_status": "OPERATIONAL", "geometry": {"location": {"lat": 36.1691291, "lng": -86.78367999999999}, "viewport": {"northeast": {"lat": 36.1703477302915, "lng": -86.78232961970849}, "southwest": {"lat": 36.1676497697085, "lng": -86.7850275802915}}}, "icon": "https://maps.gstatic.com/mapfiles/place_api/icons/v1/png_71/generic_business-71.png", "name": "Jacobs Cohen & Associates", "opening_hours": {"open_now": true}, "place_id": "ChIJJ71dqVlmZIgR6GxWfg58aXk", "plus_code": {"compound_code": "5698+MG Nashville, TN, USA", "global_code": "868M5698+MG"}, "rating": 4.5, "reference": "ChIJJ71dqVlmZIgR6GxWfg58aXk", "scope": "GOOGLE", "types": ["accounting", "finance", "point_of_interest", "establishment"], "user_ratings_total": 8, "vicinity": "480 James Robertson Parkway, Nashville"}]}, {"mapped_location": "(36.12127031158914, -86.79017109325407)", "address": "2902 12th Ave S, Nashville", "results": [{"business_status": "OPERATIONAL", "geometry": {"location": {"lat": 36.1212469, "lng": -86.790155}, "viewport": {"northeast": {"lat": 36.1226192802915, "lng": -86.78893486970848}, "southwest": {"lat": 36.1199213197085, "lng": -86.79163283029149}}}, "icon": "https://maps.gstatic.com/mapfiles/place_api/icons/v1/png_71/restaurant-71.png", "name": "Epice", "opening_hours": {"open_now": true}, "photos": [{"height": 3024, "html_attributions": ["<a href=\"https://maps.google.com/maps/contrib/104908887453888067240\">Alexandra Dominguez</a>"], "photo_reference": "CmRaAAAAWJBSTbnUrFhM4Rdz22DrSmF02qY4_alIZ1OZ1ZsijYOsk6RsUOwfhxBECPZ1utgHybfX9-R4t2quFjkaA2WGMLxxK181nGseDRXc3j0f9flu3f_XJNHDbBEb2_Px0gSLEhC0O3QAwHD88IbAsGoYiA6uGhRBWOBG-en8RMKOehApWRlp2vQLpQ", "width": 4032}], "place_id": "ChIJyWNjODBkZIgRvGC7qJq9m-8", "plus_code": {"compound_code": "46C5+FW Nashville, TN, USA", "global_code": "868M46C5+FW"}, "price_level": 2, "rating": 4.4, "reference": "ChIJyWNjODBkZIgRvGC7qJq9m-8", "scope": "GOOGLE", "types": ["restaurant", "food", "point_of_interest", "establishment"], "user_ratings_total": 404, "vicinity": "2902 12th Avenue South, Nashville"}, {"business_status": "OPERATIONAL", "geometry": {"location": {"lat": 36.12130330000001, "lng": -86.7901394}, "viewport": {"northeast": {"lat": 36.1226756302915, "lng": -86.78891921970849}, "southwest": {"lat": 36.1199776697085, "lng": -86.7916171802915}}}, "icon": "https://maps.gstatic.com/mapfiles/place_api/icons/v1/png_71/generic_business-71.png", "name": "Flowers Mural", "photos": [{"height": 3024, "html_attributions": ["<a href=\"https://maps.google.com/maps/contrib/114690612264091299109\">Crystal Herrera</a>"], "photo_reference": "CmRaAAAA6KzilmYSH9TeIqUclCsl5N2I6saiL5DtqdgCDy0lqs0wD8uHzQDZEs1OmSGFOV1bFoHOfihmQeQZmXnWdFFjQHxVQHfySMLilO02NYGFiNILyt6pqzUppBVOtBP6Bm7GEhDfLzqhRH6jPXF2mpmxzUGLGhTKcfUieD-axFN5O8xFJ_WePhnNxw", "width": 4032}], "place_id": "ChIJE0ZbKE5lZIgRW6a0YbwBpjc", "plus_code": {"compound_code": "46C5+GW Nashville, TN, USA", "global_code": "868M46C5+GW"}, "rating": 5, "reference": "ChIJE0ZbKE5lZIgRW6a0YbwBpjc", "scope": "GOOGLE", "types": ["point_of_interest", "establishment"], "user_ratings_total": 1, "vicinity": "2900 12th Avenue South, Nashville"}, {"business_status": "OPERATIONAL", "geometry": {"location": {"lat": 36.1213819, "lng": -86.7901978}, "viewport": {"northeast": {"lat": 36.1227473302915, "lng": -86.7889394197085}, "southwest": {"lat": 36.1200493697085, "lng": -86.7916373802915}}}, "icon": "https://maps.gstatic.com/mapfiles/place_api/icons/v1/png_71/generic_business-71.png", "name": "Bodhi", "photos": [{"height": 2080, "html_attributions": ["<a href=\"https://maps.google.com/maps/contrib/111865206864402418598\">Matthew Sullivan</a>"], "photo_reference": "CmRaAAAARQr1cpzD0m8MUWBnlMsvXNX6aKHW8qjywh5l6y7W7Lg2Z6DVu8-66rWsfmwfR-7SK8QN2-ct7d7choQIaYLs9MjO6XGn4iWurz5YTuHiaj2b7VAg1KNZo2eFJk_aoe2FEhDURpj32U4HZks6Je5hSv5VGhS2tKeXiqBVCVfalVxHdPdoVxDS-g", "width": 4160}], "place_id": "ChIJNcYDOTBkZIgRVAwmZs7EHHg", "plus_code": {"compound_code": "46C5+HW Nashville, TN, USA", "global_code": "868M46C5+HW"}, "rating": 5, "reference": "ChIJNcYDOTBkZIgRVAwmZs7EHHg", "scope": "GOOGLE", "types": ["point_of_interest", "establishment"], "user_ratings_total": 2, "vicinity": "2935-2900 12th Avenue South, Nashville"}, {"business_status": "OPERATIONAL", "geometry": {"location": {"lat": 36.1213863, "lng": -86.7900758}, "viewport": {"northeast": {"lat": 36.1227620802915, "lng": -86.78887491970849}, "southwest": {"lat": 36.12006411970851, "lng": -86.7915728802915}}}, "icon": "https://maps.gstatic.com/mapfiles/place_api/icons/v1/png_71/shopping-71.png", "name": "United Apparel Liquidators", "opening_hours": {"open_now": true}, "photos": [{"height": 4032, "html_attributions": ["<a href=\"https://maps.google.com/maps/contrib/108737201058171464181\">United Apparel Liquidators</a>"], "photo_reference": "CmRaAAAAffKHmJO68SGsjnXHDUTVXcQxCXS-M8ZnoQANwqoabvird7LrM2IxggXljSCYJKsHx1bKak6W7y5sJlFci-WiazyGTGBwEoN1_zDw1K4fRzU2t2lEpF7E8lMxSt12Q9kjEhBC2DEwzwtdfFDioZ383z5YGhSphXHpaU5tir9x7ATKeGIDntrACQ", "width": 3024}], "place_id": "ChIJp8BwGj1lZIgRmsJyXNYdQJw", "plus_code": {"compound_code": "46C5+HX Nashville, TN, USA", "global_code": "868M46C5+HX"}, "reference": "ChIJp8BwGj1lZIgRmsJyXNYdQJw", "scope": "GOOGLE", "types": ["clothing_store", "point_of_interest", "store", "establishment"], "vicinity": "2900 12th Avenue South, Nashville"}, {"business_status": "OPERATIONAL", "geometry": {"location": {"lat": 36.1213592, "lng": -86.7899552}, "viewport": {"northeast": {"lat": 36.1228551302915, "lng": -86.78858481970849}, "southwest": {"lat": 36.1201571697085, "lng": -86.7912827802915}}}, "icon": "https://maps.gstatic.com/mapfiles/place_api/icons/v1/png_71/generic_business-71.png", "name": "Jenny Taylor Boudoir Photography \u2022 Nashville", "photos": [{"height": 533, "html_attributions": ["<a href=\"https://maps.google.com/maps/contrib/105918606501338520403\">Jenny Taylor Boudoir Photography \u2022 Nashville</a>"], "photo_reference": "CmRaAAAAgG-H2_5AzuvmIPjdVKjjaEnCmriZFJas1AppBfm5JK6ucILgjX-s8WTyXS-SuWlAWasheEBLw46Sgd6P4zw01kQwRwbed4UlTV0I4iU9zVBT9ovz62N9uhYX2utvN4GvEhBsKv_gGowH24fsfpybz0ZtGhT6ATT56dXbutK8OIDQMUz3_qe7sg", "width": 800}], "place_id": "ChIJf9mnfE1lZIgRCBFz8oX8hkY", "plus_code": {"compound_code": "46C6+G2 Nashville, TN, USA", "global_code": "868M46C6+G2"}, "rating": 5, "reference": "ChIJf9mnfE1lZIgRCBFz8oX8hkY", "scope": "GOOGLE", "types": ["point_of_interest", "establishment"], "user_ratings_total": 16, "vicinity": "=, Nashville"}]}, {"mapped_location": "(36.1954874116207, -86.7750312)", "address": "1085B Whites Creek Pike, Nashville", "results": [{"business_status": "OPERATIONAL", "geometry": {"location": {"lat": 36.195299, "lng": -86.775038}, "viewport": {"northeast": {"lat": 36.1967395802915, "lng": -86.77366816970849}, "southwest": {"lat": 36.19404161970851, "lng": -86.7763661302915}}}, "icon": "https://maps.gstatic.com/mapfiles/place_api/icons/v1/png_71/generic_business-71.png", "name": "SKY AT FERN", "photos": [{"height": 1908, "html_attributions": ["<a href=\"https://maps.google.com/maps/contrib/111138760555971373160\">Joey</a>"], "photo_reference": "CmRaAAAADDtF0FmK-EXCXg76nU5xUDLghmg6u-OgJqGZ-ATJznJtUs1BOJtbjbt1tU7pWHdQ6-A-kY_XKKtNQdawes1RdwgVygpK6gcGce8abeDQtKBCjtbVVciAZAYc9PYY3OVKEhDLGeHWXQssh2zPvd-YI0E9GhQTMfNxAuXFuMr12xW8fZyPm4tFGQ", "width": 4128}], "place_id": "ChIJpRfqsqNnZIgRO6Uo8kScfjU", "plus_code": {"compound_code": "56WF+4X Nashville, TN, USA", "global_code": "868M56WF+4X"}, "rating": 4.8, "reference": "ChIJpRfqsqNnZIgRO6Uo8kScfjU", "scope": "GOOGLE", "types": ["point_of_interest", "establishment"], "user_ratings_total": 5, "vicinity": "66 Fern Avenue, Nashville"}, {"business_status": "OPERATIONAL", "geometry": {"location": {"lat": 36.1959775, "lng": -86.77646589999999}, "viewport": {"northeast": {"lat": 36.1973204802915, "lng": -86.77519921970848}, "southwest": {"lat": 36.1946225197085, "lng": -86.7778971802915}}}, "icon": "https://maps.gstatic.com/mapfiles/place_api/icons/v1/png_71/generic_business-71.png", "name": "Alleyboy Auto Repair", "place_id": "ChIJ1SwlL6JnZIgRF3m5pb-EcNU", "plus_code": {"compound_code": "56WF+9C Nashville, TN, USA", "global_code": "868M56WF+9C"}, "rating": 4.3, "reference": "ChIJ1SwlL6JnZIgRF3m5pb-EcNU", "scope": "GOOGLE", "types": ["car_repair", "point_of_interest", "establishment"], "user_ratings_total": 6, "vicinity": "1211 Brick Church Pike, Nashville"}, {"business_status": "OPERATIONAL", "geometry": {"location": {"lat": 36.196213, "lng": -86.773735}, "viewport": {"northeast": {"lat": 36.1975503802915, "lng": -86.77216441970849}, "southwest": {"lat": 36.1948524197085, "lng": -86.77486238029151}}}, "icon": "https://maps.gstatic.com/mapfiles/place_api/icons/v1/png_71/lodging-71.png", "name": "Skyline at East Nashville", "place_id": "ChIJk6zN8aJnZIgRusZN1IX7Y4g", "plus_code": {"compound_code": "56WG+FG Nashville, TN, USA", "global_code": "868M56WG+FG"}, "reference": "ChIJk6zN8aJnZIgRusZN1IX7Y4g", "scope": "GOOGLE", "types": ["lodging", "point_of_interest", "establishment"], "vicinity": "119 Elmhurst Avenue, Nashville"}, {"business_status": "OPERATIONAL", "geometry": {"location": {"lat": 36.1956, "lng": -86.776631}, "viewport": {"northeast": {"lat": 36.1969631802915, "lng": -86.77528011970848}, "southwest": {"lat": 36.1942652197085, "lng": -86.77797808029149}}}, "icon": "https://maps.gstatic.com/mapfiles/place_api/icons/v1/png_71/generic_business-71.png", "name": "Brick Church Pike & Fern Ave NB", "place_id": "ChIJK_4HK6JnZIgRJRFImRoxfgY", "plus_code": {"compound_code": "56WF+68 Nashville, TN, USA", "global_code": "868M56WF+68"}, "rating": 5, "reference": "ChIJK_4HK6JnZIgRJRFImRoxfgY", "scope": "GOOGLE", "types": ["transit_station", "point_of_interest", "establishment"], "user_ratings_total": 1, "vicinity": "United States"}, {"business_status": "OPERATIONAL", "geometry": {"location": {"lat": 36.195725, "lng": -86.776665}, "viewport": {"northeast": {"lat": 36.1970749302915, "lng": -86.77530161970847}, "southwest": {"lat": 36.19437696970851, "lng": -86.77799958029149}}}, "icon": "https://maps.gstatic.com/mapfiles/place_api/icons/v1/png_71/generic_business-71.png", "name": "Fern Ave & Brick Church PK WB", "place_id": "ChIJk2nNK6JnZIgR4OAeU2ZyZ70", "plus_code": {"compound_code": "56WF+78 Nashville, TN, USA", "global_code": "868M56WF+78"}, "reference": "ChIJk2nNK6JnZIgR4OAeU2ZyZ70", "scope": "GOOGLE", "types": ["transit_station", "point_of_interest", "establishment"], "vicinity": "United States"}]}, {"mapped_location": "(36.158159444414366, -86.77235292750854)", "address": "341 2nd Ave S, Nashville", "results": [{"business_status": "OPERATIONAL", "geometry": {"location": {"lat": 36.1583691, "lng": -86.7719178}, "viewport": {"northeast": {"lat": 36.1596903302915, "lng": -86.7705503197085}, "southwest": {"lat": 36.1569923697085, "lng": -86.77324828029151}}}, "icon": "https://maps.gstatic.com/mapfiles/place_api/icons/v1/png_71/generic_business-71.png", "name": "Korean Veterans Blvd & 1st Ave South", "photos": [{"height": 2560, "html_attributions": ["<a href=\"https://maps.google.com/maps/contrib/113390972091905006275\">Dawn Murray</a>"], "photo_reference": "CmRaAAAA4dQnbxLgl-7O1Guf9zrxPC5dR0N6x4v4awpP7gPJD2H6cI75swjUluTRuPDDFxDdShwj280vAKsIe5Uz2lts5kosLgy8KxMwUPHxiU62tyz9KRl9fpGM_JP6V7gZEEPNEhBiIcUxsW2V9qwxN5Oev_NBGhQjeKKKMrcX2rR_1_MsqqDvRMFOCg", "width": 1440}], "place_id": "ChIJETFjy1xmZIgRfsOl53ZtqFc", "plus_code": {"compound_code": "565H+86 Nashville, TN, USA", "global_code": "868M565H+86"}, "rating": 5, "reference": "ChIJETFjy1xmZIgRfsOl53ZtqFc", "scope": "GOOGLE", "types": ["point_of_interest", "establishment"], "user_ratings_total": 1, "vicinity": "Korean Veterans Boulevard, Nashville"}, {"business_status": "OPERATIONAL", "geometry": {"location": {"lat": 36.15786629999999, "lng": -86.7719963}, "viewport": {"northeast": {"lat": 36.1592377802915, "lng": -86.77066261970847}, "southwest": {"lat": 36.1565398197085, "lng": -86.7733605802915}}}, "icon": "https://maps.gstatic.com/mapfiles/place_api/icons/v1/png_71/parking-71.png", "name": "Sobro parking East", "place_id": "ChIJhZ9oKUNmZIgRMyIT4Rb5x5c", "plus_code": {"compound_code": "565H+46 Nashville, TN, USA", "global_code": "868M565H+46"}, "rating": 3.7, "reference": "ChIJhZ9oKUNmZIgRMyIT4Rb5x5c", "scope": "GOOGLE", "types": ["parking", "point_of_interest", "establishment"], "user_ratings_total": 3, "vicinity": "420 1st Avenue South, Nashville"}, {"business_status": "OPERATIONAL", "geometry": {"location": {"lat": 36.15857099999999, "lng": -86.7722909}, "viewport": {"northeast": {"lat": 36.1602853302915, "lng": -86.77117016970848}, "southwest": {"lat": 36.1575873697085, "lng": -86.7738681302915}}}, "icon": "https://maps.gstatic.com/mapfiles/place_api/icons/v1/png_71/generic_business-71.png", "name": "XO Communications", "photos": [{"height": 3024, "html_attributions": ["<a href=\"https://maps.google.com/maps/contrib/111301063088140712820\">Todd Oney</a>"], "photo_reference": "CmRZAAAAelbEzX3JlpUhKV00a9RZDXMkgBbPgkcs6TZB2vQI94S9BI7sA-pjcKlTwwj-sXHSRwtEVq20DvS4NoMk3z7nx4mdce2tFVdit4R9oIHkGuRyOWsSpShz64K8RfdOvLvcEhBVGKdqp-mydI7ybeTqZ4_1GhT1s36QpChe9Uqe1EJdbEPMqkLpXw", "width": 4032}], "place_id": "ChIJGesUllxmZIgRYjxtY9MEK0A", "plus_code": {"compound_code": "565H+C3 Nashville, TN, USA", "global_code": "868M565H+C3"}, "rating": 2, "reference": "ChIJGesUllxmZIgRYjxtY9MEK0A", "scope": "GOOGLE", "types": ["point_of_interest", "establishment"], "user_ratings_total": 4, "vicinity": "105 Molloy Street #300, Nashville"}, {"business_status": "OPERATIONAL", "geometry": {"location": {"lat": 36.1578057, "lng": -86.7720571}, "viewport": {"northeast": {"lat": 36.1591181802915, "lng": -86.7706868697085}, "southwest": {"lat": 36.1564202197085, "lng": -86.7733848302915}}}, "icon": "https://maps.gstatic.com/mapfiles/place_api/icons/v1/png_71/parking-71.png", "name": "Gateway Lot", "place_id": "ChIJd_3F01xmZIgRhZgi_QB7dT4", "plus_code": {"compound_code": "565H+45 Nashville, TN, USA", "global_code": "868M565H+45"}, "rating": 1.5, "reference": "ChIJd_3F01xmZIgRhZgi_QB7dT4", "scope": "GOOGLE", "types": ["parking", "point_of_interest", "establishment"], "user_ratings_total": 2, "vicinity": "413 Hermitage Avenue, Nashville"}, {"business_status": "OPERATIONAL", "geometry": {"location": {"lat": 36.15858, "lng": -86.772148}, "viewport": {"northeast": {"lat": 36.1599453802915, "lng": -86.77076031970849}, "southwest": {"lat": 36.1572474197085, "lng": -86.7734582802915}}}, "icon": "https://maps.gstatic.com/mapfiles/place_api/icons/v1/png_71/generic_business-71.png", "name": "1st Ave S & Korean Vets Blvd SB", "place_id": "ChIJQbuPyVxmZIgRNRPROfCfBYU", "plus_code": {"compound_code": "565H+C4 Nashville, TN, USA", "global_code": "868M565H+C4"}, "rating": 5, "reference": "ChIJQbuPyVxmZIgRNRPROfCfBYU", "scope": "GOOGLE", "types": ["transit_station", "point_of_interest", "establishment"], "user_ratings_total": 1, "vicinity": "United States"}]}, {"mapped_location": "(36.080806611571965, -86.95576469999999)", "address": "7640 Hwy 70 S, Nashville", "results": [{"business_status": "OPERATIONAL", "geometry": {"location": {"lat": 36.0805296, "lng": -86.9549334}, "viewport": {"northeast": {"lat": 36.0818914802915, "lng": -86.95357216970848}, "southwest": {"lat": 36.0791935197085, "lng": -86.9562701302915}}}, "icon": "https://maps.gstatic.com/mapfiles/place_api/icons/v1/png_71/generic_business-71.png", "name": "Liggon Sara MD", "place_id": "ChIJDRf76_GIZIgR02SS4Ca4Kto", "plus_code": {"compound_code": "32JW+62 Nashville, TN, USA", "global_code": "868M32JW+62"}, "reference": "ChIJDRf76_GIZIgR02SS4Ca4Kto", "scope": "GOOGLE", "types": ["doctor", "health", "point_of_interest", "establishment"], "vicinity": "7640 Highway 70 South STE 202, Nashville"}, {"business_status": "OPERATIONAL", "geometry": {"location": {"lat": 36.0805296, "lng": -86.9549334}, "viewport": {"northeast": {"lat": 36.0818914802915, "lng": -86.95357216970848}, "southwest": {"lat": 36.0791935197085, "lng": -86.9562701302915}}}, "icon": "https://maps.gstatic.com/mapfiles/place_api/icons/v1/png_71/generic_business-71.png", "name": "Smeltzer Christopher MD", "place_id": "ChIJDRf76_GIZIgRWTEWtSk6DiE", "plus_code": {"compound_code": "32JW+62 Nashville, TN, USA", "global_code": "868M32JW+62"}, "rating": 4.7, "reference": "ChIJDRf76_GIZIgRWTEWtSk6DiE", "scope": "GOOGLE", "types": ["doctor", "health", "point_of_interest", "establishment"], "user_ratings_total": 3, "vicinity": "7640 Highway 70 South STE 202, Nashville"}, {"business_status": "OPERATIONAL", "geometry": {"location": {"lat": 36.0807915, "lng": -86.9546939}, "viewport": {"northeast": {"lat": 36.0821150302915, "lng": -86.9532691197085}, "southwest": {"lat": 36.0794170697085, "lng": -86.9559670802915}}}, "icon": "https://maps.gstatic.com/mapfiles/place_api/icons/v1/png_71/restaurant-71.png", "name": "Waffle House", "opening_hours": {"open_now": true}, "photos": [{"height": 3072, "html_attributions": ["<a href=\"https://maps.google.com/maps/contrib/109252584123773711032\">Kevin Cronin</a>"], "photo_reference": "CmRaAAAA08eXNht0O32vapWsTLwZTptlCJlfZLZEuakyZyK1AHrD7SRzpXA6okkrVtKsbdB20H1OBuZuGXH4HV62Ma1gemooix9Y7PNDrVPWZG0OBmr4ghaChl9dfFC5l12yz-W0EhAcRV0s55LzyxQGIN6UzyFLGhRYxNvPszZWpwd5Ff4K5JTlp9pRlA", "width": 4096}], "place_id": "ChIJFbtIre-IZIgRw3F9OtYb9uQ", "plus_code": {"compound_code": "32JW+84 Nashville, TN, USA", "global_code": "868M32JW+84"}, "price_level": 1, "rating": 4.3, "reference": "ChIJFbtIre-IZIgRw3F9OtYb9uQ", "scope": "GOOGLE", "types": ["meal_takeaway", "restaurant", "food", "point_of_interest", "establishment"], "user_ratings_total": 801, "vicinity": "7676 Highway 70 South, Nashville"}, {"business_status": "OPERATIONAL", "geometry": {"location": {"lat": 36.0804026, "lng": -86.9547594}, "viewport": {"northeast": {"lat": 36.0817265802915, "lng": -86.9534341197085}, "southwest": {"lat": 36.0790286197085, "lng": -86.95613208029151}}}, "icon": "https://maps.gstatic.com/mapfiles/place_api/icons/v1/png_71/shopping-71.png", "name": "Perani's Hockey World - Bellevue", "opening_hours": {"open_now": false}, "place_id": "ChIJlVjPWi6JZIgRZhdMQgbNSro", "plus_code": {"compound_code": "32JW+53 Nashville, TN, USA", "global_code": "868M32JW+53"}, "reference": "ChIJlVjPWi6JZIgRZhdMQgbNSro", "scope": "GOOGLE", "types": ["point_of_interest", "store", "establishment"], "vicinity": "Ford Ice Center, 7638 Highway 70 South, Nashville"}, {"business_status": "OPERATIONAL", "geometry": {"location": {"lat": 36.0796972, "lng": -86.9556169}, "viewport": {"northeast": {"lat": 36.0810559802915, "lng": -86.9542568697085}, "southwest": {"lat": 36.0783580197085, "lng": -86.95695483029151}}}, "icon": "https://maps.gstatic.com/mapfiles/place_api/icons/v1/png_71/parking-71.png", "name": "MTA Bellevue Park & Ride", "opening_hours": {"open_now": true}, "photos": [{"height": 3024, "html_attributions": ["<a href=\"https://maps.google.com/maps/contrib/103980649572309760818\">Mary Griffin</a>"], "photo_reference": "CmRaAAAAKlTQBtiXdUnZTwMVdoOaeXYVNeuUoOiWg4NHtWf9nY6wh5K6dGRYntMZTb7tp8lj1B231bjRfI3hH9VkK8CPKurGqIMfPdzXDbyc34D3IoSRB_3GMkD3gGNbjNQ_pcwuEhCuOuewzYTuwXjSGerhwX93GhS8HaQk9zDvNIq9IVacYrEcbhq1TA", "width": 4032}], "place_id": "ChIJ7d63he6IZIgRDGTiwwhuHvc", "plus_code": {"compound_code": "32HV+VQ Nashville, TN, USA", "global_code": "868M32HV+VQ"}, "rating": 4.2, "reference": "ChIJ7d63he6IZIgRDGTiwwhuHvc", "scope": "GOOGLE", "types": ["parking", "point_of_interest", "establishment"], "user_ratings_total": 24, "vicinity": "7650 Coley Davis Road, Nashville"}]}, {"mapped_location": "(36.11823807366513, -86.87681341420644)", "address": "6220 Davidson Rd, Nashville", "results": [{"business_status": "OPERATIONAL", "geometry": {"location": {"lat": 36.1186561, "lng": -86.8772583}, "viewport": {"northeast": {"lat": 36.1197776802915, "lng": -86.87537251970849}, "southwest": {"lat": 36.1170797197085, "lng": -86.87807048029151}}}, "icon": "https://maps.gstatic.com/mapfiles/place_api/icons/v1/png_71/school-71.png", "name": "Hillwood Playcare, Inc.", "opening_hours": {"open_now": true}, "place_id": "ChIJZaYiaDliZIgRlWOAprirywM", "plus_code": {"compound_code": "449F+F3 Nashville, TN, USA", "global_code": "868M449F+F3"}, "rating": 5, "reference": "ChIJZaYiaDliZIgRlWOAprirywM", "scope": "GOOGLE", "types": ["point_of_interest", "establishment"], "user_ratings_total": 5, "vicinity": "6220 Hickory Valley Road, Nashville"}, {"business_status": "OPERATIONAL", "geometry": {"location": {"lat": 36.11794709999999, "lng": -86.8779285}, "viewport": {"northeast": {"lat": 36.11924418029149, "lng": -86.87665066970848}, "southwest": {"lat": 36.11654621970849, "lng": -86.87934863029149}}}, "icon": "https://maps.gstatic.com/mapfiles/place_api/icons/v1/png_71/shopping-71.png", "name": "Paperlicious LLC", "opening_hours": {"open_now": true}, "place_id": "ChIJubHu-Ni_VogRm2TLYQH9Etk", "plus_code": {"compound_code": "449C+5R Nashville, TN, USA", "global_code": "868M449C+5R"}, "reference": "ChIJubHu-Ni_VogRm2TLYQH9Etk", "scope": "GOOGLE", "types": ["home_goods_store", "point_of_interest", "store", "establishment"], "vicinity": "700 Bresslyn Road, Nashville"}, {"business_status": "OPERATIONAL", "geometry": {"location": {"lat": 36.11794520000001, "lng": -86.877935}, "viewport": {"northeast": {"lat": 36.1192439802915, "lng": -86.87665481970849}, "southwest": {"lat": 36.1165460197085, "lng": -86.87935278029151}}}, "icon": "https://maps.gstatic.com/mapfiles/place_api/icons/v1/png_71/worship_general-71.png", "name": "Brookmeade Congregational United Church of Christ", "opening_hours": {"open_now": false}, "place_id": "ChIJv-0l1z5iZIgRW9sweINzC5c", "plus_code": {"compound_code": "449C+5R Nashville, TN, USA", "global_code": "868M449C+5R"}, "rating": 5, "reference": "ChIJv-0l1z5iZIgRW9sweINzC5c", "scope": "GOOGLE", "types": ["church", "place_of_worship", "point_of_interest", "establishment"], "user_ratings_total": 1, "vicinity": "700 Bresslyn Road, Nashville"}, {"business_status": "OPERATIONAL", "geometry": {"location": {"lat": 36.11884879999999, "lng": -86.87587309999999}, "viewport": {"northeast": {"lat": 36.1201749302915, "lng": -86.8744761697085}, "southwest": {"lat": 36.1174769697085, "lng": -86.87717413029151}}}, "icon": "https://maps.gstatic.com/mapfiles/place_api/icons/v1/png_71/worship_general-71.png", "name": "Hillwood Presbyterian Church", "photos": [{"height": 1512, "html_attributions": ["<a href=\"https://maps.google.com/maps/contrib/100556658578804579581\">Hillwood Presbyterian Church</a>"], "photo_reference": "CmRaAAAAo-vQ8jcB1w0gm4bCd2vmgnCebvxmIsHW3SBEYbQgqOQcnwLS6xTqEB1Zr7irGqamVazAhSV1wwOu38rj4Aqel5SzR60jiYQ0eKYSFu0nG2LhOgjsjVAY1TMrwKCKt2zpEhB1XqipDHywWZa1fm2MDskMGhSgRZnqI_SY1cvpkiFPi5_kHoGuug", "width": 2016}], "place_id": "ChIJZaYiaDliZIgR3-OTyMm0m2k", "plus_code": {"compound_code": "449F+GM Nashville, TN, USA", "global_code": "868M449F+GM"}, "rating": 5, "reference": "ChIJZaYiaDliZIgR3-OTyMm0m2k", "scope": "GOOGLE", "types": ["church", "place_of_worship", "point_of_interest", "establishment"], "user_ratings_total": 2, "vicinity": "6220 Hickory Valley Road, Nashville"}, {"business_status": "OPERATIONAL", "geometry": {"location": {"lat": 36.1188726, "lng": -86.87921840000001}, "viewport": {"northeast": {"lat": 36.1200792302915, "lng": -86.8780790197085}, "southwest": {"lat": 36.1173812697085, "lng": -86.88077698029151}}}, "icon": "https://maps.gstatic.com/mapfiles/place_api/icons/v1/png_71/school-71.png", "name": "Full House Learning", "place_id": "ChIJ3R1IhT5iZIgRlWAGdxnTqMU", "plus_code": {"compound_code": "449C+G8 Nashville, TN, USA", "global_code": "868M449C+G8"}, "reference": "ChIJ3R1IhT5iZIgRlWAGdxnTqMU", "scope": "GOOGLE", "types": ["point_of_interest", "establishment"], "vicinity": "718 Bresslyn Road, Nashville"}]}, {"mapped_location": "(36.19755, -86.74112)", "address": "2614 Gallatin Road, Nashville", "results": [{"business_status": "OPERATIONAL", "geometry": {"location": {"lat": 36.1975542, "lng": -86.7411238}, "viewport": {"northeast": {"lat": 36.1988469302915, "lng": -86.73978896970848}, "southwest": {"lat": 36.1961489697085, "lng": -86.7424869302915}}}, "icon": "https://maps.gstatic.com/mapfiles/place_api/icons/v1/png_71/generic_business-71.png", "name": "Direct Auto Insurance", "opening_hours": {"open_now": true}, "place_id": "ChIJo1LCreVnZIgRUQlI1LMLK20", "plus_code": {"compound_code": "57X5+2H Nashville, TN, USA", "global_code": "868M57X5+2H"}, "rating": 4.2, "reference": "ChIJo1LCreVnZIgRUQlI1LMLK20", "scope": "GOOGLE", "types": ["insurance_agency", "point_of_interest", "establishment"], "user_ratings_total": 13, "vicinity": "2614 Gallatin Road, Nashville"}, {"business_status": "OPERATIONAL", "geometry": {"location": {"lat": 36.1975216, "lng": -86.74114540000001}, "viewport": {"northeast": {"lat": 36.1988316802915, "lng": -86.73980621970848}, "southwest": {"lat": 36.1961337197085, "lng": -86.7425041802915}}}, "icon": "https://maps.gstatic.com/mapfiles/place_api/icons/v1/png_71/generic_business-71.png", "name": "Easy Cash Solutions", "opening_hours": {"open_now": true}, "place_id": "ChIJZUMWAuBnZIgRjqNHhvZDK54", "plus_code": {"compound_code": "57X5+2G Nashville, TN, USA", "global_code": "868M57X5+2G"}, "rating": 2, "reference": "ChIJZUMWAuBnZIgRjqNHhvZDK54", "scope": "GOOGLE", "types": ["finance", "point_of_interest", "establishment"], "user_ratings_total": 1, "vicinity": "2614 Gallatin Pike, Nashville"}, {"business_status": "OPERATIONAL", "geometry": {"location": {"lat": 36.1974942, "lng": -86.7411716}, "viewport": {"northeast": {"lat": 36.1988266302915, "lng": -86.73982676970849}, "southwest": {"lat": 36.19612866970851, "lng": -86.7425247302915}}}, "icon": "https://maps.gstatic.com/mapfiles/place_api/icons/v1/png_71/generic_business-71.png", "name": "Domino's Pizza", "opening_hours": {"open_now": true}, "photos": [{"height": 674, "html_attributions": ["<a href=\"https://maps.google.com/maps/contrib/104994048231054896265\">Domino&#39;s Pizza</a>"], "photo_reference": "CmRaAAAA_fdQsVrVEiqKomgg7mf-UuDXZTwJHeGFmV2J_6NZB8Ii5c4biImxPz2i3MllQ2WjICrlJJsIfpoml1XXhY26f2ny09k1IMDE_N3qgdEh-V4l8bor7mRSlZB8MDVGkDlXEhAQW334VF1X_06esNrVNNWGGhRmN5Sy16doSyzdeAhv_yHiDcY3vw", "width": 1024}], "place_id": "ChIJNS27AOBnZIgRWzXeS5qQzyo", "plus_code": {"compound_code": "57W5+XG Nashville, TN, USA", "global_code": "868M57W5+XG"}, "price_level": 1, "rating": 3, "reference": "ChIJNS27AOBnZIgRWzXeS5qQzyo", "scope": "GOOGLE", "types": ["meal_delivery", "meal_takeaway", "restaurant", "food", "point_of_interest", "establishment"], "user_ratings_total": 148, "vicinity": "2610 Gallatin Pike, Nashville"}, {"business_status": "OPERATIONAL", "geometry": {"location": {"lat": 36.1976746, "lng": -86.7409788}, "viewport": {"northeast": {"lat": 36.1988980802915, "lng": -86.7396614197085}, "southwest": {"lat": 36.1962001197085, "lng": -86.7423593802915}}}, "icon": "https://maps.gstatic.com/mapfiles/place_api/icons/v1/png_71/generic_business-71.png", "name": "Brothers Auto Transport", "opening_hours": {"open_now": true}, "photos": [{"height": 641, "html_attributions": ["<a href=\"https://maps.google.com/maps/contrib/104780478437615031865\">Brothers Auto Transport</a>"], "photo_reference": "CmRaAAAADgec15hnN1ptImO5kpOnpKTlTmdJVBVnGQRMi8BWOvqUcF0oU-XNT1BMcKhWKjAqw7OxjlpTRAApfGHziZvTIkM7Eic0ahDYFI0bWlICJ9T5iz8WMJcG5cA_PfWQWqn8EhAtHx-fjrbptJStwKDqU5HiGhSWR-tyzln-wBbtKDJPajKVTmwFtQ", "width": 960}], "place_id": "ChIJ6fgxnPNlZIgRHHRMyCX-Fb8", "plus_code": {"compound_code": "57X5+3J Nashville, TN, USA", "global_code": "868M57X5+3J"}, "reference": "ChIJ6fgxnPNlZIgRHHRMyCX-Fb8", "scope": "GOOGLE", "types": ["moving_company", "point_of_interest", "establishment"], "vicinity": "2618 Gallatin Pike, Nashville"}, {"business_status": "OPERATIONAL", "geometry": {"location": {"lat": 36.1977135, "lng": -86.7410034}, "viewport": {"northeast": {"lat": 36.19912798029149, "lng": -86.7398242197085}, "southwest": {"lat": 36.1964300197085, "lng": -86.7425221802915}}}, "icon": "https://maps.gstatic.com/mapfiles/place_api/icons/v1/png_71/generic_business-71.png", "name": "Tactile Therapies", "opening_hours": {"open_now": true}, "place_id": "ChIJhda4HEBpZIgRGKFpDmmMmz0", "plus_code": {"compound_code": "57X5+3H Nashville, TN, USA", "global_code": "868M57X5+3H"}, "rating": 5, "reference": "ChIJhda4HEBpZIgRGKFpDmmMmz0", "scope": "GOOGLE", "types": ["point_of_interest", "establishment"], "user_ratings_total": 5, "vicinity": "2618 Gallatin Pike, Nashville"}]}, {"mapped_location": "(36.0848, -86.72815)", "address": "Nolensville Rd & Paragon Mills Rd, Nashville", "results": [{"business_status": "OPERATIONAL", "geometry": {"location": {"lat": 36.08520600000001, "lng": -86.72787699999999}, "viewport": {"northeast": {"lat": 36.0864498302915, "lng": -86.72673381970849}, "southwest": {"lat": 36.0837518697085, "lng": -86.7294317802915}}}, "icon": "https://maps.gstatic.com/mapfiles/place_api/icons/v1/png_71/generic_business-71.png", "name": "Grassmere Animal Hospital PC: Brumbelow Cindy DVM", "opening_hours": {"open_now": true}, "place_id": "ChIJT33tSZxvZIgRZynSanOdmn4", "plus_code": {"compound_code": "37PC+3R Nashville, TN, USA", "global_code": "868M37PC+3R"}, "rating": 5, "reference": "ChIJT33tSZxvZIgRZynSanOdmn4", "scope": "GOOGLE", "types": ["veterinary_care", "point_of_interest", "establishment"], "user_ratings_total": 3, "vicinity": "3926 Nolensville Pike, Nashville"}, {"business_status": "OPERATIONAL", "geometry": {"location": {"lat": 36.08520600000001, "lng": -86.72787699999999}, "viewport": {"northeast": {"lat": 36.0864498302915, "lng": -86.72673381970849}, "southwest": {"lat": 36.0837518697085, "lng": -86.7294317802915}}}, "icon": "https://maps.gstatic.com/mapfiles/place_api/icons/v1/png_71/generic_business-71.png", "name": "Grassmere Animal Hospital PC: Clark Walter DVM", "opening_hours": {"open_now": true}, "place_id": "ChIJT33tSZxvZIgRf0hy4jXsXgk", "plus_code": {"compound_code": "37PC+3R Nashville, TN, USA", "global_code": "868M37PC+3R"}, "rating": 4, "reference": "ChIJT33tSZxvZIgRf0hy4jXsXgk", "scope": "GOOGLE", "types": ["veterinary_care", "point_of_interest", "establishment"], "user_ratings_total": 1, "vicinity": "3926 Nolensville Pike, Nashville"}, {"business_status": "OPERATIONAL", "geometry": {"location": {"lat": 36.0846353, "lng": -86.72751989999999}, "viewport": {"northeast": {"lat": 36.0859981802915, "lng": -86.7261270197085}, "southwest": {"lat": 36.0833002197085, "lng": -86.7288249802915}}}, "icon": "https://maps.gstatic.com/mapfiles/place_api/icons/v1/png_71/restaurant-71.png", "name": "Taco Bell", "opening_hours": {"open_now": true}, "photos": [{"height": 3024, "html_attributions": ["<a href=\"https://maps.google.com/maps/contrib/112611138739112489921\">Stefan K</a>"], "photo_reference": "CmRaAAAAjppTc4D5OWYs2r0u84XceRgzAmo6xyTIKcK7m60JFx_DaqTkrOvQkPv8YVdywbJPAjAi08BoLszjaIPxlVlbKkAfrgw4RmgQHW-Qs7_tjXfYgcKP0jn2UoWVHlXZL_ceEhAJEFTDuiPNv3dHIJvfuv8CGhRmZYHdzq0mXm6fUm-yJd3hUy4MPw", "width": 4032}], "place_id": "ChIJedtnOZxvZIgR-eZEUVyrz3U", "plus_code": {"compound_code": "37MC+VX Nashville, TN, USA", "global_code": "868M37MC+VX"}, "price_level": 1, "rating": 3.5, "reference": "ChIJedtnOZxvZIgR-eZEUVyrz3U", "scope": "GOOGLE", "types": ["meal_takeaway", "restaurant", "food", "point_of_interest", "establishment"], "user_ratings_total": 615, "vicinity": "4000 Nolensville Pike, Nashville"}, {"business_status": "OPERATIONAL", "geometry": {"location": {"lat": 36.0853852, "lng": -86.72806709999999}, "viewport": {"northeast": {"lat": 36.0867341802915, "lng": -86.72671811970848}, "southwest": {"lat": 36.0840362197085, "lng": -86.72941608029149}}}, "icon": "https://maps.gstatic.com/mapfiles/place_api/icons/v1/png_71/shopping-71.png", "name": "Paragon Mills Loan Co", "opening_hours": {"open_now": true}, "photos": [{"height": 1200, "html_attributions": ["<a href=\"https://maps.google.com/maps/contrib/113297971854704708936\">Paragon Mills Loan Co</a>"], "photo_reference": "CmRaAAAA7TKO9PbDmXX-VevH_xKsHQEXKmWATiiOiD6j9DmlB2AKOgezoeGboZT68GTYxLNng2kr4uc6HaIbsFHVEB6sTnL9r7azMm_ZZJjZqvmgAv0aKsVY1K01fohkmqY88LqTEhDw2HaS_6K5DYSu82jioMNZGhTRpQmaXUxyBxOpdkB8kqGyJL0LYg", "width": 1200}], "place_id": "ChIJ_6_IAJ1vZIgRMEWIc2OIVWQ", "plus_code": {"compound_code": "37PC+5Q Nashville, TN, USA", "global_code": "868M37PC+5Q"}, "rating": 4.3, "reference": "ChIJ_6_IAJ1vZIgRMEWIc2OIVWQ", "scope": "GOOGLE", "types": ["finance", "point_of_interest", "store", "establishment"], "user_ratings_total": 11, "vicinity": "3922 Nolensville Pike, Nashville"}, {"business_status": "OPERATIONAL", "geometry": {"location": {"lat": 36.0842774, "lng": -86.7286191}, "viewport": {"northeast": {"lat": 36.0855664802915, "lng": -86.7272403697085}, "southwest": {"lat": 36.0828685197085, "lng": -86.7299383302915}}}, "icon": "https://maps.gstatic.com/mapfiles/place_api/icons/v1/png_71/generic_business-71.png", "name": "Champion Sales And Lease - Nashville Nolensville", "opening_hours": {"open_now": true}, "photos": [{"height": 801, "html_attributions": ["<a href=\"https://maps.google.com/maps/contrib/100859282342033607217\">Champion Sales And Lease - Nashville Nolensville</a>"], "photo_reference": "CmRaAAAAy2BV4t7d0GI-mj3u10MYbUEtrjewuJXVQffAhArpGv00tvrF8C-1vdlqQTskieCcg4NrLTTy5x0lOhGBrNID0zrUZL7vQQgWqHZLfik5q_AQY2_EpMqQq2rooTbxu8C-EhCxfwVX54TAcl68prSepc_lGhQQdgQHJR-xkoyy0iZAGo5coXVKyg", "width": 1200}], "place_id": "ChIJkSa1aHNvZIgRrZrtzhY9eoA", "plus_code": {"compound_code": "37MC+PH Nashville, TN, USA", "global_code": "868M37MC+PH"}, "rating": 5, "reference": "ChIJkSa1aHNvZIgRrZrtzhY9eoA", "scope": "GOOGLE", "types": ["point_of_interest", "establishment"], "user_ratings_total": 1, "vicinity": "3989 Nolensville Pike, Nashville"}]}, {"mapped_location": "(36.1689319, -86.6836202)", "address": "2310 Lebanon Pike, Nashville", "results": [{"business_status": "OPERATIONAL", "geometry": {"location": {"lat": 36.16895, "lng": -86.683692}, "viewport": {"northeast": {"lat": 36.1703040302915, "lng": -86.68234396970848}, "southwest": {"lat": 36.1676060697085, "lng": -86.68504193029149}}}, "icon": "https://maps.gstatic.com/mapfiles/place_api/icons/v1/png_71/generic_business-71.png", "name": "Lebanon Pike & Fairview WB", "place_id": "ChIJ2yyTeAtpZIgRZHmJuOPr_kA", "plus_code": {"compound_code": "5898+HG Nashville, TN, USA", "global_code": "868M5898+HG"}, "reference": "ChIJ2yyTeAtpZIgRZHmJuOPr_kA", "scope": "GOOGLE", "types": ["transit_station", "point_of_interest", "establishment"], "vicinity": "United States"}, {"business_status": "OPERATIONAL", "geometry": {"location": {"lat": 36.168866, "lng": -86.683426}, "viewport": {"northeast": {"lat": 36.17022128029151, "lng": -86.6820249197085}, "southwest": {"lat": 36.16752331970851, "lng": -86.6847228802915}}}, "icon": "https://maps.gstatic.com/mapfiles/place_api/icons/v1/png_71/generic_business-71.png", "name": "Lebanon Pike & Fairway Dr EB", "place_id": "ChIJa9_6ewtpZIgRVm7EXEMQ18E", "plus_code": {"compound_code": "5898+GJ Nashville, TN, USA", "global_code": "868M5898+GJ"}, "reference": "ChIJa9_6ewtpZIgRVm7EXEMQ18E", "scope": "GOOGLE", "types": ["transit_station", "point_of_interest", "establishment"], "vicinity": "United States"}, {"business_status": "OPERATIONAL", "geometry": {"location": {"lat": 36.1690146, "lng": -86.68317780000001}, "viewport": {"northeast": {"lat": 36.17035268029149, "lng": -86.68182736970849}, "southwest": {"lat": 36.16765471970849, "lng": -86.6845253302915}}}, "icon": "https://maps.gstatic.com/mapfiles/place_api/icons/v1/png_71/generic_business-71.png", "name": "Donelson Smiles Dentistry", "opening_hours": {"open_now": true}, "place_id": "ChIJizSJ6tFpZIgRvyRo7_8zA84", "plus_code": {"compound_code": "5898+JP Nashville, TN, USA", "global_code": "868M5898+JP"}, "reference": "ChIJizSJ6tFpZIgRvyRo7_8zA84", "scope": "GOOGLE", "types": ["dentist", "doctor", "health", "point_of_interest", "establishment"], "vicinity": "2340 Lebanon Pike, Nashville"}, {"business_status": "OPERATIONAL", "geometry": {"location": {"lat": 36.1692973, "lng": -86.6831405}, "viewport": {"northeast": {"lat": 36.1706502802915, "lng": -86.68174101970848}, "southwest": {"lat": 36.1679523197085, "lng": -86.6844389802915}}}, "icon": "https://maps.gstatic.com/mapfiles/place_api/icons/v1/png_71/restaurant-71.png", "name": "Taco Bell", "opening_hours": {"open_now": true}, "photos": [{"height": 4048, "html_attributions": ["<a href=\"https://maps.google.com/maps/contrib/101034174775913449763\">Jeremy Crantek</a>"], "photo_reference": "CmRaAAAA--Wf6jnGvka5NBGBhJLxNJDy8LPQ-vHkNTTpnDlHtwxshT2ejZHBVWEyeZ3pf-UT3BrxfOfk6w9Qt8dGy0zRhQ4rAflAOndEkGTp7HcWeAjB7bBD_Lz5SPFfmmcogYHyEhBaMMhP0dqoHJ8Zf_LQjc-5GhRxf8V8yk2P47CtElX1c6XVt9OJ8g", "width": 3036}], "place_id": "ChIJ8egjZQtpZIgR6Te_IdzkCas", "plus_code": {"compound_code": "5898+PP Nashville, TN, USA", "global_code": "868M5898+PP"}, "price_level": 1, "rating": 4, "reference": "ChIJ8egjZQtpZIgR6Te_IdzkCas", "scope": "GOOGLE", "types": ["meal_takeaway", "restaurant", "food", "point_of_interest", "establishment"], "user_ratings_total": 462, "vicinity": "2384 Lebanon Pike, Nashville"}, {"business_status": "OPERATIONAL", "geometry": {"location": {"lat": 36.16934039999999, "lng": -86.6841402}, "viewport": {"northeast": {"lat": 36.1706057802915, "lng": -86.68277136970849}, "southwest": {"lat": 36.1679078197085, "lng": -86.68546933029151}}}, "icon": "https://maps.gstatic.com/mapfiles/place_api/icons/v1/png_71/restaurant-71.png", "name": "Burger King", "opening_hours": {"open_now": true}, "photos": [{"height": 3024, "html_attributions": ["<a href=\"https://maps.google.com/maps/contrib/108249300307992971903\">Vladimir Timcak</a>"], "photo_reference": "CmRaAAAAE5tcxF1SHCytZD56D2t7Q17lzUOzxfL6tyyp4TxQBchoLXH2gYjxErZmmHZ2qHoI0fYcvWSZ2b0zmCyY3AnbV5h6NlTgLg04SUz5XSMIylHewjGByjERd5R8m3AB0irOEhCeWtv72lFxDNVw25gGuF6kGhR2EqYKYGqWUVohmBl4nWn7CoK90g", "width": 4032}], "place_id": "ChIJC-hZhAtpZIgRGsydQ4j4a7A", "plus_code": {"compound_code": "5898+P8 Nashville, TN, USA", "global_code": "868M5898+P8"}, "price_level": 1, "rating": 3.4, "reference": "ChIJC-hZhAtpZIgRGsydQ4j4a7A", "scope": "GOOGLE", "types": ["restaurant", "food", "point_of_interest", "establishment"], "user_ratings_total": 373, "vicinity": "2388 Lebanon Pike, Nashville"}]}, {"mapped_location": "(36.08167, -86.71364)", "address": "100 Tanglewood Ct, Nashville", "results": [{"business_status": "OPERATIONAL", "geometry": {"location": {"lat": 36.0818995, "lng": -86.7137396}, "viewport": {"northeast": {"lat": 36.0832439802915, "lng": -86.71241051970848}, "southwest": {"lat": 36.0805460197085, "lng": -86.7151084802915}}}, "icon": "https://maps.gstatic.com/mapfiles/place_api/icons/v1/png_71/generic_business-71.png", "name": "Kavie beats", "opening_hours": {"open_now": true}, "place_id": "ChIJU5WzcE9vZIgRm1KOXDetRdw", "plus_code": {"compound_code": "37JP+QG Nashville, TN, USA", "global_code": "868M37JP+QG"}, "reference": "ChIJU5WzcE9vZIgRm1KOXDetRdw", "scope": "GOOGLE", "types": ["point_of_interest", "establishment"], "vicinity": "255 Tanglewood Court, Nashville"}, {"business_status": "OPERATIONAL", "geometry": {"location": {"lat": 36.0819863, "lng": -86.71377009999999}, "viewport": {"northeast": {"lat": 36.0833306802915, "lng": -86.71244101970849}, "southwest": {"lat": 36.0806327197085, "lng": -86.7151389802915}}}, "icon": "https://maps.gstatic.com/mapfiles/place_api/icons/v1/png_71/generic_business-71.png", "name": "Patty's Photo Shop", "photos": [{"height": 1080, "html_attributions": ["<a href=\"https://maps.google.com/maps/contrib/111685241701577454524\">Patty&#39;s Photo Shop</a>"], "photo_reference": "CmRaAAAAytcGq_FQOTtd2PFXgKpaZZM0-0zHEdyr-IvmZwbBN0nOj6lbMJFQMJBEKScY0JeLKcQz6J2-UApzmlKjAQfKZZ4aUW-xWARsHvuQqx4-z0euarQA1k-exDsujFs5OnFfEhCMLWyn-qurU7FzCB7RumjUGhTlOiyfTX_8ai_INkGIMTydGBd5xA", "width": 1080}], "place_id": "ChIJCS2eQb5vZIgRufKasYHNvNk", "plus_code": {"compound_code": "37JP+QF Nashville, TN, USA", "global_code": "868M37JP+QF"}, "reference": "ChIJCS2eQb5vZIgRufKasYHNvNk", "scope": "GOOGLE", "types": ["point_of_interest", "establishment"], "vicinity": "313 Tanglewood Court, Nashville"}, {"business_status": "OPERATIONAL", "geometry": {"location": {"lat": 36.08163299999999, "lng": -86.714151}, "viewport": {"northeast": {"lat": 36.08292553029149, "lng": -86.7127741697085}, "southwest": {"lat": 36.08022756970849, "lng": -86.7154721302915}}}, "icon": "https://maps.gstatic.com/mapfiles/place_api/icons/v1/png_71/generic_business-71.png", "name": "Harding Pl & Tanglewood CT WB", "place_id": "ChIJ_ZubM6RvZIgR98tZ3bd3C5o", "plus_code": {"compound_code": "37JP+M8 Nashville, TN, USA", "global_code": "868M37JP+M8"}, "rating": 5, "reference": "ChIJ_ZubM6RvZIgR98tZ3bd3C5o", "scope": "GOOGLE", "types": ["transit_station", "point_of_interest", "establishment"], "user_ratings_total": 2, "vicinity": "United States"}, {"business_status": "OPERATIONAL", "geometry": {"location": {"lat": 36.08209099999999, "lng": -86.713807}, "viewport": {"northeast": {"lat": 36.08343543029149, "lng": -86.7124778197085}, "southwest": {"lat": 36.0807374697085, "lng": -86.7151757802915}}}, "icon": "https://maps.gstatic.com/mapfiles/place_api/icons/v1/png_71/generic_business-71.png", "name": "RLA Concepts", "opening_hours": {"open_now": true}, "photos": [{"height": 573, "html_attributions": ["<a href=\"https://maps.google.com/maps/contrib/114440992380667729160\">RLA Concepts</a>"], "photo_reference": "CmRaAAAAUUsLk1jCBC4zBQwlGFENHjRNq3zqhkrDm1yUD2hLdFXsciq6sVPm9NaipwU3u0WGaZzsdaHvdVjaZD5xnJk2pMW2oLlMfbkieA0nPgld9ApcjlcvykfrNxoMHyplijBXEhA3XlhUkyKPASBthaC5bUErGhRJuwU7YKLfjdRsLCc-mnzg0Mbw_A", "width": 733}], "place_id": "ChIJme0g8a5GZIgRlkEOrQW8uHA", "plus_code": {"compound_code": "37JP+RF Nashville, TN, USA", "global_code": "868M37JP+RF"}, "reference": "ChIJme0g8a5GZIgRlkEOrQW8uHA", "scope": "GOOGLE", "types": ["finance", "point_of_interest", "establishment"], "vicinity": "383 Tanglewood Court, Nashville"}, {"business_status": "OPERATIONAL", "geometry": {"location": {"lat": 36.0820652, "lng": -86.71427779999999}, "viewport": {"northeast": {"lat": 36.08339138029149, "lng": -86.71306291970849}, "southwest": {"lat": 36.0806934197085, "lng": -86.7157608802915}}}, "icon": "https://maps.gstatic.com/mapfiles/place_api/icons/v1/png_71/generic_business-71.png", "name": "Kashgang Richfield", "photos": [{"height": 646, "html_attributions": ["<a href=\"https://maps.google.com/maps/contrib/104192864712715950481\">Kash Ques</a>"], "photo_reference": "CmRaAAAAPbb6RCtsAJ-Evx4qln2w8y0y-Y2lr7MrOeQMYbftiPd6OR3k7X5Ki1P8ZPYgi2ZABCMsOHcuaauhduJ3FY4VkkOWN_xW5hElH_WrY1GWxhc32Fj2eJPnkL86b3DOPHLXEhBrdp6En50iiLylglNZ1aSXGhSrXrpj8s8-0T7V86dE2zJOPGbuTQ", "width": 855}], "place_id": "ChIJd9G-jktiZIgRW7W53P4oIc8", "plus_code": {"compound_code": "37JP+R7 Nashville, TN, USA", "global_code": "868M37JP+R7"}, "rating": 5, "reference": "ChIJd9G-jktiZIgRW7W53P4oIc8", "scope": "GOOGLE", "types": ["point_of_interest", "establishment"], "user_ratings_total": 2, "vicinity": "647 Whispering Oaks Place, Nashville"}]}, {"mapped_location": "(36.04089351155503, -86.74506589999999)", "address": "410A Old Hickory Blvd, Brentwood", "results": [{"business_status": "OPERATIONAL", "geometry": {"location": {"lat": 36.04092, "lng": -86.7450345}, "viewport": {"northeast": {"lat": 36.0422595802915, "lng": -86.7437568197085}, "southwest": {"lat": 36.0395616197085, "lng": -86.7464547802915}}}, "icon": "https://maps.gstatic.com/mapfiles/place_api/icons/v1/png_71/restaurant-71.png", "name": "McDonald's", "opening_hours": {"open_now": true}, "photos": [{"height": 1080, "html_attributions": ["<a href=\"https://maps.google.com/maps/contrib/109817583078737572719\">Motorsports Aerial</a>"], "photo_reference": "CmRaAAAAbwvIr8MXe6SczMW-0l1Jhp-jnJdVXdLexYc_3NmU8imj4vHESVhnFDf-bfdZ2RMygZiKvOZ6Jx9feI2B3WE14m3kihfKmPobG47rjd7K8ZKtjiSA3lXYHiPL1VT06wtEEhCzLy_SPXISxc-ZdPlZ6kw1GhSxoLl8tEpWGIOKes5LGkLNqLgb7Q", "width": 1920}], "place_id": "ChIJ-w9D1Kt6ZIgRF4ah0UWWB4Y", "plus_code": {"compound_code": "27R3+9X Brentwood, TN, USA", "global_code": "868M27R3+9X"}, "price_level": 1, "rating": 3.3, "reference": "ChIJ-w9D1Kt6ZIgRF4ah0UWWB4Y", "scope": "GOOGLE", "types": ["cafe", "restaurant", "food", "point_of_interest", "store", "establishment"], "user_ratings_total": 465, "vicinity": "410 Old Hickory Boulevard, Brentwood"}, {"business_status": "OPERATIONAL", "geometry": {"location": {"lat": 36.04094619999999, "lng": -86.7450554}, "viewport": {"northeast": {"lat": 36.0422867802915, "lng": -86.74377011970849}, "southwest": {"lat": 36.0395888197085, "lng": -86.7464680802915}}}, "icon": "https://maps.gstatic.com/mapfiles/place_api/icons/v1/png_71/shopping-71.png", "name": "Tri Star Energy", "photos": [{"height": 4032, "html_attributions": ["<a href=\"https://maps.google.com/maps/contrib/116907509840691730487\">Jessica Suchter</a>"], "photo_reference": "CmRaAAAAlgKOIUCoYljX3ka0WtcxZcczLXKbTrCv_gnLllv4qI2kPX4vvFX_P-hyJccnXDKEz3CUI2Tbw7NTaQOt4qk_fpO8BXvQsLuvEQtVhRaUhPWNX0M-VfvCLnB5Yp_RXfcEEhCdgNtm-gzxGJGvXapErk8aGhSL4bIMF9gGODWzsj1XZPIhXYXobQ", "width": 3024}], "place_id": "ChIJAQCwxqt6ZIgRi6NSsg0oq2c", "plus_code": {"compound_code": "27R3+9X Brentwood, TN, USA", "global_code": "868M27R3+9X"}, "rating": 1, "reference": "ChIJAQCwxqt6ZIgRi6NSsg0oq2c", "scope": "GOOGLE", "types": ["convenience_store", "food", "point_of_interest", "store", "establishment"], "user_ratings_total": 2, "vicinity": "410-B Old Hickory Boulevard, Brentwood"}, {"business_status": "OPERATIONAL", "geometry": {"location": {"lat": 36.0407519, "lng": -86.74501939999999}, "viewport": {"northeast": {"lat": 36.0420636802915, "lng": -86.74366181970849}, "southwest": {"lat": 36.0393657197085, "lng": -86.7463597802915}}}, "icon": "https://maps.gstatic.com/mapfiles/place_api/icons/v1/png_71/atm-71.png", "name": "ATM (Daily's)", "opening_hours": {"open_now": true}, "photos": [{"height": 1180, "html_attributions": ["<a href=\"https://maps.google.com/maps/contrib/107643110199528850763\">Jody May</a>"], "photo_reference": "CmRaAAAAl7PAFh7RvdDOPgEFR7T40XTNyxfacS71I5B5jFDGDSZSIzVlXKlGsm63SmxPQdud2aF01mc2J08YBTp9T88wn8ItuOOcEXbXd-C4ARd8gh1EaLrB-dMexh_8KqStfFD6EhDE-YIy1vq28TfPyg-yN9gaGhQoL7p7U5rWZUMZlqp3nQO7B6_56w", "width": 1467}], "place_id": "ChIJKa0eFap6ZIgRJzVrnvbIoPY", "plus_code": {"compound_code": "27R3+8X Brentwood, TN, USA", "global_code": "868M27R3+8X"}, "reference": "ChIJKa0eFap6ZIgRJzVrnvbIoPY", "scope": "GOOGLE", "types": ["atm", "finance", "point_of_interest", "establishment"], "vicinity": "410 Old Hickory Boulevard # B, Brentwood"}, {"business_status": "OPERATIONAL", "geometry": {"location": {"lat": 36.0408994, "lng": -86.74486759999999}, "viewport": {"northeast": {"lat": 36.0422481302915, "lng": -86.7434759197085}, "southwest": {"lat": 36.0395501697085, "lng": -86.74617388029151}}}, "icon": "https://maps.gstatic.com/mapfiles/place_api/icons/v1/png_71/generic_business-71.png", "name": "Gigi Butler", "place_id": "ChIJsdU1oKFjZIgRdoBVwIyWK5U", "plus_code": {"compound_code": "27R4+93 Nashville, TN, USA", "global_code": "868M27R4+93"}, "reference": "ChIJsdU1oKFjZIgRdoBVwIyWK5U", "scope": "GOOGLE", "types": ["point_of_interest", "establishment"], "vicinity": "5543 Edmondson Pike, Nashville"}, {"business_status": "OPERATIONAL", "geometry": {"location": {"lat": 36.0407308, "lng": -86.74493749999999}, "viewport": {"northeast": {"lat": 36.0420686302915, "lng": -86.7435859697085}, "southwest": {"lat": 36.0393706697085, "lng": -86.74628393029151}}}, "icon": "https://maps.gstatic.com/mapfiles/place_api/icons/v1/png_71/atm-71.png", "name": "ATM", "opening_hours": {"open_now": true}, "photos": [{"height": 3024, "html_attributions": ["<a href=\"https://maps.google.com/maps/contrib/107643110199528850763\">Jody May</a>"], "photo_reference": "CmRaAAAAZqx3010qmGYNF6eJS--RttVbxKGwC3vXDxFKre_zcRVTx1m259Z2DzFv5z44fB-ElsWraBUXPl8htX6zdxEcdoT-VRab8GbylYB4RiLj3OH_M7JB45FxZwjuTD4PVrZXEhAwpxr5fwUnLHa4OE1iIq-2GhSJEFW64sJDgPXpqhsjPjKFuCPMoA", "width": 4032}], "place_id": "ChIJQ54N3Kt6ZIgR37NkCsE3hls", "plus_code": {"compound_code": "27R4+72 Brentwood, TN, USA", "global_code": "868M27R4+72"}, "rating": 5, "reference": "ChIJQ54N3Kt6ZIgR37NkCsE3hls", "scope": "GOOGLE", "types": ["atm", "finance", "point_of_interest", "establishment"], "user_ratings_total": 1, "vicinity": "410b Old Hickory Boulevard, Brentwood"}]}, {"mapped_location": "(36.26460101165015, -86.71187005000002)", "address": "331 Gallatin Pike N, Madison", "results": [{"business_status": "OPERATIONAL", "geometry": {"location": {"lat": 36.2646114, "lng": -86.7118692}, "viewport": {"northeast": {"lat": 36.2659358302915, "lng": -86.71041936970849}, "southwest": {"lat": 36.2632378697085, "lng": -86.71311733029151}}}, "icon": "https://maps.gstatic.com/mapfiles/place_api/icons/v1/png_71/restaurant-71.png", "name": "Burger King", "opening_hours": {"open_now": true}, "photos": [{"height": 800, "html_attributions": ["<a href=\"https://maps.google.com/maps/contrib/108473907550009702856\">Burger King</a>"], "photo_reference": "CmRaAAAAo7vIWJQAFMncl2wDAkENrVMMKCZqG4hzIy-QN1U5zU3KMvHaTs8GIOuxS4sdLCFfwdttso_ktrOApUoaIOXEqGBXjPk9GGcEnX8E_hwSbAuPw3JApQaISq2Tncep49a4EhDxIkP2uSfmBlKEoqa3dUtMGhTMewBKaNiZAkqaQ8amcVi3HuGQzQ", "width": 1400}], "place_id": "ChIJ-ZSy3eJCZIgRidQc_QkdM7A", "plus_code": {"compound_code": "777Q+R7 Nashville, TN, USA", "global_code": "868M777Q+R7"}, "price_level": 1, "rating": 3.4, "reference": "ChIJ-ZSy3eJCZIgRidQc_QkdM7A", "scope": "GOOGLE", "types": ["restaurant", "food", "point_of_interest", "establishment"], "user_ratings_total": 499, "vicinity": "331 North Gallatin Pk, Madison"}, {"business_status": "OPERATIONAL", "geometry": {"location": {"lat": 36.2646214, "lng": -86.7118673}, "viewport": {"northeast": {"lat": 36.2659917302915, "lng": -86.7105812197085}, "southwest": {"lat": 36.2632937697085, "lng": -86.71327918029151}}}, "icon": "https://maps.gstatic.com/mapfiles/place_api/icons/v1/png_71/generic_business-71.png", "name": "Snatch'd By Kesha", "opening_hours": {"open_now": true}, "place_id": "ChIJAw-K-09DZIgRqGvlxjXsF0U", "plus_code": {"compound_code": "777Q+R7 Nashville, TN, USA", "global_code": "868M777Q+R7"}, "reference": "ChIJAw-K-09DZIgRqGvlxjXsF0U", "scope": "GOOGLE", "types": ["beauty_salon", "hair_care", "point_of_interest", "establishment"], "vicinity": "331 Gallatin Pike North, Nashville"}, {"business_status": "OPERATIONAL", "geometry": {"location": {"lat": 36.2647549, "lng": -86.7121031}, "viewport": {"northeast": {"lat": 36.2660811802915, "lng": -86.71068726970849}, "southwest": {"lat": 36.2633832197085, "lng": -86.7133852302915}}}, "icon": "https://maps.gstatic.com/mapfiles/place_api/icons/v1/png_71/restaurant-71.png", "name": "Chine Bell Restaurant Madison TN", "opening_hours": {"open_now": true}, "photos": [{"height": 900, "html_attributions": ["<a href=\"https://maps.google.com/maps/contrib/113966230246355757046\">Chine Bell Restaurant Madison TN</a>"], "photo_reference": "CmRaAAAAOHKRrSzXvQD4z1PbzmHd29dsovyNJsRkn_Q8Kx70H1a-dC9kXEocVha-X1ACY4R3PbzK2udFyJm6dM34_3TyXrkBbK1wJU0qydI2W5R_BFGJObGDZpnkjmh-iU4DVoPuEhAufL9kJ-9OmEQbkgXuRebIGhR_FNlnAunDfjiZTva4YlEjX3Cw7g", "width": 1600}], "place_id": "ChIJeWhw4b1DZIgRqh0sVWhuYSw", "plus_code": {"compound_code": "777Q+W5 Nashville, TN, USA", "global_code": "868M777Q+W5"}, "rating": 3.6, "reference": "ChIJeWhw4b1DZIgRqh0sVWhuYSw", "scope": "GOOGLE", "types": ["restaurant", "food", "point_of_interest", "establishment"], "user_ratings_total": 57, "vicinity": "143 Gallatin Pike North, Madison"}, {"business_status": "OPERATIONAL", "geometry": {"location": {"lat": 36.264437, "lng": -86.7115}, "viewport": {"northeast": {"lat": 36.26577668029149, "lng": -86.7101113697085}, "southwest": {"lat": 36.2630787197085, "lng": -86.7128093302915}}}, "icon": "https://maps.gstatic.com/mapfiles/place_api/icons/v1/png_71/generic_business-71.png", "name": "N Gallatin Pike & Old Hickory Blvd", "place_id": "ChIJTcel1BxDZIgR1ROlNmp229k", "plus_code": {"compound_code": "777Q+Q9 Nashville, TN, USA", "global_code": "868M777Q+Q9"}, "reference": "ChIJTcel1BxDZIgR1ROlNmp229k", "scope": "GOOGLE", "types": ["transit_station", "point_of_interest", "establishment"], "vicinity": "United States"}, {"business_status": "OPERATIONAL", "geometry": {"location": {"lat": 36.2649351, "lng": -86.71172969999999}, "viewport": {"northeast": {"lat": 36.26622273029149, "lng": -86.71041716970849}, "southwest": {"lat": 36.2635247697085, "lng": -86.7131151302915}}}, "icon": "https://maps.gstatic.com/mapfiles/place_api/icons/v1/png_71/generic_business-71.png", "name": "Joe M. Pritchard, LPC", "place_id": "ChIJ3WpVLQNDZIgRrPlZt9iRZE8", "plus_code": {"compound_code": "777Q+X8 Nashville, TN, USA", "global_code": "868M777Q+X8"}, "reference": "ChIJ3WpVLQNDZIgRrPlZt9iRZE8", "scope": "GOOGLE", "types": ["health", "point_of_interest", "establishment"], "vicinity": "333 Gallatin Pike South Suite 14, Madison, TN 37115, Madison"}]}, {"mapped_location": "(36.09572923042338, -86.74020505952453)", "address": "422 Allied Dr, Nashville", "results": [{"business_status": "OPERATIONAL", "geometry": {"location": {"lat": 36.0951394, "lng": -86.74045249999999}, "viewport": {"northeast": {"lat": 36.09671463029149, "lng": -86.7390695197085}, "southwest": {"lat": 36.0940166697085, "lng": -86.7417674802915}}}, "icon": "https://maps.gstatic.com/mapfiles/place_api/icons/v1/png_71/generic_business-71.png", "name": "La Hacienda Tortilleria", "opening_hours": {"open_now": true}, "photos": [{"height": 2322, "html_attributions": ["<a href=\"https://maps.google.com/maps/contrib/100489617678854798124\">Tuntun Rara</a>"], "photo_reference": "CmRaAAAA_3BUTB-ukNJrTEFxWqQZHY1ahK-rO6_Xp9Q1ad3v1oTbz-3cNPccEtKM2qSTzSDP5st6V-AZateOmgf3fGBAbg_WCyDQYmmxfG5euAwDhHYdnkXmD383QL1mRnMsGprPEhB928dJXHEODkYvNEZqiPzbGhSQGt-TSMm29CbnWrYXg_Xnrd_gVg", "width": 4128}], "place_id": "ChIJbWpE1vNlZIgRb3f_eB9glLk", "plus_code": {"compound_code": "37W5+3R Nashville, TN, USA", "global_code": "868M37W5+3R"}, "rating": 4.2, "reference": "ChIJbWpE1vNlZIgRb3f_eB9glLk", "scope": "GOOGLE", "types": ["grocery_or_supermarket", "restaurant", "food", "point_of_interest", "store", "establishment"], "user_ratings_total": 9, "vicinity": "431 Allied Drive, Nashville"}, {"business_status": "OPERATIONAL", "geometry": {"location": {"lat": 36.0963431, "lng": -86.74052979999999}, "viewport": {"northeast": {"lat": 36.0976855302915, "lng": -86.73911456970849}, "southwest": {"lat": 36.09498756970851, "lng": -86.7418125302915}}}, "icon": "https://maps.gstatic.com/mapfiles/place_api/icons/v1/png_71/school-71.png", "name": "Genesis Learning Center", "place_id": "ChIJa-EQln1vZIgRBI9_yDnp9Xc", "plus_code": {"compound_code": "37W5+GQ Nashville, TN, USA", "global_code": "868M37W5+GQ"}, "rating": 3.7, "reference": "ChIJa-EQln1vZIgRBI9_yDnp9Xc", "scope": "GOOGLE", "types": ["school", "point_of_interest", "establishment"], "user_ratings_total": 3, "vicinity": "430 Allied Drive, Nashville"}, {"business_status": "OPERATIONAL", "geometry": {"location": {"lat": 36.0952645, "lng": -86.74087449999999}, "viewport": {"northeast": {"lat": 36.0967984802915, "lng": -86.7394977197085}, "southwest": {"lat": 36.0941005197085, "lng": -86.7421956802915}}}, "icon": "https://maps.gstatic.com/mapfiles/place_api/icons/v1/png_71/generic_business-71.png", "name": "PODS Moving & Storage", "opening_hours": {"open_now": true}, "photos": [{"height": 820, "html_attributions": ["<a href=\"https://maps.google.com/maps/contrib/102779376751728979375\">PODS Moving &amp; Storage</a>"], "photo_reference": "CmRZAAAAWALEnM4pABVtf0EZmbOTJldnkPT0Mp-F_hnRtPUctysRcxM0ze8rveHF1TFEn6ra6jt7R2EtbzCeuCutTNhyO1F1cy9-a1YI8XHSaYXOw2VjClOiz971bEt3yLrAHiOxEhBL1g5rh6vcKesVpz8RIqicGhQV1X0kUyTtXeE--hH_EI77EYY-kA", "width": 1388}], "place_id": "ChIJndVLS3xvZIgRgxZwYliGV7I", "plus_code": {"compound_code": "37W5+4M Nashville, TN, USA", "global_code": "868M37W5+4M"}, "rating": 3.5, "reference": "ChIJndVLS3xvZIgRgxZwYliGV7I", "scope": "GOOGLE", "types": ["moving_company", "storage", "point_of_interest", "establishment"], "user_ratings_total": 44, "vicinity": "433 Allied Drive, Nashville"}, {"business_status": "OPERATIONAL", "geometry": {"location": {"lat": 36.09630920000001, "lng": -86.7393226}, "viewport": {"northeast": {"lat": 36.0974526302915, "lng": -86.73799136970848}, "southwest": {"lat": 36.09475466970851, "lng": -86.74068933029149}}}, "icon": "https://maps.gstatic.com/mapfiles/place_api/icons/v1/png_71/generic_business-71.png", "name": "Disaster Relief Churches Inc", "photos": [{"height": 4032, "html_attributions": ["<a href=\"https://maps.google.com/maps/contrib/116556295783750765572\">Krystal Ankers</a>"], "photo_reference": "CmRaAAAAYml8cgzSTfc9fZ47rRYRF1IoGSNyTl8bCM5Eo7he7WnLN1oHafPt-G9ibWkL5rHe3AZJw1AwizJL8G6B4tzsCC3uiOdmKmWWO4JxF1BOoZfzaPKL4NR3wpch5kXfGREOEhD7-8vt3EYm1LNIZ0nqq1BKGhRFHvB5uG7jVFyz_3q5Z2mORKUSTw", "width": 3024}], "place_id": "ChIJ0_BZsX1vZIgR5eC0YRuobAs", "plus_code": {"compound_code": "37W6+G7 Nashville, TN, USA", "global_code": "868M37W6+G7"}, "rating": 5, "reference": "ChIJ0_BZsX1vZIgR5eC0YRuobAs", "scope": "GOOGLE", "types": ["point_of_interest", "establishment"], "user_ratings_total": 19, "vicinity": "410 Allied Drive, Nashville"}, {"business_status": "OPERATIONAL", "geometry": {"location": {"lat": 36.0950471, "lng": -86.7392235}, "viewport": {"northeast": {"lat": 36.0966084302915, "lng": -86.73784256970849}, "southwest": {"lat": 36.0939104697085, "lng": -86.7405405302915}}}, "icon": "https://maps.gstatic.com/mapfiles/place_api/icons/v1/png_71/generic_business-71.png", "name": "Diesel Performance Parts Inc", "place_id": "ChIJuwYrNHxvZIgRAzDBkOCUTJc", "plus_code": {"compound_code": "37W6+28 Nashville, TN, USA", "global_code": "868M37W6+28"}, "rating": 4.4, "reference": "ChIJuwYrNHxvZIgRAzDBkOCUTJc", "scope": "GOOGLE", "types": ["car_repair", "point_of_interest", "store", "establishment"], "user_ratings_total": 7, "vicinity": "411 Allied Drive, Nashville"}]}, {"mapped_location": "(36.13696716159582, -86.77855659325408)", "address": "1700 TN-6, Nashville", "results": [{"business_status": "OPERATIONAL", "geometry": {"location": {"lat": 36.1369047, "lng": -86.7785505}, "viewport": {"northeast": {"lat": 36.13826418029149, "lng": -86.77733201970848}, "southwest": {"lat": 36.13556621970849, "lng": -86.78002998029149}}}, "icon": "https://maps.gstatic.com/mapfiles/place_api/icons/v1/png_71/generic_business-71.png", "name": "Enterprise Rent-A-Car", "opening_hours": {"open_now": true}, "photos": [{"height": 720, "html_attributions": ["<a href=\"https://maps.google.com/maps/contrib/100081518343979951220\">Enterprise Rent-A-Car</a>"], "photo_reference": "CmRaAAAAduIRrLYOqLN1ZAlfl4FR5rwkKqINHvUXOkrIghVnu-gocSLw7j_KmfABjlkTqr9JsUT8VDUIbbCrriGQLld6zP1hUuFRyVnUU7gyJtlSbb0O12rPU_E6YKiQ1JVc6scVEhCoO4rgvmV5gwpPIGPUnS56GhQUfYahEvhvrv2sc9IV3Nmh6tpmMw", "width": 720}], "place_id": "ChIJfxz1TWdmZIgRzQ1a5qyIjik", "plus_code": {"compound_code": "46PC+QH Nashville, TN, USA", "global_code": "868M46PC+QH"}, "rating": 4.2, "reference": "ChIJfxz1TWdmZIgRzQ1a5qyIjik", "scope": "GOOGLE", "types": ["car_rental", "point_of_interest", "establishment"], "user_ratings_total": 247, "vicinity": "1700 8th Avenue South, Nashville"}, {"business_status": "OPERATIONAL", "geometry": {"location": {"lat": 36.1370504, "lng": -86.778486}, "viewport": {"northeast": {"lat": 36.1384117802915, "lng": -86.77729051970849}, "southwest": {"lat": 36.1357138197085, "lng": -86.77998848029151}}}, "icon": "https://maps.gstatic.com/mapfiles/place_api/icons/v1/png_71/generic_business-71.png", "name": "The Basement", "photos": [{"height": 1366, "html_attributions": ["<a href=\"https://maps.google.com/maps/contrib/107097104128446167956\">The Basement</a>"], "photo_reference": "CmRaAAAAiUHDC1YUAVphc3GTa3eZ_LyUAPzcM9tFEaEb3hzxfF6usQjIn70y_YPRKpsk0l-2TGNgyZ9SnGO6A17LF8sgE9NocMIXUh4YRm13X_UUZQr076vUZo3M9DnpQKMTXvOXEhA71EmpQWRlV-arEQWdix6yGhQyj04o_87J1K8o5pbTKeTzXoqTRg", "width": 2048}], "place_id": "ChIJHwKJ7H5mZIgR1FGM6ZebrwM", "plus_code": {"compound_code": "46PC+RJ Nashville, TN, USA", "global_code": "868M46PC+RJ"}, "rating": 4.6, "reference": "ChIJHwKJ7H5mZIgR1FGM6ZebrwM", "scope": "GOOGLE", "types": ["night_club", "point_of_interest", "establishment"], "user_ratings_total": 300, "vicinity": "1604 8th Avenue South #330, Nashville"}, {"business_status": "OPERATIONAL", "geometry": {"location": {"lat": 36.1370612, "lng": -86.7784958}, "viewport": {"northeast": {"lat": 36.1384221302915, "lng": -86.77729481970849}, "southwest": {"lat": 36.1357241697085, "lng": -86.7799927802915}}}, "icon": "https://maps.gstatic.com/mapfiles/place_api/icons/v1/png_71/generic_business-71.png", "name": "Venture Music", "opening_hours": {"open_now": true}, "photos": [{"height": 2146, "html_attributions": ["<a href=\"https://maps.google.com/maps/contrib/105252258604456028938\">Venture Music</a>"], "photo_reference": "CmRaAAAAZGO0IIpcLap-Ot4EfhIm8NaWqdTA48R21Q3dnvCj9M_kKw4hPKdPK9-GxMNBrbwIbEd1Vc9PyZjyShX77-1S58WSowE9X3fSMJrLvHDZASutITF0OSEpwbjgGG2fHSxeEhBeU-48iCO0Q6aLSBpTIFTxGhTeDAzQ2xSHnERQ_TRe9s0sY5aZzw", "width": 3219}], "place_id": "ChIJq6ru7H5mZIgR_9kCgWt0hHM", "plus_code": {"compound_code": "46PC+RJ Nashville, TN, USA", "global_code": "868M46PC+RJ"}, "reference": "ChIJq6ru7H5mZIgR_9kCgWt0hHM", "scope": "GOOGLE", "types": ["point_of_interest", "establishment"], "vicinity": "1604 8th Avenue South, Nashville"}, {"business_status": "OPERATIONAL", "geometry": {"location": {"lat": 36.1370642, "lng": -86.77847969999999}, "viewport": {"northeast": {"lat": 36.1384257302915, "lng": -86.77728646970849}, "southwest": {"lat": 36.1357277697085, "lng": -86.7799844302915}}}, "icon": "https://maps.gstatic.com/mapfiles/place_api/icons/v1/png_71/school-71.png", "name": "360 Music Business Institute", "place_id": "ChIJe0Tr7H5mZIgRVSDeS7misYA", "plus_code": {"compound_code": "46PC+RJ Nashville, TN, USA", "global_code": "868M46PC+RJ"}, "reference": "ChIJe0Tr7H5mZIgRVSDeS7misYA", "scope": "GOOGLE", "types": ["point_of_interest", "establishment"], "vicinity": "1604 8th Avenue South, Nashville"}, {"business_status": "OPERATIONAL", "geometry": {"location": {"lat": 36.1370642, "lng": -86.77847969999999}, "viewport": {"northeast": {"lat": 36.1384257302915, "lng": -86.77728646970849}, "southwest": {"lat": 36.1357277697085, "lng": -86.7799844302915}}}, "icon": "https://maps.gstatic.com/mapfiles/place_api/icons/v1/png_71/generic_business-71.png", "name": "Comrlellus & Cllns Law Firm", "place_id": "ChIJHwKJ7H5mZIgRLlv9Z3fwZFY", "plus_code": {"compound_code": "46PC+RJ Nashville, TN, USA", "global_code": "868M46PC+RJ"}, "reference": "ChIJHwKJ7H5mZIgRLlv9Z3fwZFY", "scope": "GOOGLE", "types": ["lawyer", "point_of_interest", "establishment"], "vicinity": "1604 8th Avenue South, Nashville"}]}, {"mapped_location": "(36.181649077279744, -86.78475551674342)", "address": "81 Van Buren St, Nashville", "results": [{"business_status": "OPERATIONAL", "geometry": {"location": {"lat": 36.1817708, "lng": -86.78498019999999}, "viewport": {"northeast": {"lat": 36.1831885302915, "lng": -86.7834784197085}, "southwest": {"lat": 36.1804905697085, "lng": -86.78617638029151}}}, "icon": "https://maps.gstatic.com/mapfiles/place_api/icons/v1/png_71/restaurant-71.png", "name": "O-Ku Sushi Nashville", "opening_hours": {"open_now": false}, "photos": [{"height": 4752, "html_attributions": ["<a href=\"https://maps.google.com/maps/contrib/103316779881714227428\">O-Ku Sushi Nashville</a>"], "photo_reference": "CmRaAAAAIn0IReIIszjEnOcaJ9riTXseew_5q7S96Z1xkcqclYdy-CRvfIJHKYRopBjNMUSxbCyAGmNaHfVCv9gYksDUK4alTblYW7ZKcgPXLgYnzOzrWH6ITNCMNM7iqzPnQzUDEhCt6wJDcLomP-v35ZaNm9S9GhSDsaE7SJxBeMYtWisD-kTbkqvl9w", "width": 7128}], "place_id": "ChIJ33u-OSFnZIgRm_95cz9VEAs", "plus_code": {"compound_code": "56J8+P2 Nashville, TN, USA", "global_code": "868M56J8+P2"}, "rating": 4.5, "reference": "ChIJ33u-OSFnZIgRm_95cz9VEAs", "scope": "GOOGLE", "types": ["restaurant", "food", "point_of_interest", "establishment"], "user_ratings_total": 209, "vicinity": "81 Van Buren Street, Adams Street, Nashville"}, {"business_status": "OPERATIONAL", "geometry": {"location": {"lat": 36.1817433, "lng": -86.78506639999999}, "viewport": {"northeast": {"lat": 36.18318818029149, "lng": -86.78378041970849}, "southwest": {"lat": 36.1804902197085, "lng": -86.78647838029151}}}, "icon": "https://maps.gstatic.com/mapfiles/place_api/icons/v1/png_71/cafe-71.png", "name": "Yin Yang Tea", "opening_hours": {"open_now": true}, "photos": [{"height": 2791, "html_attributions": ["<a href=\"https://maps.google.com/maps/contrib/110466201170027550843\">Yin Yang Tea</a>"], "photo_reference": "CmRaAAAATUCqWqlfru_c5o8c0JG-H4sSfh_nwKG-VyQRUWejMeNYlivOCx6HaS2gYlX4lT_fDfl_bTMzUtAfVlh8I3wL_WjUujjT0IUFk59lxZfubMHdzDET8_1-8KIpQUxaU9KJEhC0n7Oc6CzoTLs1l0xQxM6IGhSI9Cv6MAYmQJ5KruSUFfAHMmZtvQ", "width": 2791}], "place_id": "ChIJD1Yuw9xnZIgRFGZxFxBbVmI", "plus_code": {"compound_code": "56J7+MX Nashville, TN, USA", "global_code": "868M56J7+MX"}, "rating": 4.7, "reference": "ChIJD1Yuw9xnZIgRFGZxFxBbVmI", "scope": "GOOGLE", "types": ["cafe", "food", "point_of_interest", "establishment"], "user_ratings_total": 33, "vicinity": "83 Van Buren Street, Nashville"}, {"business_status": "OPERATIONAL", "geometry": {"location": {"lat": 36.181698, "lng": -86.78509079999999}, "viewport": {"northeast": {"lat": 36.1831557302915, "lng": -86.78381496970849}, "southwest": {"lat": 36.1804577697085, "lng": -86.78651293029151}}}, "icon": "https://maps.gstatic.com/mapfiles/place_api/icons/v1/png_71/generic_business-71.png", "name": "Shed Group Fitness Germantown", "opening_hours": {"open_now": true}, "photos": [{"height": 2016, "html_attributions": ["<a href=\"https://maps.google.com/maps/contrib/114399492216166556769\">Shed Group Fitness Germantown</a>"], "photo_reference": "CmRaAAAAlJeitP0cqgqAWNynRqAFTvkjDpHfTuurXirLmuI8f2J3B1nbdkz1QdZfxPlNUjXaccHxGjm2gW9H_lhguQ3DvWwTY-uRCiB_GxXcXF9Dwcp8pPmpfpQBAWVLHiDQVMYwEhDQMgoSl2FMCGtgX4oCMKw-GhSJHUFpou35IejLcbLzjxilhIW8uA", "width": 1512}], "place_id": "ChIJHQ3qRkBnZIgR0mNxnt9Ja00", "plus_code": {"compound_code": "56J7+MX Nashville, TN, USA", "global_code": "868M56J7+MX"}, "rating": 5, "reference": "ChIJHQ3qRkBnZIgR0mNxnt9Ja00", "scope": "GOOGLE", "types": ["gym", "health", "point_of_interest", "establishment"], "user_ratings_total": 5, "vicinity": "85 Van Buren Street, Nashville"}, {"business_status": "OPERATIONAL", "geometry": {"location": {"lat": 36.18209419999999, "lng": -86.7848254}, "viewport": {"northeast": {"lat": 36.1834194302915, "lng": -86.7834583197085}, "southwest": {"lat": 36.1807214697085, "lng": -86.78615628029151}}}, "icon": "https://maps.gstatic.com/mapfiles/place_api/icons/v1/png_71/generic_business-71.png", "name": "Kamisnsky Sean B MD", "place_id": "ChIJUSor0wZnZIgRypJwHSpwfaQ", "reference": "ChIJUSor0wZnZIgRypJwHSpwfaQ", "scope": "GOOGLE", "types": ["doctor", "health", "point_of_interest", "establishment"], "vicinity": "5651 1st Blvd, Nashville"}, {"business_status": "OPERATIONAL", "geometry": {"location": {"lat": 36.1814403, "lng": -86.7841684}, "viewport": {"northeast": {"lat": 36.18275628029151, "lng": -86.7828984697085}, "southwest": {"lat": 36.18005831970851, "lng": -86.7855964302915}}}, "icon": "https://maps.gstatic.com/mapfiles/place_api/icons/v1/png_71/restaurant-71.png", "name": "Seafood restaurant", "place_id": "ChIJWZPfzzZnZIgRG6sOJeuRYJ4", "plus_code": {"compound_code": "56J8+H8 Nashville, TN, USA", "global_code": "868M56J8+H8"}, "reference": "ChIJWZPfzzZnZIgRG6sOJeuRYJ4", "scope": "GOOGLE", "types": ["restaurant", "food", "point_of_interest", "establishment"], "vicinity": "1400 Adams Street, Nashville"}]}, {"mapped_location": "(36.02111061154663, -86.59872599999998)", "address": "1740 J P Hennessy Dr, Lavergne", "results": [{"business_status": "OPERATIONAL", "geometry": {"location": {"lat": 36.0221324, "lng": -86.59873569999999}, "viewport": {"northeast": {"lat": 36.0229596302915, "lng": -86.5974383697085}, "southwest": {"lat": 36.0202616697085, "lng": -86.6001363302915}}},