[{"mapped_location": "(36.072715634084844, -86.93374359464083)", "address": "656 Colice Jeanne Rd, Nashville", "results": [{"business_status": "OPERATIONAL", "geometry": {"location": {"lat": 36.072424, "lng": -86.933537}, "viewport": {"northeast": {"lat": 36.07353453029149, "lng": -86.9324300697085}, "southwest": {"lat": 36.07083656970849, "lng": -86.93512803029151}}}, "icon": "https://maps.gstatic.com/mapfiles/place_api/icons/v1/png_71/generic_business-71.png", "name": "ChargePoint Charging Station", "opening_hours": {"open_now": true}, "place_id": "ChIJv6rqXV2IZIgREjnnEs7j660", "plus_code": {"compound_code": "33C8+XH Nashville, TN, USA", "global_code": "868M33C8+XH"}, "reference": "ChIJv6rqXV2IZIgREjnnEs7j660", "scope": "GOOGLE", "types": ["point_of_interest", "establishment"], "vicinity": "656 Colice Jeanne Road, Nashville"}, {"business_status": "OPERATIONAL", "geometry": {"location": {"lat": 36.0724161, "lng": -86.9335283}, "viewport": {"northeast": {"lat": 36.0737271802915, "lng": -86.93238046970849}, "southwest": {"lat": 36.0710292197085, "lng": -86.93507843029151}}}, "icon": "https://maps.gstatic.com/mapfiles/place_api/icons/v1/png_71/generic_business-71.png", "name": "Bellevue Recreation Center", "opening_hours": {"open_now": true}, "photos": [{"height": 2322, "html_attributions": ["<a href=\"https://maps.google.com/maps/contrib/101411066101227979642\">Evan Nahmias</a>"], "photo_reference": "CmRaAAAAsKdHW1acPorMTNgofD7ENazoezrAKOubwO0aRRdeyGnUa8nb-SYAL6rY5sIbVOxgasQ7jo0yQh8cX3zF4UWTfxLjk0LrpXDVnqNLe_wM-kVk9OiHH_VvHEjbRwT5zhv4EhB_OiTOcYF2ehCqgPCIPqF6GhSNmNzvry2zYCQ3Yq5FQaJNSKPDng", "width": 4128}], "place_id": "ChIJU1P6fV2IZIgRUArGRDdsG6o", "plus_code": {"compound_code": "33C8+XH Nashville, TN, USA", "global_code": "868M33C8+XH"}, "rating": 4.2, "reference": "ChIJU1P6fV2IZIgRUArGRDdsG6o", "scope": "GOOGLE", "types": ["point_of_interest", "establishment"], "user_ratings_total": 33, "vicinity": "656 Colice Jeanne Road, Nashville"}, {"business_status": "OPERATIONAL", "geometry": {"location": {"lat": 36.0727471, "lng": -86.9330753}, "viewport": {"northeast": {"lat": 36.0741530302915, "lng": -86.93164631970849}, "southwest": {"lat": 36.0714550697085, "lng": -86.93434428029151}}}, "icon": "https://maps.gstatic.com/mapfiles/place_api/icons/v1/png_71/museum-71.png", "name": "DeMoss Cabin (Historic)", "photos": [{"height": 1836, "html_attributions": ["<a href=\"https://maps.google.com/maps/contrib/111213724313072506159\">Alexander Ogilvie Car Sun Shades</a>"], "photo_reference": "CmRaAAAAhLvMPGyaEvNpj9cscOE6NX1ri165VrKlKdwyWUqOJqjH1hBkImDU98tKgY_LXkKTjZOc2q78gw6LGjCk6ucaPKCVvz6AyzKsarNuSvnqlsxmeKVlNlHdymyvKATV7X9yEhCP25BTOqHNMfR6rXjxgsq-GhS0SQbEC0sLQ07eV_4RGgddVSP-Bw", "width": 3264}], "place_id": "ChIJMUZlQV2IZIgRsSPFpZUEU-8", "plus_code": {"compound_code": "33F8+3Q Nashville, TN, USA", "global_code": "868M33F8+3Q"}, "rating": 5, "reference": "ChIJMUZlQV2IZIgRsSPFpZUEU-8", "scope": "GOOGLE", "types": ["museum", "point_of_interest", "establishment"], "user_ratings_total": 1, "vicinity": "200 Myhr Green, Nashville"}, {"business_status": "OPERATIONAL", "geometry": {"location": {"lat": 36.0718319, "lng": -86.9336186}, "viewport": {"northeast": {"lat": 36.07323848029149, "lng": -86.9324533697085}, "southwest": {"lat": 36.07054051970849, "lng": -86.9351513302915}}}, "icon": "https://maps.gstatic.com/mapfiles/place_api/icons/v1/png_71/civic_building-71.png", "name": "Station 37", "opening_hours": {"open_now": true}, "place_id": "ChIJmedm4haJZIgRFoMy2Pgfq_w", "plus_code": {"compound_code": "33C8+PH Nashville, TN, USA", "global_code": "868M33C8+PH"}, "rating": 5, "reference": "ChIJmedm4haJZIgRFoMy2Pgfq_w", "scope": "GOOGLE", "types": ["fire_station", "point_of_interest", "establishment"], "user_ratings_total": 2, "vicinity": "Nashville"}, {"business_status": "OPERATIONAL", "geometry": {"location": {"lat": 36.0733195, "lng": -86.93462459999999}, "viewport": {"northeast": {"lat": 36.0745926802915, "lng": -86.93351536970849}, "southwest": {"lat": 36.0718947197085, "lng": -86.9362133302915}}}, "icon": "https://maps.gstatic.com/mapfiles/place_api/icons/v1/png_71/park-71.png", "name": "Red Caboose", "photos": [{"height": 3024, "html_attributions": ["<a href=\"https://maps.google.com/maps/contrib/114873572080972326366\">Mohamed Rafi</a>"], "photo_reference": "CmRaAAAAuJl3O5Zt1ZF4Rxs6llt0LaQ5Aci-iZxcuB_o4G4m9KYqKyQLBS5x8qtUpqqCceWmAyF5YBtdqUWnD8F4-6eHfGND-STmp662jcezFy9x2y1Str-KGiphisLBkDPdasEyEhDU22RfqegetwQBZI_x5qcGGhSyaAqPiQmuYh8P5QNlqFbuONlJMQ", "width": 4032}], "place_id": "ChIJR2FZaF2IZIgR-D8_8UujiZM", "plus_code": {"compound_code": "33F8+85 Nashville, TN, USA", "global_code": "868M33F8+85"}, "rating": 4.6, "reference": "ChIJR2FZaF2IZIgR-D8_8UujiZM", "scope": "GOOGLE", "types": ["park", "point_of_interest", "establishment"], "user_ratings_total": 178, "vicinity": "684 Colice Jeanne Road, Nashville"}]}, {"mapped_location": "(36.10470561158211, -86.76102129325407)", "address": "4013 Armory Oaks Dr, Nashville", "results": [{"business_status": "OPERATIONAL", "geometry": {"location": {"lat": 36.1045889, "lng": -86.7610327}, "viewport": {"northeast": {"lat": 36.1059444302915, "lng": -86.7597542197085}, "southwest": {"lat": 36.1032464697085, "lng": -86.7624521802915}}}, "icon": "https://maps.gstatic.com/mapfiles/place_api/icons/v1/png_71/generic_business-71.png", "name": "ChargePoint Charging Station", "opening_hours": {"open_now": true}, "place_id": "ChIJMQftEJZlZIgRxLhor-T0O7c", "plus_code": {"compound_code": "463Q+RH Nashville, TN, USA", "global_code": "868M463Q+RH"}, "reference": "ChIJMQftEJZlZIgRxLhor-T0O7c", "scope": "GOOGLE", "types": ["point_of_interest", "establishment"], "vicinity": "4013 Armory Oaks Drive, Nashville"}, {"business_status": "OPERATIONAL", "geometry": {"location": {"lat": 36.10463009999999, "lng": -86.76064939999999}, "viewport": {"northeast": {"lat": 36.1061775302915, "lng": -86.75953436970849}, "southwest": {"lat": 36.1034795697085, "lng": -86.7622323302915}}}, "icon": "https://maps.gstatic.com/mapfiles/place_api/icons/v1/png_71/shopping-71.png", "name": "BMW Certified Pre-Owned Nashville", "opening_hours": {"open_now": true}, "photos": [{"height": 2736, "html_attributions": ["<a href=\"https://maps.google.com/maps/contrib/112949540155820305427\">Naeb John</a>"], "photo_reference": "CmRaAAAAXHvGRMdIXmx3AGFeC8Bn0hhc8tON4qH2bFRGNTqZDtzCavOH62RhPzvVIMOq0hllFfCYwIS9tD_bWxRweYvtbYfXc8WGioFgINz9PmXyCDNI2HV4jHpwZmomY02fTS6WEhCtw_sfarNQIjBIJjqsTmXwGhQwEXIfqJVwqC7metkiB9dVT9IuEg", "width": 3648}], "place_id": "ChIJl0gFF5ZlZIgRr2px2caEu6A", "plus_code": {"compound_code": "463Q+VP Nashville, TN, USA", "global_code": "868M463Q+VP"}, "rating": 3.9, "reference": "ChIJl0gFF5ZlZIgRr2px2caEu6A", "scope": "GOOGLE", "types": ["car_dealer", "point_of_interest", "store", "establishment"], "user_ratings_total": 193, "vicinity": "4040 Armory Oaks Drive, Nashville"}, {"business_status": "OPERATIONAL", "geometry": {"location": {"lat": 36.10486540000001, "lng": -86.7606335}, "viewport": {"northeast": {"lat": 36.10619988029151, "lng": -86.7591320197085}, "southwest": {"lat": 36.10350191970851, "lng": -86.76182998029151}}}, "icon": "https://maps.gstatic.com/mapfiles/place_api/icons/v1/png_71/generic_business-71.png", "name": "BMW of Nashville - Nashville Service & Repair Facility", "opening_hours": {"open_now": true}, "place_id": "ChIJC6OlNGVlZIgRo3_SFbDHzWI", "plus_code": {"compound_code": "463Q+WP Nashville, TN, USA", "global_code": "868M463Q+WP"}, "rating": 3.8, "reference": "ChIJC6OlNGVlZIgRo3_SFbDHzWI", "scope": "GOOGLE", "types": ["car_repair", "point_of_interest", "store", "establishment"], "user_ratings_total": 4, "vicinity": "4040 Armory Oaks Drive, Nashville"}, {"business_status": "OPERATIONAL", "geometry": {"location": {"lat": 36.1037451, "lng": -86.76065609999999}, "viewport": {"northeast": {"lat": 36.1049142802915, "lng": -86.7595201697085}, "southwest": {"lat": 36.1022163197085, "lng": -86.7622181302915}}}, "icon": "https://maps.gstatic.com/mapfiles/place_api/icons/v1/png_71/lodging-71.png", "name": "Harry Phillips American Inn of Court", "place_id": "ChIJfUIoOZZlZIgR2h1CYGcLq0E", "plus_code": {"compound_code": "463Q+FP Nashville, TN, USA", "global_code": "868M463Q+FP"}, "reference": "ChIJfUIoOZZlZIgR2h1CYGcLq0E", "scope": "GOOGLE", "types": ["lodging", "point_of_interest", "establishment"], "vicinity": "4013 Armory Oaks Drive, Nashville"}, {"business_status": "OPERATIONAL", "geometry": {"location": {"lat": 36.1037451, "lng": -86.76065609999999}, "viewport": {"northeast": {"lat": 36.1051246802915, "lng": -86.75949071970848}, "southwest": {"lat": 36.1024267197085, "lng": -86.7621886802915}}}, "icon": "https://maps.gstatic.com/mapfiles/place_api/icons/v1/png_71/school-71.png", "name": "Nashville School Of Law", "photos": [{"height": 658, "html_attributions": ["<a href=\"https://maps.google.com/maps/contrib/106033730886251739052\">Nashville School Of Law</a>"], "photo_reference": "CmRaAAAAxBC30w7Wfygvqr2kwx_d6MehnAf2hmimwnQdJ4SmlmW_NRCApvaejQnKO_QjDfZtpKdxWrtX2vK--P6CB9b8eQu26texCbelKQklfD0D3BYJb5LLoEB00p3SD23E9vZ6EhB0Hlgz7g-Yd-Qvp2bTSt2OGhSNpGN-oRlnrgXGFrUVM1--vmTxjg", "width": 1170}], "place_id": "ChIJuZa7F5ZlZIgREJdiAo9tGAo", "plus_code": {"compound_code": "463Q+FP Nashville, TN, USA", "global_code": "868M463Q+FP"}, "rating": 4.4, "reference": "ChIJuZa7F5ZlZIgREJdiAo9tGAo", "scope": "GOOGLE", "types": ["point_of_interest", "establishment"], "user_ratings_total": 14, "vicinity": "4013 Armory Oaks Drive, Nashville"}]}, {"mapped_location": "(36.159213, -86.774423)", "address": "206 3rd Ave S, Nashville", "results": [{"business_status": "OPERATIONAL", "geometry": {"location": {"lat": 36.159213, "lng": -86.774423}, "viewport": {"northeast": {"lat": 36.1605628302915, "lng": -86.77307206970848}, "southwest": {"lat": 36.1578648697085, "lng": -86.77577003029148}}}, "icon": "https://maps.gstatic.com/mapfiles/place_api/icons/v1/png_71/shopping-71.png", "name": "Dollar General", "place_id": "ChIJg7RFYlxmZIgR2LCh_WigUFQ", "plus_code": {"compound_code": "565G+M6 Nashville, TN, USA", "global_code": "868M565G+M6"}, "reference": "ChIJg7RFYlxmZIgR2LCh_WigUFQ", "scope": "GOOGLE", "types": ["point_of_interest", "store", "establishment"], "vicinity": "206 3rd Avenue South, Nashville"}, {"business_status": "OPERATIONAL", "geometry": {"location": {"lat": 36.159213, "lng": -86.774423}, "viewport": {"northeast": {"lat": 36.1605628302915, "lng": -86.77307206970848}, "southwest": {"lat": 36.1578648697085, "lng": -86.77577003029148}}}, "icon": "https://maps.gstatic.com/mapfiles/place_api/icons/v1/png_71/shopping-71.png", "name": "DGX", "opening_hours": {"open_now": true}, "photos": [{"height": 3024, "html_attributions": ["<a href=\"https://maps.google.com/maps/contrib/100213974155346211036\">Ammi Embry</a>"], "photo_reference": "CmRaAAAAwlMoDvzoymahVMm7lfaEqf8msIqT5l_kGja0r93zd8vNWczFDutCIVx_5nTs15BceBxkmMVGOFA4HMupTpUIR5HTs7F2LX5EFKSvgbvg8aZOKhc6cjMOnFSIV6v167woEhCk7BsofBBCsZmK4iqJIt3LGhR62VwYtjzASxFmMCGfmsYICHMkgQ", "width": 4032}], "place_id": "ChIJDeAUB0BnZIgRlJnS2G1NgSo", "plus_code": {"compound_code": "565G+M6 Nashville, TN, USA", "global_code": "868M565G+M6"}, "rating": 4.4, "reference": "ChIJDeAUB0BnZIgRlJnS2G1NgSo", "scope": "GOOGLE", "types": ["grocery_or_supermarket", "home_goods_store", "food", "point_of_interest", "store", "establishment"], "user_ratings_total": 91, "vicinity": "206 3rd Avenue South, Nashville"}, {"business_status": "OPERATIONAL", "geometry": {"location": {"lat": 36.1592, "lng": -86.7744}, "viewport": {"northeast": {"lat": 36.1605449302915, "lng": -86.7730604697085}, "southwest": {"lat": 36.1578469697085, "lng": -86.7757584302915}}}, "icon": "https://maps.gstatic.com/mapfiles/place_api/icons/v1/png_71/generic_business-71.png", "name": "KeyMe", "opening_hours": {"open_now": true}, "photos": [{"height": 3000, "html_attributions": ["<a href=\"https://maps.google.com/maps/contrib/111911767441841891105\">KeyMe</a>"], "photo_reference": "CmRaAAAAU4kB_LIMuptqomz7O-hNfVpSOxgT8tJiE6codG91ZHDGDgl_LM9x00Xb4f54gPSftqPLE_d6Yd7o_ljbqWDZB8758kf88SCKHXzqPiaSYSr_GZ2YCsVJBZNMB34PjjGCEhCd1O9QzlqxsEHDKqx9F4l1GhQyRAd_fmxQRxfy6wgmvd_Kx7aPJg", "width": 2250}], "place_id": "ChIJ9T0HUztnZIgRtLYmhW3Pbhs", "plus_code": {"compound_code": "565G+M6 Nashville, TN, USA", "global_code": "868M565G+M6"}, "reference": "ChIJ9T0HUztnZIgRtLYmhW3Pbhs", "scope": "GOOGLE", "types": ["locksmith", "point_of_interest", "establishment"], "vicinity": "206 3rd Avenue South, Nashville"}, {"business_status": "OPERATIONAL", "geometry": {"location": {"lat": 36.159228, "lng": -86.774344}, "viewport": {"northeast": {"lat": 36.16055533029149, "lng": -86.7730461197085}, "southwest": {"lat": 36.1578573697085, "lng": -86.77574408029152}}}, "icon": "https://maps.gstatic.com/mapfiles/place_api/icons/v1/png_71/restaurant-71.png", "name": "City Tap House Nashville", "opening_hours": {"open_now": false}, "photos": [{"height": 3523, "html_attributions": ["<a href=\"https://maps.google.com/maps/contrib/103144335978155801650\">Drew Fellers Studios</a>"], "photo_reference": "CmRaAAAAmiQu8RO0VA-Xusy-Vc-duu6LYt1sTSiJQrYREHjO1zLVJ4l4rzaDbq-5UxULXaGUI9W--QsjI8gIEQPxRRMWuyxuF1tdiOX38Qd1NW14pGeFRAdDj10dDg6clE9TpzKSEhA4dvVJ-nSCQ_-YRd0IUaasGhR0Tk_4OdCfa4XxR97lnqihiTRA_g", "width": 4846}], "place_id": "ChIJ2XlGiFxmZIgR-zZZRtDpzTI", "plus_code": {"compound_code": "565G+M7 Nashville, TN, USA", "global_code": "868M565G+M7"}, "price_level": 2, "rating": 4.4, "reference": "ChIJ2XlGiFxmZIgR-zZZRtDpzTI", "scope": "GOOGLE", "types": ["bar", "restaurant", "food", "point_of_interest", "establishment"], "user_ratings_total": 488, "vicinity": "204 3rd Avenue South, Nashville"}, {"business_status": "OPERATIONAL", "geometry": {"location": {"lat": 36.1592764, "lng": -86.7743084}, "viewport": {"northeast": {"lat": 36.16059258029149, "lng": -86.7730368197085}, "southwest": {"lat": 36.15789461970849, "lng": -86.77573478029151}}}, "icon": "https://maps.gstatic.com/mapfiles/place_api/icons/v1/png_71/parking-71.png", "name": "Nolan Lot", "place_id": "ChIJofYqiFxmZIgRT73qrQAYJeQ", "plus_code": {"compound_code": "565G+P7 Nashville, TN, USA", "global_code": "868M565G+P7"}, "rating": 4, "reference": "ChIJofYqiFxmZIgRT73qrQAYJeQ", "scope": "GOOGLE", "types": ["parking", "point_of_interest", "establishment"], "user_ratings_total": 1, "vicinity": "201 3rd Avenue South, Nashville"}]}, {"mapped_location": "(36.0842313615734, -86.70422976331372)", "address": "363 Harding Pl, Nashville", "results": [{"business_status": "OPERATIONAL", "geometry": {"location": {"lat": 36.0842691, "lng": -86.7042464}, "viewport": {"northeast": {"lat": 36.08558033029149, "lng": -86.70288001970849}, "southwest": {"lat": 36.08288236970849, "lng": -86.7055779802915}}}, "icon": "https://maps.gstatic.com/mapfiles/place_api/icons/v1/png_71/restaurant-71.png", "name": "Burger King", "opening_hours": {"open_now": true}, "photos": [{"height": 800, "html_attributions": ["<a href=\"https://maps.google.com/maps/contrib/115773236585659804329\">Burger King</a>"], "photo_reference": "CmRaAAAAhQdTQQMI-37wWdcGF6cZ8y1E4qmWCKn5GyPpsZZKg3cpXOh_2A0Rz_TIQ893BWXTt8CTl7KnWspHPWkMkW8KsHurlr4Y2oOoLbE1ssOsqxIFEpEEPCncW7syBcbBYtU1EhCrDoThkmVW9sObcqrKkq3fGhRaxyMNHZF1o1PHZYGViOx1y5QurQ", "width": 1400}], "place_id": "ChIJGx1HrqtvZIgRrdJ5a1QorL4", "plus_code": {"compound_code": "37MW+P8 Nashville, TN, USA", "global_code": "868M37MW+P8"}, "price_level": 1, "rating": 3.5, "reference": "ChIJGx1HrqtvZIgRrdJ5a1QorL4", "scope": "GOOGLE", "types": ["restaurant", "food", "point_of_interest", "establishment"], "user_ratings_total": 527, "vicinity": "363 Harding Place, Nashville"}, {"business_status": "OPERATIONAL", "geometry": {"location": {"lat": 36.0842529, "lng": -86.7039401}, "viewport": {"northeast": {"lat": 36.0856095802915, "lng": -86.7025625197085}, "southwest": {"lat": 36.0829116197085, "lng": -86.7052604802915}}}, "icon": "https://maps.gstatic.com/mapfiles/place_api/icons/v1/png_71/shopping-71.png", "name": "Greenexpress Food Mart", "place_id": "ChIJ42f9p6tvZIgRLPRKvMH6_BI", "plus_code": {"compound_code": "37MW+PC Nashville, TN, USA", "global_code": "868M37MW+PC"}, "reference": "ChIJ42f9p6tvZIgRLPRKvMH6_BI", "scope": "GOOGLE", "types": ["convenience_store", "food", "point_of_interest", "store", "establishment"], "vicinity": "Nashville"}, {"business_status": "OPERATIONAL", "geometry": {"location": {"lat": 36.0839712, "lng": -86.7044935}, "viewport": {"northeast": {"lat": 36.0853040302915, "lng": -86.70313696970848}, "southwest": {"lat": 36.0826060697085, "lng": -86.7058349302915}}}, "icon": "https://maps.gstatic.com/mapfiles/place_api/icons/v1/png_71/gas_station-71.png", "name": "MAPCO", "opening_hours": {"open_now": true}, "photos": [{"height": 332, "html_attributions": ["<a href=\"https://maps.google.com/maps/contrib/103145604455112295853\">MAPCO</a>"], "photo_reference": "CmRaAAAAVYodY3Z2CB6BsxxrKGJ8q_kaZQ53YpXzyF2bsGUYI1FZwBepWRUZlJDQ3cNrZCn-Cm2EvwS8cAr0DQbYHrSFPc1ZzKmIti7UYmxyYvXv72N7bMsLqODZr-W_BUUY0heFEhAt1DPW9L3bN8Lgu2f5iubFGhQj6WEltP1SLGs2VGxztbetfNIt-A", "width": 448}], "place_id": "ChIJlQsksatvZIgR67oDhWdMfLo", "plus_code": {"compound_code": "37MW+H6 Nashville, TN, USA", "global_code": "868M37MW+H6"}, "rating": 1, "reference": "ChIJlQsksatvZIgR67oDhWdMfLo", "scope": "GOOGLE", "types": ["gas_station", "convenience_store", "food", "point_of_interest", "store", "establishment"], "user_ratings_total": 4, "vicinity": "365 Harding Place, Nashville"}, {"business_status": "OPERATIONAL", "geometry": {"location": {"lat": 36.08388689999999, "lng": -86.7042305}, "viewport": {"northeast": {"lat": 36.0850062802915, "lng": -86.70292666970849}, "southwest": {"lat": 36.0823083197085, "lng": -86.7056246302915}}}, "icon": "https://maps.gstatic.com/mapfiles/place_api/icons/v1/png_71/cafe-71.png", "name": "NASHVILLENUTRITION", "place_id": "ChIJgUTpGqJvZIgRavcocMSGoto", "plus_code": {"compound_code": "37MW+H8 Nashville, TN, USA", "global_code": "868M37MW+H8"}, "reference": "ChIJgUTpGqJvZIgRavcocMSGoto", "scope": "GOOGLE", "types": ["cafe", "food", "point_of_interest", "establishment"], "vicinity": "4910 Linbar Drive, Nashville"}, {"business_status": "OPERATIONAL", "geometry": {"location": {"lat": 36.0838756, "lng": -86.704177}, "viewport": {"northeast": {"lat": 36.0853154802915, "lng": -86.7028706697085}, "southwest": {"lat": 36.0826175197085, "lng": -86.70556863029151}}}, "icon": "https://maps.gstatic.com/mapfiles/place_api/icons/v1/png_71/generic_business-71.png", "name": "La Barberia Hair Salon", "opening_hours": {"open_now": true}, "photos": [{"height": 4032, "html_attributions": ["<a href=\"https://maps.google.com/maps/contrib/117328834644982133563\">La Barberia Hair Salon</a>"], "photo_reference": "CmRaAAAAmamxu7r4ECxpKz15bXHXDDE3tLPVtGP9cxW-mLA-6i4rrnkIkKFHhI6iQeDisNzQVUQ19A7DyBHlbxVpPi8T6b7kIdDqduvFtnMlrIO452TEqSXy7YnE4cf_0JjIqhcGEhA_d8LFBgxVUPSwH_0ZJahuGhQyzddgrqFqIG_NeX4JTH0FI5rFmQ", "width": 3024}], "place_id": "ChIJlYXV8g5vZIgR1QMGSqftqww", "plus_code": {"compound_code": "37MW+H8 Nashville, TN, USA", "global_code": "868M37MW+H8"}, "rating": 5, "reference": "ChIJlYXV8g5vZIgR1QMGSqftqww", "scope": "GOOGLE", "types": ["hair_care", "point_of_interest", "establishment"], "user_ratings_total": 2, "vicinity": "227 Largo Drive, Nashville"}]}, {"mapped_location": "(36.12865, -86.71291)", "address": "1040 Murfreesboro Pike, Nashville", "results": [{"business_status": "OPERATIONAL", "geometry": {"location": {"lat": 36.12865, "lng": -86.712909}, "viewport": {"northeast": {"lat": 36.1299989802915, "lng": -86.7115600197085}, "southwest": {"lat": 36.1273010197085, "lng": -86.7142579802915}}}, "icon": "https://maps.gstatic.com/mapfiles/place_api/icons/v1/png_71/generic_business-71.png", "name": "Empire Security", "place_id": "ChIJNzMIUpluZIgRHl4XOxIeMhU", "plus_code": {"compound_code": "47HP+FR Nashville, TN, USA", "global_code": "868M47HP+FR"}, "reference": "ChIJNzMIUpluZIgRHl4XOxIeMhU", "scope": "GOOGLE", "types": ["point_of_interest", "establishment"], "vicinity": "1040 Murfreesboro Pike, Nashville"}, {"business_status": "OPERATIONAL", "geometry": {"location": {"lat": 36.1286501, "lng": -86.712909}, "viewport": {"northeast": {"lat": 36.1298849802915, "lng": -86.7116976697085}, "southwest": {"lat": 36.1271870197085, "lng": -86.71439563029152}}}, "icon": "https://maps.gstatic.com/mapfiles/place_api/icons/v1/png_71/generic_business-71.png", "name": "Zak Tax Service", "photos": [{"height": 333, "html_attributions": ["<a href=\"https://maps.google.com/maps/contrib/107655237178902218768\">Zak Tax Service</a>"], "photo_reference": "CmRaAAAA3QxYReeKldkzB2e24B4H0XJVf67gNjL7RiUp0XuJgelUfHnx7y1ervu5ytbT3LEtDQ90BXAzIStMbT3yDgmQrv8yCTp9WOcrMehI5D1BVL6lK1MS3VhCX1B2i2Un3g1gEhAti5tphhaAAhp76Q9z9snNGhRj1Sl56GUVudKNgfX4PqW0S1ZvaA", "width": 342}], "place_id": "ChIJkfhbdw5vZIgRabbTS-jqbPk", "plus_code": {"compound_code": "47HP+FR Nashville, TN, USA", "global_code": "868M47HP+FR"}, "reference": "ChIJkfhbdw5vZIgRabbTS-jqbPk", "scope": "GOOGLE", "types": ["accounting", "finance", "point_of_interest", "establishment"], "vicinity": "1040 Murfreesboro Pike #216, Nashville"}, {"business_status": "OPERATIONAL", "geometry": {"location": {"lat": 36.1286501, "lng": -86.712909}, "viewport": {"northeast": {"lat": 36.1298849802915, "lng": -86.7116976697085}, "southwest": {"lat": 36.1271870197085, "lng": -86.71439563029152}}}, "icon": "https://maps.gstatic.com/mapfiles/place_api/icons/v1/png_71/generic_business-71.png", "name": "S And S Trucking Line Llc", "place_id": "ChIJVVWF9TJvZIgRh2eOizWeT9Y", "plus_code": {"compound_code": "47HP+FR Nashville, TN, USA", "global_code": "868M47HP+FR"}, "rating": 5, "reference": "ChIJVVWF9TJvZIgRh2eOizWeT9Y", "scope": "GOOGLE", "types": ["moving_company", "point_of_interest", "establishment"], "user_ratings_total": 3, "vicinity": "1040 Murfreesboro Pike, Nashville"}, {"business_status": "CLOSED_TEMPORARILY", "geometry": {"location": {"lat": 36.1286501, "lng": -86.712909}, "viewport": {"northeast": {"lat": 36.1298849802915, "lng": -86.7116976697085}, "southwest": {"lat": 36.1271870197085, "lng": -86.71439563029152}}}, "icon": "https://maps.gstatic.com/mapfiles/place_api/icons/v1/png_71/school-71.png", "name": "NASHVILLE , ANTIOCH DRIVING SCHOOL. ONE STOP DRIVING SCHOOL NASHVILLE -TN", "permanently_closed": true, "photos": [{"height": 3120, "html_attributions": ["<a href=\"https://maps.google.com/maps/contrib/101826323436741126095\">NASHVILLE , ANTIOCH DRIVING SCHOOL. ONE STOP DRIVING SCHOOL NASHVILLE -TN</a>"], "photo_reference": "CmRaAAAAy3CTZUfz3DUun7cTw6krrPGfCXmakTtvS1Unv6EPh5OyMWf-bV638L276UPxmxtF80OY0_jJxIcyKDlJ-7jjsn2SLG_i5guJt96_beoWF4kV1YcpIvjkOyPVoS90_BlQEhDFx2ProY1u_WOfg-hk6k0lGhT9R6ubt3yOqAj85uzi-lA5UFHdmg", "width": 4160}], "place_id": "ChIJ41xWndBvZIgRarmA4dIO1CE", "plus_code": {"compound_code": "47HP+FR Nashville, TN, USA", "global_code": "868M47HP+FR"}, "rating": 4.9, "reference": "ChIJ41xWndBvZIgRarmA4dIO1CE", "scope": "GOOGLE", "types": ["point_of_interest", "establishment"], "user_ratings_total": 79, "vicinity": "1040 Murfreesboro Pike #232, Nashville"}, {"business_status": "OPERATIONAL", "geometry": {"location": {"lat": 36.128607, "lng": -86.7128577}, "viewport": {"northeast": {"lat": 36.1300273802915, "lng": -86.7113868197085}, "southwest": {"lat": 36.1273294197085, "lng": -86.7140847802915}}}, "icon": "https://maps.gstatic.com/mapfiles/place_api/icons/v1/png_71/generic_business-71.png", "name": "Capital Gross LLC", "place_id": "ChIJw4-wXjJvZIgR7cnR-GtEv6I", "plus_code": {"compound_code": "47HP+CV Nashville, TN, USA", "global_code": "868M47HP+CV"}, "reference": "ChIJw4-wXjJvZIgR7cnR-GtEv6I", "scope": "GOOGLE", "types": ["moving_company", "point_of_interest", "establishment"], "vicinity": "1040 Murfreesboro Pike, Nashville"}]}, {"mapped_location": "(36.17156739999999, -86.8673989)", "address": "6418 Centennial Blvd, Nashville", "results": [{"business_status": "OPERATIONAL", "geometry": {"location": {"lat": 36.1723867, "lng": -86.86614759999999}, "viewport": {"northeast": {"lat": 36.1736143802915, "lng": -86.8646291197085}, "southwest": {"lat": 36.1709164197085, "lng": -86.8673270802915}}}, "icon": "https://maps.gstatic.com/mapfiles/place_api/icons/v1/png_71/generic_business-71.png", "name": "Western Express - Pilot", "photos": [{"height": 4160, "html_attributions": ["<a href=\"https://maps.google.com/maps/contrib/106952004481597636657\">Jay</a>"], "photo_reference": "CmRaAAAAmh0FNJOZ87O8f6HwTGUoFsWHzEp-irS3UaxZfxySzkyjRPUoz7HRZdNUTqNN4r99TuNQ4dYrYitSnHDpoSoMVuEO4hpFPmNrgKW5FNKR68w6wMW014xLRxFhuLsFlDUOEhCPrYsye5Yxj6r--Wy_2_mSGhSc7rcyyA-4HGDmzkSMEVVXfeGtnw", "width": 3120}], "place_id": "ChIJzS_XbalhZIgRjREq0d0z_cY", "plus_code": {"compound_code": "54CM+XG Nashville, TN, USA", "global_code": "868M54CM+XG"}, "rating": 2.4, "reference": "ChIJzS_XbalhZIgRjREq0d0z_cY", "scope": "GOOGLE", "types": ["moving_company", "point_of_interest", "establishment"], "user_ratings_total": 107, "vicinity": "6420 Centennial Boulevard, Nashville"}, {"business_status": "OPERATIONAL", "geometry": {"location": {"lat": 36.1722631, "lng": -86.86546}, "viewport": {"northeast": {"lat": 36.1735075302915, "lng": -86.86416691970851}, "southwest": {"lat": 36.1708095697085, "lng": -86.86686488029152}}}, "icon": "https://maps.gstatic.com/mapfiles/place_api/icons/v1/png_71/restaurant-71.png", "name": "Subway", "opening_hours": {"open_now": true}, "photos": [{"height": 2306, "html_attributions": ["<a href=\"https://maps.google.com/maps/contrib/100731020326077595559\">Kyle Howard</a>"], "photo_reference": "CmRaAAAAcnk_bu4pXWOmQxhjG2pte_F2mAZB_1qNqdrLZfWOC3EVbzhK1obWSVDpx0Qkf4Pd8bAHz3mYE59Ve7mggVk9nEpqvxMmPd8rntFUlF_olvwH0T3y3yOZEfqgKpBthx5nEhADmx7cyXjb7cGeq7z_ZoaPGhQmGe4wKXZza0lCfjnpcap2x39wAg", "width": 2526}], "place_id": "ChIJcSfOzK5hZIgRYefULCnZ_G8", "plus_code": {"compound_code": "54CM+WR Nashville, TN, USA", "global_code": "868M54CM+WR"}, "price_level": 1, "rating": 3.8, "reference": "ChIJcSfOzK5hZIgRYefULCnZ_G8", "scope": "GOOGLE", "types": ["meal_takeaway", "restaurant", "food", "point_of_interest", "establishment"], "user_ratings_total": 164, "vicinity": "6418 Centennial Boulevard, Nashville"}, {"business_status": "OPERATIONAL", "geometry": {"location": {"lat": 36.1722647, "lng": -86.8652182}, "viewport": {"northeast": {"lat": 36.1733402802915, "lng": -86.8638257697085}, "southwest": {"lat": 36.1706423197085, "lng": -86.8665237302915}}}, "icon": "https://maps.gstatic.com/mapfiles/place_api/icons/v1/png_71/generic_business-71.png", "name": "Western Union", "opening_hours": {"open_now": true}, "photos": [{"height": 1000, "html_attributions": ["<a href=\"https://maps.google.com/maps/contrib/107736346709188482492\">Western Union</a>"], "photo_reference": "CmRaAAAA2EYyX60lXKEj_IFSK-hNbexfIUal-OXt1wFwjLi8SoHlDiUZPc2C9AqTqG0h6wVJRnbz8_udN8lvVSxHLOlfsZsXC5k80C5pCcgEK192SJh3mKSiZ8fr39SNz0Qs_uNoEhBNxSEXG3yswTzmaY-UMbzlGhTSw3UmXfec9KHkzkP6aCGLu1YeFg", "width": 1000}], "place_id": "ChIJzYV8balhZIgRZ0_3L5XF5fA", "plus_code": {"compound_code": "54CM+WW Nashville, TN, USA", "global_code": "868M54CM+WW"}, "reference": "ChIJzYV8balhZIgRZ0_3L5XF5fA", "scope": "GOOGLE", "types": ["finance", "point_of_interest", "establishment"], "vicinity": "Pilot Travel Centers, 6418 Centennial Boulevard, Nashville"}, {"business_status": "OPERATIONAL", "geometry": {"location": {"lat": 36.1722647, "lng": -86.8652182}, "viewport": {"northeast": {"lat": 36.1733402802915, "lng": -86.8638257697085}, "southwest": {"lat": 36.1706423197085, "lng": -86.8665237302915}}}, "icon": "https://maps.gstatic.com/mapfiles/place_api/icons/v1/png_71/shopping-71.png", "name": "Pilot Travel Center", "opening_hours": {"open_now": true}, "photos": [{"height": 609, "html_attributions": ["<a href=\"https://maps.google.com/maps/contrib/101939042385331422617\">Pilot Travel Center</a>"], "photo_reference": "CmRaAAAABThuaUe0UFcCuQsNNmQZx7Fqb9Tx5AcZ8biK5LNDTo4a1hJtvtEK0amHRNId_ZiE7CakIj8EelnE6uI8jvswpo4J5uLouyAfnE-dk9LfirohevV7v457vAuDRoCJxux-EhC3w-m2gg85837rSp1limoFGhRoGuYt2AF-eDpve8UTo488wdmLow", "width": 1080}], "place_id": "ChIJcSfOzK5hZIgR8bqwdz9eEUA", "plus_code": {"compound_code": "54CM+WW Nashville, TN, USA", "global_code": "868M54CM+WW"}, "rating": 3.8, "reference": "ChIJcSfOzK5hZIgR8bqwdz9eEUA", "scope": "GOOGLE", "types": ["gas_station", "convenience_store", "food", "point_of_interest", "store", "establishment"], "user_ratings_total": 970, "vicinity": "6418 Centennial Boulevard, Nashville"}, {"business_status": "OPERATIONAL", "geometry": {"location": {"lat": 36.1722898, "lng": -86.8652199}, "viewport": {"northeast": {"lat": 36.17335293029151, "lng": -86.86382551970848}, "southwest": {"lat": 36.17065496970851, "lng": -86.8665234802915}}}, "icon": "https://maps.gstatic.com/mapfiles/place_api/icons/v1/png_71/atm-71.png", "name": "ATM", "opening_hours": {"open_now": true}, "place_id": "ChIJ69jRzK5hZIgRbABiwr4kvE4", "plus_code": {"compound_code": "54CM+WW Nashville, TN, USA", "global_code": "868M54CM+WW"}, "rating": 2, "reference": "ChIJ69jRzK5hZIgRbABiwr4kvE4", "scope": "GOOGLE", "types": ["atm", "finance", "point_of_interest", "establishment"], "user_ratings_total": 1, "vicinity": "6418 Centennial Boulevard, Nashville"}]}, {"mapped_location": "(36.04096349145075, -86.71258288534871)", "address": "5832 US-31 ALT, Nashville", "results": [{"business_status": "OPERATIONAL", "geometry": {"location": {"lat": 36.0409283, "lng": -86.7122723}, "viewport": {"northeast": {"lat": 36.0423378802915, "lng": -86.7111842697085}, "southwest": {"lat": 36.0396399197085, "lng": -86.7138822302915}}}, "icon": "https://maps.gstatic.com/mapfiles/place_api/icons/v1/png_71/shopping-71.png", "name": "Reinalt-Thomas Corporation", "place_id": "ChIJFXy7ciZwZIgRiTN4gECl5BI", "plus_code": {"compound_code": "27RQ+93 Nashville, TN, USA", "global_code": "868M27RQ+93"}, "reference": "ChIJFXy7ciZwZIgRiTN4gECl5BI", "scope": "GOOGLE", "types": ["car_repair", "point_of_interest", "store", "establishment"], "vicinity": "5832 Nolensville Pike, Nashville"}, {"business_status": "OPERATIONAL", "geometry": {"location": {"lat": 36.040923, "lng": -86.712272}, "viewport": {"northeast": {"lat": 36.04233523029151, "lng": -86.71118411970849}, "southwest": {"lat": 36.03963726970851, "lng": -86.71388208029151}}}, "icon": "https://maps.gstatic.com/mapfiles/place_api/icons/v1/png_71/shopping-71.png", "name": "Discount Tire", "opening_hours": {"open_now": true}, "photos": [{"height": 540, "html_attributions": ["<a href=\"https://maps.google.com/maps/contrib/110792002515695092540\">Discount Tire</a>"], "photo_reference": "CmRaAAAAaBhv8R4aUP1EFkP7YYbV_YM6nv_t-QNXlDruJAtOWfR_YSD-sb5mX1kRAPK9GlaxiHSjoXe7IwGD6fXra2RitN3ZvHU2v9P-iE2H0zVjiB70qWwJSr9EYWdvrvdb_ZGYEhBqwtLbAjfp9JOzdNQrVG5pGhRdrhQ60BzGkJODx0ColF_Dzlwe6w", "width": 1200}], "place_id": "ChIJ12WjQCZwZIgRiuXifmb3tFk", "plus_code": {"compound_code": "27RQ+93 Nashville, TN, USA", "global_code": "868M27RQ+93"}, "rating": 4.7, "reference": "ChIJ12WjQCZwZIgRiuXifmb3tFk", "scope": "GOOGLE", "types": ["car_repair", "point_of_interest", "store", "establishment"], "user_ratings_total": 606, "vicinity": "5832 Nolensville Pike, Nashville"}, {"business_status": "OPERATIONAL", "geometry": {"location": {"lat": 36.0414785, "lng": -86.712339}, "viewport": {"northeast": {"lat": 36.0428110302915, "lng": -86.7112369197085}, "southwest": {"lat": 36.0401130697085, "lng": -86.7139348802915}}}, "icon": "https://maps.gstatic.com/mapfiles/place_api/icons/v1/png_71/generic_business-71.png", "name": "Car Wash USA Express- Nolensville", "opening_hours": {"open_now": true}, "photos": [{"height": 3024, "html_attributions": ["<a href=\"https://maps.google.com/maps/contrib/111001095207872245330\">Car Wash USA Express- Nolensville</a>"], "photo_reference": "CmRZAAAAcwVSQJcuzk2Z4GK_L_pBu5T7WVPyzVQ5mGQgAb1KoJVQcSUbjbkxBWjGJn6xsSyEr7LL7EoR236OIS2A2Drxc5Lz0BrjoLIN-_gVcx93kaa9D1Es7BheyqoRn0kNiyAfEhDa0nuF061eQhJYLgNXe4zyGhRe2Jvrpwha_i4BGviP329D8Wz-3Q", "width": 4032}], "place_id": "ChIJDUfhLyZwZIgRNpaAuYquCFQ", "plus_code": {"compound_code": "27RQ+H3 Nashville, TN, USA", "global_code": "868M27RQ+H3"}, "rating": 3.9, "reference": "ChIJDUfhLyZwZIgRNpaAuYquCFQ", "scope": "GOOGLE", "types": ["car_wash", "point_of_interest", "establishment"], "user_ratings_total": 220, "vicinity": "5828 Nolensville Pike, Nashville"}, {"business_status": "OPERATIONAL", "geometry": {"location": {"lat": 36.04213779999999, "lng": -86.7118737}, "viewport": {"northeast": {"lat": 36.04346693029149, "lng": -86.7103877697085}, "southwest": {"lat": 36.04076896970849, "lng": -86.71308573029151}}}, "icon": "https://maps.gstatic.com/mapfiles/place_api/icons/v1/png_71/generic_business-71.png", "name": "American Family Care Nashville South", "opening_hours": {"open_now": true}, "photos": [{"height": 3264, "html_attributions": ["<a href=\"https://maps.google.com/maps/contrib/112305647775457658496\">Diana Levesque</a>"], "photo_reference": "CmRaAAAA4Jbh2bu56NSYqqaUut-zrgi99SMNrAytXVJT2SFzBWg1ULA_Cq3BG2nCJi_8FEMhErVR4IeXmQ0ecXXC0ZNCdlwwsbMQIlykPeTd_C-0hybw78RJyjIwU5-PZHVMEO0CEhDv47JLVZ_d7fBXADkHJ-b8GhScom5OGcpPnJHa5YRnovqX5Q1WPQ", "width": 1840}], "place_id": "ChIJGY5q0SdwZIgRzWP0KgGgqKQ", "plus_code": {"compound_code": "27RQ+V7 Nashville, TN, USA", "global_code": "868M27RQ+V7"}, "rating": 4.2, "reference": "ChIJGY5q0SdwZIgRzWP0KgGgqKQ", "scope": "GOOGLE", "types": ["doctor", "health", "point_of_interest", "establishment"], "user_ratings_total": 148, "vicinity": "5826 Nolensville Pike, Nashville"}, {"business_status": "OPERATIONAL", "geometry": {"location": {"lat": 36.0406263, "lng": -86.7108083}, "viewport": {"northeast": {"lat": 36.0420135302915, "lng": -86.7094531197085}, "southwest": {"lat": 36.0393155697085, "lng": -86.7121510802915}}}, "icon": "https://maps.gstatic.com/mapfiles/place_api/icons/v1/png_71/parking-71.png", "name": "5838 Nolensville Pike Parking", "place_id": "ChIJB7pWlyhwZIgRUsgLbjGW7js", "plus_code": {"compound_code": "27RQ+7M Nashville, TN, USA", "global_code": "868M27RQ+7M"}, "rating": 5, "reference": "ChIJB7pWlyhwZIgRUsgLbjGW7js", "scope": "GOOGLE", "types": ["parking", "point_of_interest", "establishment"], "user_ratings_total": 2, "vicinity": "5838 Nolensville Pike, Nashville"}]}, {"mapped_location": "(36.27976, -86.70921)", "address": "1105 Gallatin Pike N, Madison", "results": [{"business_status": "OPERATIONAL", "geometry": {"location": {"lat": 36.2797625, "lng": -86.7092109}, "viewport": {"northeast": {"lat": 36.2810661302915, "lng": -86.7076024197085}, "southwest": {"lat": 36.2783681697085, "lng": -86.71030038029151}}}, "icon": "https://maps.gstatic.com/mapfiles/place_api/icons/v1/png_71/atm-71.png", "name": "CoinFlip Bitcoin ATM", "opening_hours": {"open_now": true}, "photos": [{"height": 1801, "html_attributions": ["<a href=\"https://maps.google.com/maps/contrib/105673477196992960128\">CoinFlip Bitcoin ATM</a>"], "photo_reference": "CmRaAAAATrKANELkeTT3VwWSIRNZxwMJ5tLr0UOikUK6jq5P4C3ieM9pjmEECVxLcekFCYW0JfMzgkKy6iyljZBCSWs_JvdVFDiKzV_daDg_TOhHmgw2E4fZOsP4pfkQcgUq4q7nEhB2iua7m7oGpsKFne2zZwEeGhQf6wIRjtHrAX0cNuHlpzhqoFlHkg", "width": 1801}], "place_id": "ChIJgzkzc3pDZIgRATAwfJd9yi8", "plus_code": {"compound_code": "77HR+W8 Nashville, TN, USA", "global_code": "868M77HR+W8"}, "rating": 5, "reference": "ChIJgzkzc3pDZIgRATAwfJd9yi8", "scope": "GOOGLE", "types": ["atm", "finance", "point_of_interest", "establishment"], "user_ratings_total": 3, "vicinity": "1105 Gallatin Pike North, Nashville"}, {"business_status": "OPERATIONAL", "geometry": {"location": {"lat": 36.2797625, "lng": -86.7092109}, "viewport": {"northeast": {"lat": 36.2810371802915, "lng": -86.7076158197085}, "southwest": {"lat": 36.2783392197085, "lng": -86.7103137802915}}}, "icon": "https://maps.gstatic.com/mapfiles/place_api/icons/v1/png_71/generic_business-71.png", "name": "Vigo", "opening_hours": {"open_now": true}, "photos": [{"height": 1000, "html_attributions": ["<a href=\"https://maps.google.com/maps/contrib/100842382828121329044\">Vigo</a>"], "photo_reference": "CmRaAAAAjYGwDWGcugKVSMTm8oyEwf6W0Rb4lhB4uyEi9ZqA6XVrRbn78fP2dTp_qYEyfAJZFOjkgaeIem4RgyHmfWLLbQCpaWMlyEWiOK7WoiF2zJ41vL5mgsRtwHfCQ-DCLvWeEhBhfQ1Nwq1OZQ5gxq7WcfDYGhQest8XOhjenGNy2jqGwl7YAVWY_g", "width": 1000}], "place_id": "ChIJFXhxjvhDZIgRp4bbd9R7yTo", "plus_code": {"compound_code": "77HR+W8 Nashville, TN, USA", "global_code": "868M77HR+W8"}, "reference": "ChIJFXhxjvhDZIgRp4bbd9R7yTo", "scope": "GOOGLE", "types": ["finance", "point_of_interest", "establishment"], "vicinity": "Jordan Market, 1105 Gallatin Pike North, Madison"}, {"business_status": "OPERATIONAL", "geometry": {"location": {"lat": 36.279817, "lng": -86.709173}, "viewport": {"northeast": {"lat": 36.28109338029149, "lng": -86.7075834697085}, "southwest": {"lat": 36.2783954197085, "lng": -86.71028143029152}}}, "icon": "https://maps.gstatic.com/mapfiles/place_api/icons/v1/png_71/shopping-71.png", "name": "Smoke For Less", "opening_hours": {"open_now": true}, "photos": [{"height": 3264, "html_attributions": ["<a href=\"https://maps.google.com/maps/contrib/107029038632948268004\">MAURICE WILEY</a>"], "photo_reference": "CmRaAAAAfMzmrMejm0860AoIwTZT64EI3Ofu3JGQ79wLphwOCACID88U5JzilaNAkpfCWsXmyFSFWANdltZFvRshZi6ORdR_CIT8oGnDhKMV9NQYZs5H9F3nXr0XGj6TgU9jF7EYEhDUq-f7__1rULPWjqr69G4rGhTZk2i5Wo-iT4EQkLB1isH5SAqD_Q", "width": 2448}], "place_id": "ChIJq3BKrA1DZIgRJUN_MT7Apo4", "plus_code": {"compound_code": "77HR+W8 Nashville, TN, USA", "global_code": "868M77HR+W8"}, "rating": 4.4, "reference": "ChIJq3BKrA1DZIgRJUN_MT7Apo4", "scope": "GOOGLE", "types": ["point_of_interest", "store", "establishment"], "user_ratings_total": 107, "vicinity": "1105 Gallatin Pike North, Madison"}, {"business_status": "OPERATIONAL", "geometry": {"location": {"lat": 36.2799871, "lng": -86.7089187}, "viewport": {"northeast": {"lat": 36.2812914302915, "lng": -86.7074059697085}, "southwest": {"lat": 36.2785934697085, "lng": -86.71010393029151}}}, "icon": "https://maps.gstatic.com/mapfiles/place_api/icons/v1/png_71/generic_business-71.png", "name": "Pro Tint Rivergate", "place_id": "ChIJCyn9TAxDZIgRvxh_24c9Jz8", "plus_code": {"compound_code": "77HR+XC Nashville, TN, USA", "global_code": "868M77HR+XC"}, "rating": 4, "reference": "ChIJCyn9TAxDZIgRvxh_24c9Jz8", "scope": "GOOGLE", "types": ["car_repair", "point_of_interest", "establishment"], "user_ratings_total": 4, "vicinity": "1107 Gallatin Pike North, Madison"}, {"business_status": "OPERATIONAL", "geometry": {"location": {"lat": 36.2799871, "lng": -86.7089187}, "viewport": {"northeast": {"lat": 36.2812914302915, "lng": -86.7074059697085}, "southwest": {"lat": 36.2785934697085, "lng": -86.71010393029151}}}, "icon": "https://maps.gstatic.com/mapfiles/place_api/icons/v1/png_71/generic_business-71.png", "name": "Tint Masters", "opening_hours": {"open_now": true}, "photos": [{"height": 3456, "html_attributions": ["<a href=\"https://maps.google.com/maps/contrib/115290261808889783256\">Mike Thomas</a>"], "photo_reference": "CmRaAAAAX637CwEBPyyaKsJjQ2n_cjntrOMLWvFoKLJm_huLC2wiwBlhytysT0X0cIO4t5A8K_n-wGlpMcOl2YAHIJfLHg6jtdF-ingZOlu66aKErsPe5IfJGpBGbTdrixfc9Ui6EhBM08GXNrhzSVdq0mVZlbDlGhTr-CHR7l7s6FcBveTh6YMwKpqOXA", "width": 4608}], "place_id": "ChIJH727TV1dZIgR2M9mWG7vF-I", "plus_code": {"compound_code": "77HR+XC Nashville, TN, USA", "global_code": "868M77HR+XC"}, "rating": 3.7, "reference": "ChIJH727TV1dZIgR2M9mWG7vF-I", "scope": "GOOGLE", "types": ["car_repair", "point_of_interest", "establishment"], "user_ratings_total": 10, "vicinity": "1107 Gallatin Pike North, Madison"}]}, {"mapped_location": "(35.84218221147102, -86.83109479999999)", "address": "1011 Reams Fleming Blvd, Nan", "results": [{"business_status": "OPERATIONAL", "geometry": {"location": {"lat": 35.8421822, "lng": -86.8310948}, "viewport": {"northeast": {"lat": 35.84362608029149, "lng": -86.82898819999998}, "southwest": {"lat": 35.8409281197085, "lng": -86.831797}}}, "icon": "https://maps.gstatic.com/mapfiles/place_api/icons/v1/png_71/generic_business-71.png", "name": "Lampo Licensing, LLC", "place_id": "ChIJZWdgWFCBY4gRZzL-fiu9mg8", "plus_code": {"compound_code": "R5R9+VH Franklin, TN, USA", "global_code": "867MR5R9+VH"}, "reference": "ChIJZWdgWFCBY4gRZzL-fiu9mg8", "scope": "GOOGLE", "types": ["point_of_interest", "establishment"], "vicinity": "1011 Reams Fleming Boulevard, Franklin"}, {"business_status": "OPERATIONAL", "geometry": {"location": {"lat": 35.8421822, "lng": -86.8310948}, "viewport": {"northeast": {"lat": 35.84362608029149, "lng": -86.82898819999998}, "southwest": {"lat": 35.8409281197085, "lng": -86.831797}}}, "icon": "https://maps.gstatic.com/mapfiles/place_api/icons/v1/png_71/generic_business-71.png", "name": "Ramsey Solutions", "opening_hours": {"open_now": true}, "photos": [{"height": 1080, "html_attributions": ["<a href=\"https://maps.google.com/maps/contrib/102515188456983934415\">Ramsey Solutions</a>"], "photo_reference": "CmRaAAAA3IgrQSGY8UIiSCmLZzbCbGdsTyq6vGSYTNRoC4NlU0MBlccJXWavckj0MU_6-zE9X4REGZspe10byRQz8PFoooMGHnEmwPFNY7Qjv8G7fXf84OfYHBkzJoy__MTgkfvlEhBDYU4-bQxL5mtBC28hESJ7GhQk9qpXK3LGBXIEVJPAZEyxxPclwg", "width": 1080}], "place_id": "ChIJL5n58lV5ZIgRzN5CSCoPbeY", "plus_code": {"compound_code": "R5R9+VH Franklin, TN, USA", "global_code": "867MR5R9+VH"}, "rating": 4.7, "reference": "ChIJL5n58lV5ZIgRzN5CSCoPbeY", "scope": "GOOGLE", "types": ["finance", "point_of_interest", "establishment"], "user_ratings_total": 145, "vicinity": "1011 Reams Fleming Boulevard, Franklin"}, {"business_status": "OPERATIONAL", "geometry": {"location": {"lat": 35.8390357, "lng": -86.8294664}, "viewport": {"northeast": {"lat": 35.8401356302915, "lng": -86.8281236697085}, "southwest": {"lat": 35.8374376697085, "lng": -86.83082163029151}}}, "icon": "https://maps.gstatic.com/mapfiles/place_api/icons/v1/png_71/generic_business-71.png", "name": "Cartcon 1 Airsoft Fields", "place_id": "ChIJn4pjMxiBY4gRAhxaYfPXikU", "plus_code": {"compound_code": "R5QC+J6 Franklin, TN, USA", "global_code": "867MR5QC+J6"}, "rating": 4.4, "reference": "ChIJn4pjMxiBY4gRAhxaYfPXikU", "scope": "GOOGLE", "types": ["point_of_interest", "establishment"], "user_ratings_total": 7, "vicinity": "4478 Pratt Lane, Franklin"}, {"geometry": {"location": {"lat": 35.8389538, "lng": -86.8287801}, "viewport": {"northeast": {"lat": 35.8401172302915, "lng": -86.82730026970849}, "southwest": {"lat": 35.8374192697085, "lng": -86.8299982302915}}}, "icon": "https://maps.gstatic.com/mapfiles/place_api/icons/v1/png_71/generic_business-71.png", "name": "CartCon1", "place_id": "ChIJqzOpTtCAY4gROA3DZO2-S7c", "reference": "ChIJqzOpTtCAY4gROA3DZO2-S7c", "scope": "GOOGLE", "types": ["premise", "point_of_interest", "establishment"], "vicinity": "Franklin"}, {"business_status": "OPERATIONAL", "geometry": {"location": {"lat": 35.84776899999999, "lng": -86.831085}, "viewport": {"northeast": {"lat": 35.84876558029149, "lng": -86.82850574999998}, "southwest": {"lat": 35.8460676197085, "lng": -86.83194475000002}}}, "icon": "https://maps.gstatic.com/mapfiles/place_api/icons/v1/png_71/cemetery_grave-71.png", "name": "Haleacre Cemetery", "place_id": "ChIJn_7olciAY4gRJgpc1H2Tj5E", "plus_code": {"compound_code": "R5X9+4H Franklin, TN, USA", "global_code": "867MR5X9+4H"}, "rating": 5, "reference": "ChIJn_7olciAY4gRJgpc1H2Tj5E", "scope": "GOOGLE", "types": ["cemetery", "point_of_interest", "establishment"], "user_ratings_total": 1, "vicinity": "Franklin"}]}, {"mapped_location": "(36.1334355, -86.7274911)", "address": "345 Hill Ave, Nashville", "results": [{"business_status": "OPERATIONAL", "geometry": {"location": {"lat": 36.1334355, "lng": -86.7274911}, "viewport": {"northeast": {"lat": 36.13510523029149, "lng": -86.72634676970848}, "southwest": {"lat": 36.1324072697085, "lng": -86.72904473029149}}}, "icon": "https://maps.gstatic.com/mapfiles/place_api/icons/v1/png_71/generic_business-71.png", "name": "Frontier Diagnostics", "place_id": "ChIJ9QCqbrNoZIgRvzk4eihrqZ4", "plus_code": {"compound_code": "47MF+92 Nashville, TN, USA", "global_code": "868M47MF+92"}, "reference": "ChIJ9QCqbrNoZIgRvzk4eihrqZ4", "scope": "GOOGLE", "types": ["point_of_interest", "establishment"], "vicinity": "345 Hill Avenue, Nashville"}, {"business_status": "OPERATIONAL", "geometry": {"location": {"lat": 36.1334355, "lng": -86.7274911}, "viewport": {"northeast": {"lat": 36.13510523029149, "lng": -86.72634676970848}, "southwest": {"lat": 36.1324072697085, "lng": -86.72904473029149}}}, "icon": "https://maps.gstatic.com/mapfiles/place_api/icons/v1/png_71/generic_business-71.png", "name": "Infinity Hospitality", "opening_hours": {"open_now": true}, "photos": [{"height": 2400, "html_attributions": ["<a href=\"https://maps.google.com/maps/contrib/112917894744442173212\">Infinity Hospitality</a>"], "photo_reference": "CmRaAAAAEnaXOZVGFH4RHOqAQK1yjWodzRxAeS0uyLc21sdYG6iPwxsqD1Ary4v2Y69pbX7PXrJ_aGAhbCNV_YTn-h_-6Xybh4fxgG0K9rSbLBDAIbGRlPUXh5ZxwV_3Xr39nJmGEhB8cY3yI1ts3lCgF_gtinNbGhSyTKywkAeEbI8J-pYSK11HchNIQQ", "width": 3600}], "place_id": "ChIJgRIP4a1oZIgR0QLlcw4-KpY", "plus_code": {"compound_code": "47MF+92 Nashville, TN, USA", "global_code": "868M47MF+92"}, "rating": 4.4, "reference": "ChIJgRIP4a1oZIgR0QLlcw4-KpY", "scope": "GOOGLE", "types": ["point_of_interest", "establishment"], "user_ratings_total": 28, "vicinity": "345 Hill Avenue, Nashville"}, {"business_status": "OPERATIONAL", "geometry": {"location": {"lat": 36.1337479, "lng": -86.7274803}, "viewport": {"northeast": {"lat": 36.1352938302915, "lng": -86.7262715697085}, "southwest": {"lat": 36.1325958697085, "lng": -86.72896953029151}}}, "icon": "https://maps.gstatic.com/mapfiles/place_api/icons/v1/png_71/generic_business-71.png", "name": "Music City Vacation Homes", "opening_hours": {"open_now": true}, "photos": [{"height": 900, "html_attributions": ["<a href=\"https://maps.google.com/maps/contrib/103845498201456156812\">Music City Vacation Homes</a>"], "photo_reference": "CmRaAAAAHW-mRoaWge1xT6aN3RsOKvpOPHjA7dgK4eNNe7QYJxDQxPbUqyVnQnTe9Mpc_yw8r7n-eaZlO9j8FcRmGJN75Pupwj8aJCunCnSDWDSGyoUULP3-Eoz0tY_7nFN1S_KMEhCCxQaMHKmt7e97UVZ3mkN6GhSvi2SUvh-w0EJkjmhREyHNMWQ_wA", "width": 1920}], "place_id": "ChIJgfzrRIJmZIgRQc-6ieTFzto", "plus_code": {"compound_code": "47MF+F2 Nashville, TN, USA", "global_code": "868M47MF+F2"}, "rating": 4, "reference": "ChIJgfzrRIJmZIgRQc-6ieTFzto", "scope": "GOOGLE", "types": ["point_of_interest", "establishment"], "user_ratings_total": 8, "vicinity": "345 Hill Avenue, Nashville"}, {"business_status": "OPERATIONAL", "geometry": {"location": {"lat": 36.133868, "lng": -86.727543}, "viewport": {"northeast": {"lat": 36.1353578802915, "lng": -86.72629431970849}, "southwest": {"lat": 36.1326599197085, "lng": -86.72899228029151}}}, "icon": "https://maps.gstatic.com/mapfiles/place_api/icons/v1/png_71/generic_business-71.png", "name": "Diagnovus", "opening_hours": {"open_now": true}, "place_id": "ChIJTaM7crNoZIgRbwcfc7kWZsc", "plus_code": {"compound_code": "47MC+GX Nashville, TN, USA", "global_code": "868M47MC+GX"}, "reference": "ChIJTaM7crNoZIgRbwcfc7kWZsc", "scope": "GOOGLE", "types": ["health", "point_of_interest", "establishment"], "vicinity": "336 Hill Avenue, Nashville"}, {"business_status": "OPERATIONAL", "geometry": {"location": {"lat": 36.13430049999999, "lng": -86.7277848}, "viewport": {"northeast": {"lat": 36.13561438029149, "lng": -86.7263286197085}, "southwest": {"lat": 36.1329164197085, "lng": -86.7290265802915}}}, "icon": "https://maps.gstatic.com/mapfiles/place_api/icons/v1/png_71/generic_business-71.png", "name": "G Catering", "opening_hours": {"open_now": true}, "photos": [{"height": 1365, "html_attributions": ["<a href=\"https://maps.google.com/maps/contrib/114267911465747219780\">Drew Smyth</a>"], "photo_reference": "CmRaAAAAmEIBVHCdRLcI4GSMfY4hLzGT-kElg49pSGexUWY3zFif4VaenO_qgjomDNt4jdmzAGsvDYKSYaqA_L-Z_XO4QCphj7uVKh13Fs8EQG1VXevtPKNT8FwX61_d1pFA1xrHEhDcwgkKqcvnXTM4xA2DdGxsGhTH5taeHT_LvrKwoF4LxCurjT_e5A", "width": 2048}], "place_id": "ChIJd23iJrJoZIgRkwGG4fv09ck", "plus_code": {"compound_code": "47MC+PV Nashville, TN, USA", "global_code": "868M47MC+PV"}, "rating": 5, "reference": "ChIJd23iJrJoZIgRkwGG4fv09ck", "scope": "GOOGLE", "types": ["food", "point_of_interest", "establishment"], "user_ratings_total": 42, "vicinity": "332 Hill Avenue, Nashville"}]}, {"mapped_location": "(36.1377543, -86.800359)", "address": "1628 21st Ave S, Nashville", "results": [{"business_status": "OPERATIONAL", "geometry": {"location": {"lat": 36.1377543, "lng": -86.800359}, "viewport": {"northeast": {"lat": 36.1391501802915, "lng": -86.7990193697085}, "southwest": {"lat": 36.1364522197085, "lng": -86.80171733029151}}}, "icon": "https://maps.gstatic.com/mapfiles/place_api/icons/v1/png_71/restaurant-71.png", "name": "E3 Chophouse", "opening_hours": {"open_now": false}, "photos": [{"height": 1080, "html_attributions": ["<a href=\"https://maps.google.com/maps/contrib/101396168327165179722\">E3 Chophouse</a>"], "photo_reference": "CmRaAAAAzzcjVounQtCZ3_2jF7hVpTIQwBIlPFx1b-hPVUgzQVVShKYtAoHhTm3RtPAjSN5QmbnAAneVjCX2IbjBzSDBa-F9x4aD5_Lq3JZCyG5KnxVSS4Vi81hNm-PJDtVHd2dkEhBzmnWAkqd6IvFfuVhv4N_aGhRrGjZsdoBtnrlPqD-7Tkw9Z9oC3w", "width": 1920}], "place_id": "ChIJz1emwHZnZIgR0GBUdBzYNTA", "plus_code": {"compound_code": "45QX+4V Nashville, TN, USA", "global_code": "868M45QX+4V"}, "rating": 4.4, "reference": "ChIJz1emwHZnZIgR0GBUdBzYNTA", "scope": "GOOGLE", "types": ["restaurant", "food", "point_of_interest", "establishment"], "user_ratings_total": 98, "vicinity": "1628 21st Avenue South, Nashville"}, {"business_status": "OPERATIONAL", "geometry": {"location": {"lat": 36.1379001, "lng": -86.80041949999999}, "viewport": {"northeast": {"lat": 36.1391916302915, "lng": -86.79907016970849}, "southwest": {"lat": 36.1364936697085, "lng": -86.8017681302915}}}, "icon": "https://maps.gstatic.com/mapfiles/place_api/icons/v1/png_71/atm-71.png", "name": "ATM (Regions Bank)", "opening_hours": {"open_now": true}, "photos": [{"height": 1389, "html_attributions": ["<a href=\"https://maps.google.com/maps/contrib/107643110199528850763\">Jody May</a>"], "photo_reference": "CmRaAAAAbLuWE-6gAXzNLxGV1mIdr3v_8eeINhJWgQ1ToDw5rzTw9Dp-iI_mEBv5SKZMoDpPqDw1nVgk47pQFbkhBXydyM_k6qeuRxEa04EdK5PzTzlBABxlc-skuEzsZpAcQopiEhDV0zhidZ1FLToVBTRr_sIuGhQrd2cjupWWpkMRCR6jItZgVc9dlw", "width": 1397}], "place_id": "ChIJKdJtPJ9mZIgRd7dwJ1al4YU", "plus_code": {"compound_code": "45QX+5R Nashville, TN, USA", "global_code": "868M45QX+5R"}, "reference": "ChIJKdJtPJ9mZIgRd7dwJ1al4YU", "scope": "GOOGLE", "types": ["atm", "finance", "point_of_interest", "establishment"], "vicinity": "1624 21st Avenue South, Nashville"}, {"business_status": "OPERATIONAL", "geometry": {"location": {"lat": 36.137605, "lng": -86.800191}, "viewport": {"northeast": {"lat": 36.1389539802915, "lng": -86.79884201970849}, "southwest": {"lat": 36.1362560197085, "lng": -86.80153998029151}}}, "icon": "https://maps.gstatic.com/mapfiles/place_api/icons/v1/png_71/generic_business-71.png", "name": "Wedgewood Ave & 21st Ave S WB", "photos": [{"height": 960, "html_attributions": ["<a href=\"https://maps.google.com/maps/contrib/108726807092383055480\">Jason Harper</a>"], "photo_reference": "CmRaAAAAp6v6iYvIeY_hYMJgwLttckCAx1CU7l5w8xFb23fIA67WqwTkEPeRGn_wBwCGwD51rAgJCWOCQtvcgJcClcGNtmW-eeVZTK4Hi60p_eoUuO0ZxCH6wmm16fatdt4FzYJbEhD0cKSTr0taTFb5oaSeeuPkGhRwnfFZfUTzy0jx-DvfGI-nngNQGw", "width": 720}], "place_id": "ChIJdR6vF59mZIgRFcPhH9pxK5o", "plus_code": {"compound_code": "45QX+2W Nashville, TN, USA", "global_code": "868M45QX+2W"}, "reference": "ChIJdR6vF59mZIgRFcPhH9pxK5o", "scope": "GOOGLE", "types": ["transit_station", "point_of_interest", "establishment"], "vicinity": "United States"}, {"business_status": "OPERATIONAL", "geometry": {"location": {"lat": 36.1379796, "lng": -86.80051809999999}, "viewport": {"northeast": {"lat": 36.1392494802915, "lng": -86.79915891970849}, "southwest": {"lat": 36.1365515197085, "lng": -86.8018568802915}}}, "icon": "https://maps.gstatic.com/mapfiles/place_api/icons/v1/png_71/bank-71.png", "name": "Regions Bank", "opening_hours": {"open_now": true}, "photos": [{"height": 4032, "html_attributions": ["<a href=\"https://maps.google.com/maps/contrib/112891854882835855722\">Vasan Serca</a>"], "photo_reference": "CmRaAAAAjJJtJewgfOlv4UfFUPj7e6mVpIvDxNdjJIVIsDvcAJjzEXFBaxNXEUnFOXkoVBCtouK23SsjILuD0un9it8Nlpq9Jop6SaURiPqBZU97NcCeGdioCHNgypbdQVLpJ9EVEhD6kbyA6hUO_9LtuDP4SwZjGhQMChoTL8E8kTlfT4942zH-pwvj6g", "width": 3024}], "place_id": "ChIJXXvgOZ9mZIgR-RhriOBnaWg", "plus_code": {"compound_code": "45QX+5Q Nashville, TN, USA", "global_code": "868M45QX+5Q"}, "rating": 4.2, "reference": "ChIJXXvgOZ9mZIgR-RhriOBnaWg", "scope": "GOOGLE", "types": ["bank", "atm", "finance", "point_of_interest", "establishment"], "user_ratings_total": 9, "vicinity": "1624 21st Avenue South, Nashville"}, {"business_status": "OPERATIONAL", "geometry": {"location": {"lat": 36.1380475, "lng": -86.8003385}, "viewport": {"northeast": {"lat": 36.1392967302915, "lng": -86.7989898197085}, "southwest": {"lat": 36.1365987697085, "lng": -86.80168778029152}}}, "icon": "https://maps.gstatic.com/mapfiles/place_api/icons/v1/png_71/generic_business-71.png", "name": "Regions Mortgage", "photos": [{"height": 1389, "html_attributions": ["<a href=\"https://maps.google.com/maps/contrib/107643110199528850763\">Jody May</a>"], "photo_reference": "CmRaAAAADQBZDjc3Bg6OOQYMIsAKcHCkD_9_3f9vYfSMOepx6vhsyhLCCG6wJdZLjwdYTpr-nKMo95V1qWAlwg-ewvWKp2-gwjXl4NkArq1FlHoGLyPBAPXN5o38ebBwFWal5wcYEhBtXa1mZ9KHa4UJejJI2gFmGhQ8Cv5dYGVk3em-sJyJqoFsRPBNKw", "width": 1397}], "place_id": "ChIJ1a8ePJ9mZIgR50FmGOMIAGY", "plus_code": {"compound_code": "45QX+6V Nashville, TN, USA", "global_code": "868M45QX+6V"}, "reference": "ChIJ1a8ePJ9mZIgR50FmGOMIAGY", "scope": "GOOGLE", "types": ["finance", "point_of_interest", "establishment"], "vicinity": "Nashville"}]}, {"mapped_location": "(36.0423, -86.95429)", "address": "8101 TN-100, Nashville", "results": [{"business_status": "OPERATIONAL", "geometry": {"location": {"lat": 36.0422963, "lng": -86.95429469999999}, "viewport": {"northeast": {"lat": 36.0437722802915, "lng": -86.95284481970849}, "southwest": {"lat": 36.0410743197085, "lng": -86.9555427802915}}}, "icon": "https://maps.gstatic.com/mapfiles/place_api/icons/v1/png_71/generic_business-71.png", "name": "Bellevue Family YMCA & J.L. Turner Lifelong Learning Ctr", "place_id": "ChIJCy38BSWGZIgREAg4RqRfXYg", "plus_code": {"compound_code": "22RW+W7 Nashville, TN, USA", "global_code": "868M22RW+W7"}, "rating": 4.4, "reference": "ChIJCy38BSWGZIgREAg4RqRfXYg", "scope": "GOOGLE", "types": ["point_of_interest", "establishment"], "user_ratings_total": 5, "vicinity": "8101 Tennessee 100, Nashville"}, {"business_status": "CLOSED_TEMPORARILY", "geometry": {"location": {"lat": 36.0422963, "lng": -86.95429469999999}, "viewport": {"northeast": {"lat": 36.0437722802915, "lng": -86.95284481970849}, "southwest": {"lat": 36.0410743197085, "lng": -86.9555427802915}}}, "icon": "https://maps.gstatic.com/mapfiles/place_api/icons/v1/png_71/generic_business-71.png", "name": "STAR Physical Therapy", "permanently_closed": true, "photos": [{"height": 2250, "html_attributions": ["<a href=\"https://maps.google.com/maps/contrib/110817675710469282872\">STAR Physical Therapy</a>"], "photo_reference": "CmRaAAAAxVGH3KUxu8oucn7wQid1aVIWwGwVTSSvIHN_w9ut1RjMjtNx5xF85JzBp0FmOjmSGD_camgrXXmxDLsB3HUJAxU44qF46rUpKx3nahNJvyxV3GqJn1565vV05xT2FgmNEhCiTHbK6JbX6RwOT3X5fS_YGhSLe3rKuVRjB7OYDZ8dZxyIVhr93Q", "width": 3000}], "place_id": "ChIJYckIBiWGZIgRFP-1Oo7O1AM", "plus_code": {"compound_code": "22RW+W7 Nashville, TN, USA", "global_code": "868M22RW+W7"}, "rating": 5, "reference": "ChIJYckIBiWGZIgRFP-1Oo7O1AM", "scope": "GOOGLE", "types": ["physiotherapist", "health", "point_of_interest", "establishment"], "user_ratings_total": 30, "vicinity": "8101 Tennessee 100, Nashville"}, {"business_status": "OPERATIONAL", "geometry": {"location": {"lat": 36.0422183, "lng": -86.9542946}, "viewport": {"northeast": {"lat": 36.04372258029149, "lng": -86.95282416970849}, "southwest": {"lat": 36.0410246197085, "lng": -86.9555221302915}}}, "icon": "https://maps.gstatic.com/mapfiles/place_api/icons/v1/png_71/generic_business-71.png", "name": "FiftyForward J.L. Turner Center", "opening_hours": {"open_now": true}, "photos": [{"height": 301, "html_attributions": ["<a href=\"https://maps.google.com/maps/contrib/110493363311610161520\">FiftyForward J.L. Turner Center</a>"], "photo_reference": "CmRaAAAAbKRVukuwJonhgQ5bhMBUxZ4pKB2ABx06olOAY6D49n7iiG3JOGkzGXT0O9y7wBeQH9bPxGt5e6ld3Fn9SbWV-Cn1d2TQ4rY06VIc2QmvPz4jm3AfJ4tvJdGiNQEGrQFZEhCOpRElgE8V71MvSg0l63ajGhRG8YmzYuaVtcwJu4JiIr0hfRtC6g", "width": 480}], "place_id": "ChIJYckIBiWGZIgR64DC-zRc22o", "plus_code": {"compound_code": "22RW+V7 Nashville, TN, USA", "global_code": "868M22RW+V7"}, "rating": 5, "reference": "ChIJYckIBiWGZIgR64DC-zRc22o", "scope": "GOOGLE", "types": ["point_of_interest", "establishment"], "user_ratings_total": 4, "vicinity": "8101 Tennessee 100, Nashville"}, {"business_status": "OPERATIONAL", "geometry": {"location": {"lat": 36.0423153, "lng": -86.9544482}, "viewport": {"northeast": {"lat": 36.0437838302915, "lng": -86.95292551970849}, "southwest": {"lat": 36.0410858697085, "lng": -86.9556234802915}}}, "icon": "https://maps.gstatic.com/mapfiles/place_api/icons/v1/png_71/generic_business-71.png", "name": "Bellevue Family YMCA", "opening_hours": {"open_now": true}, "photos": [{"height": 3264, "html_attributions": ["<a href=\"https://maps.google.com/maps/contrib/112191400593036504334\">American Marketing &amp; Publishing</a>"], "photo_reference": "CmRaAAAANaBhke-TNj0afvnAbG6dQkeQrLj6QB330-iwpAxi97s3WIbj_k8VRrYXumz_-K590PtQ9mFEB7Mahax5mCW1HF1lQ_HYZbccXjBhfG-I-QaJbt9rI9ZSJfXDpF0WG-4EEhBSHBc8srt-SpDCsuBhpxP-GhQcRyx-GIDqnkJVVGK-ENRkEhKfag", "width": 4928}], "place_id": "ChIJYckIBiWGZIgRka8SyseVMx8", "plus_code": {"compound_code": "22RW+W6 Nashville, TN, USA", "global_code": "868M22RW+W6"}, "rating": 4.8, "reference": "ChIJYckIBiWGZIgRka8SyseVMx8", "scope": "GOOGLE", "types": ["gym", "health", "point_of_interest", "establishment"], "user_ratings_total": 91, "vicinity": "8101 Tennessee 100, Nashville"}, {"business_status": "OPERATIONAL", "geometry": {"location": {"lat": 36.0422857, "lng": -86.9565497}, "viewport": {"northeast": {"lat": 36.0435259302915, "lng": -86.9552266697085}, "southwest": {"lat": 36.0408279697085, "lng": -86.95792463029152}}}, "icon": "https://maps.gstatic.com/mapfiles/place_api/icons/v1/png_71/generic_business-71.png", "name": "The Lodge at Natchez Trace", "opening_hours": {"open_now": true}, "photos": [{"height": 315, "html_attributions": ["<a href=\"https://maps.google.com/maps/contrib/113480377029453411505\">The Lodge at Natchez Trace</a>"], "photo_reference": "CmRaAAAAUM3qOYGYLYKOLZhCu5DhVx3vT8svIB6x2tbd8PazgEx5iIiV-uLtT_pzuK26BpCcFr972EvTGSI5IODJLXn9dgTJNEZWiEAIOqi4qXdMwzQVH3YGS7ZzkhTCHiXNJVH_EhAlQrZiZpzNDvoC5tzlGfIZGhSy0_ZQ356QuPs4kzCH-HzkuLCYmw", "width": 851}], "place_id": "ChIJTdRlriOGZIgRAkDfNUTUw5s", "plus_code": {"compound_code": "22RV+W9 Nashville, TN, USA", "global_code": "868M22RV+W9"}, "rating": 4.5, "reference": "ChIJTdRlriOGZIgRAkDfNUTUw5s", "scope": "GOOGLE", "types": ["health", "point_of_interest", "establishment"], "user_ratings_total": 17, "vicinity": "8207 Tennessee 100, Nashville"}]}, {"mapped_location": "(36.07859286157102, -86.94540530674591)", "address": "7604 US-70S, Nashville", "results": [{"business_status": "OPERATIONAL", "geometry": {"location": {"lat": 36.07852750000001, "lng": -86.94552879999999}, "viewport": {"northeast": {"lat": 36.07998578029149, "lng": -86.9439871197085}, "southwest": {"lat": 36.0772878197085, "lng": -86.9466850802915}}}, "icon": "https://maps.gstatic.com/mapfiles/place_api/icons/v1/png_71/atm-71.png", "name": "U.S. Bank ATM - Bellevue Center - Publix", "place_id": "ChIJH8eunvaIZIgRMMxRCZH076g", "plus_code": {"compound_code": "33H3+CQ Nashville, TN, USA", "global_code": "868M33H3+CQ"}, "rating": 5, "reference": "ChIJH8eunvaIZIgRMMxRCZH076g", "scope": "GOOGLE", "types": ["atm", "bank", "finance", "point_of_interest", "establishment"], "user_ratings_total": 2, "vicinity": "7604 U.S. 70S, Nashville"}, {"business_status": "OPERATIONAL", "geometry": {"location": {"lat": 36.0784873, "lng": -86.94548449999999}, "viewport": {"northeast": {"lat": 36.0796770802915, "lng": -86.94396351970849}, "southwest": {"lat": 36.0769791197085, "lng": -86.94666148029151}}}, "icon": "https://maps.gstatic.com/mapfiles/place_api/icons/v1/png_71/generic_business-71.png", "name": "Publix Catering at Bellevue Center", "opening_hours": {"open_now": true}, "photos": [{"height": 720, "html_attributions": ["<a href=\"https://maps.google.com/maps/contrib/108729876309301648530\">Publix Catering at Bellevue Center</a>"], "photo_reference": "CmRaAAAAuU0O_QgKsIdqEwiM_YBiNVZFNBhpPGWHAZQeM5-vOFEx7ISM1wx3max6kkgKnJqyzsdsWO9Akx261hCtC4SZMFSlL00GmUS1lXe1wcrFIHpq9xqIQuvWkuOwXVmUx_i1EhB62ZyNwnT-54FGiyQJDrhPGhS4BFQqpk4GbyrLNOz3BtoUaokt5w", "width": 720}], "place_id": "ChIJ8xn69daJZIgRaRbSE74dqvE", "plus_code": {"compound_code": "33H3+9R Nashville, TN, USA", "global_code": "868M33H3+9R"}, "price_level": 2, "reference": "ChIJ8xn69daJZIgRaRbSE74dqvE", "scope": "GOOGLE", "types": ["supermarket", "grocery_or_supermarket", "food", "point_of_interest", "store", "establishment"], "vicinity": "7604 Highway 70 South, Nashville"}, {"business_status": "OPERATIONAL", "geometry": {"location": {"lat": 36.0784312, "lng": -86.9455054}, "viewport": {"northeast": {"lat": 36.0796327302915, "lng": -86.94399706970849}, "southwest": {"lat": 36.0769347697085, "lng": -86.9466950302915}}}, "icon": "https://maps.gstatic.com/mapfiles/place_api/icons/v1/png_71/generic_business-71.png", "name": "Western Union", "opening_hours": {"open_now": true}, "photos": [{"height": 1000, "html_attributions": ["<a href=\"https://maps.google.com/maps/contrib/116758671254851202603\">Western Union</a>"], "photo_reference": "CmRaAAAAfFsdI-ETZoTbpx2IpqbdEJRtinLOY3owV3pRBE7K_8-Z3pQqD8HuIhCHn_UYQmOMRpUapVKNAu8nOEWjla015wqdI2YBl5XFDzKBXA8TBv7b_1-tblQAaKHYi2rT_QaHEhDzOs4oVckb4t3Yz4f-H1VHGhR08uuh5nY-BdVstJT9G_H9mVo7fw", "width": 1000}], "place_id": "ChIJORX-j_aIZIgRnxr2xbow9i8", "plus_code": {"compound_code": "33H3+9Q Nashville, TN, USA", "global_code": "868M33H3+9Q"}, "reference": "ChIJORX-j_aIZIgRnxr2xbow9i8", "scope": "GOOGLE", "types": ["finance", "point_of_interest", "establishment"], "vicinity": "Publix, 7604 Highway 70 South, Nashville"}, {"business_status": "OPERATIONAL", "geometry": {"location": {"lat": 36.078419, "lng": -86.945487}, "viewport": {"northeast": {"lat": 36.07962768029149, "lng": -86.9439863697085}, "southwest": {"lat": 36.0769297197085, "lng": -86.94668433029152}}}, "icon": "https://maps.gstatic.com/mapfiles/place_api/icons/v1/png_71/atm-71.png", "name": "City National Bank - ATM", "place_id": "ChIJ2-cYk92JZIgRqU1Ng_qNfcI", "plus_code": {"compound_code": "33H3+9R Nashville, TN, USA", "global_code": "868M33H3+9R"}, "reference": "ChIJ2-cYk92JZIgRqU1Ng_qNfcI", "scope": "GOOGLE", "types": ["atm", "bank", "finance", "point_of_interest", "establishment"], "vicinity": "7604 Highway 70 South, Nashville"}, {"business_status": "OPERATIONAL", "geometry": {"location": {"lat": 36.0784749, "lng": -86.9456119}, "viewport": {"northeast": {"lat": 36.07972838029149, "lng": -86.94441771970851}, "southwest": {"lat": 36.0770304197085, "lng": -86.94711568029152}}}, "icon": "https://maps.gstatic.com/mapfiles/place_api/icons/v1/png_71/atm-71.png", "name": "Presto! ATM at Publix\u00ae", "opening_hours": {"open_now": true}, "photos": [{"height": 720, "html_attributions": ["<a href=\"https://maps.google.com/maps/contrib/109899348279721518763\">Presto! ATM at Publix\u00ae</a>"], "photo_reference": "CmRaAAAAIq5JovRNc-XsZNiemvo3q73mkmgfEfiJc3vN3vvf2EeYqo1jPbHLuJGChI_dOhLHJYAAB0Ir6AhfGBKVvVkPbEiZoQ0Vb0V4bZB29ZNL3TXHwCt8upe0q4OkVMXC_CZ9EhAXP7rr_XH0XxuXBYHSR3dLGhSpLfRpko0Qbwb601o_mFwavApv4Q", "width": 720}], "place_id": "ChIJrdzQH-6IZIgRWX5bNL4Y4LQ", "plus_code": {"compound_code": "33H3+9Q Nashville, TN, USA", "global_code": "868M33H3+9Q"}, "price_level": 2, "reference": "ChIJrdzQH-6IZIgRWX5bNL4Y4LQ", "scope": "GOOGLE", "types": ["atm", "finance", "point_of_interest", "establishment"], "vicinity": "7604 Highway 70 South, Nashville"}]}, {"mapped_location": "(36.104907, -86.8646057)", "address": "5025 Harding Pike, Nashville", "results": [{"business_status": "OPERATIONAL", "geometry": {"location": {"lat": 36.10491620000001, "lng": -86.8646954}, "viewport": {"northeast": {"lat": 36.10612373029151, "lng": -86.8633938197085}, "southwest": {"lat": 36.10342576970851, "lng": -86.86609178029151}}}, "icon": "https://maps.gstatic.com/mapfiles/place_api/icons/v1/png_71/generic_business-71.png", "name": "Belle Meade Winery", "opening_hours": {"open_now": true}, "photos": [{"height": 1202, "html_attributions": ["<a href=\"https://maps.google.com/maps/contrib/110043318650309055851\">Belle Meade Winery</a>"], "photo_reference": "CmRaAAAAQ7LD89Yr7mscyUXuG3_JYkFKo64AkC6a2zfJJpAtnRb5hHrT7UgV1Y2DYbr4P-ocaiQBPVL88XpmrwrxdtQPh_vizvxJcYtFexnPDhwbZu8JuQ4FKCPhQ0KoDFEhg1NiEhCwuhFPsokZwKo8nr80StcqGhST-e2EXnkCC6rtlu_SotpRVfQ3ag", "width": 1800}], "place_id": "ChIJRzYeqE1iZIgR-OdaBMVc3o4", "plus_code": {"compound_code": "443P+X4 Nashville, TN, USA", "global_code": "868M443P+X4"}, "rating": 4.9, "reference": "ChIJRzYeqE1iZIgR-OdaBMVc3o4", "scope": "GOOGLE", "types": ["food", "point_of_interest", "establishment"], "user_ratings_total": 12, "vicinity": "5025 Harding Pike, Nashville"}, {"business_status": "OPERATIONAL", "geometry": {"location": {"lat": 36.10491620000001, "lng": -86.8646954}, "viewport": {"northeast": {"lat": 36.10612373029151, "lng": -86.8633938197085}, "southwest": {"lat": 36.10342576970851, "lng": -86.86609178029151}}}, "icon": "https://maps.gstatic.com/mapfiles/place_api/icons/v1/png_71/generic_business-71.png", "name": "Belle Meade Historic Site & Winery", "opening_hours": {"open_now": true}, "photos": [{"height": 2000, "html_attributions": ["<a href=\"https://maps.google.com/maps/contrib/104995713431996005892\">Belle Meade Historic Site &amp; Winery</a>"], "photo_reference": "CmRaAAAA0CFSr-WuSTOGpouxJs-zMyKNwalZaVQjyYXcPmAniCp4xW3GaFwe6PIkaI2dF7naGHRahKwWo5AFiDxjnuakc342kg0AVxPaqUz-O38XHtyj7I8f1erZm7xM5HuGttl5EhD5afBysddDcN6IO59a_iFYGhR5ficqfGnwF4sy3_qdbwvrOWiESQ", "width": 3008}], "place_id": "ChIJG36-nU5iZIgRn-piPWpaiWQ", "plus_code": {"compound_code": "443P+X4 Nashville, TN, USA", "global_code": "868M443P+X4"}, "rating": 4.6, "reference": "ChIJG36-nU5iZIgRn-piPWpaiWQ", "scope": "GOOGLE", "types": ["tourist_attraction", "food", "point_of_interest", "establishment"], "user_ratings_total": 2229, "vicinity": "5025 Harding Pike, Nashville"}, {"business_status": "OPERATIONAL", "geometry": {"location": {"lat": 36.1042353, "lng": -86.8649466}, "viewport": {"northeast": {"lat": 36.10561673029149, "lng": -86.86358041970848}, "southwest": {"lat": 36.1029187697085, "lng": -86.8662783802915}}}, "icon": "https://maps.gstatic.com/mapfiles/place_api/icons/v1/png_71/restaurant-71.png", "name": "Sperry's", "place_id": "ChIJ73NG_8pjZIgRi0GaZDS3H3I", "plus_code": {"compound_code": "443P+M2 Nashville, TN, USA", "global_code": "868M443P+M2"}, "reference": "ChIJ73NG_8pjZIgRi0GaZDS3H3I", "scope": "GOOGLE", "types": ["restaurant", "food", "point_of_interest", "establishment"], "vicinity": "147-157 Leake Avenue, Nashville"}, {"business_status": "OPERATIONAL", "geometry": {"location": {"lat": 36.10454369999999, "lng": -86.86546050000001}, "viewport": {"northeast": {"lat": 36.1059591302915, "lng": -86.8637480197085}, "southwest": {"lat": 36.1032611697085, "lng": -86.86644598029152}}}, "icon": "https://maps.gstatic.com/mapfiles/place_api/icons/v1/png_71/restaurant-71.png", "name": "Belle Meade Meat & Three", "opening_hours": {"open_now": true}, "photos": [{"height": 3262, "html_attributions": ["<a href=\"https://maps.google.com/maps/contrib/112541294867101020441\">Belle Meade Meat &amp; Three</a>"], "photo_reference": "CmRaAAAA5lMHHUxCPA8aV4kw7XHhJv0ALQ8RTa2JToUB3wIOVleNS6lxc4htwsnHUlAZNy8qqvpm-7KnaFHDWhmCEKi6l8SL6A6wD8MsCjbZFVwl19neyhMxS4axeXsheb0XqjojEhBCOviGYXDboMgPtzcMvooQGhR2wBNcH0C_YhBVOH0G4FrZxycKZQ", "width": 4903}], "place_id": "ChIJeZEeziljZIgRYXy4EQPZJ9w", "plus_code": {"compound_code": "443M+RR Nashville, TN, USA", "global_code": "868M443M+RR"}, "rating": 5, "reference": "ChIJeZEeziljZIgRYXy4EQPZJ9w", "scope": "GOOGLE", "types": ["restaurant", "food", "point_of_interest", "establishment"], "user_ratings_total": 9, "vicinity": "110 Leake Avenue, Nashville"}, {"business_status": "OPERATIONAL", "geometry": {"location": {"lat": 36.10454369999999, "lng": -86.86546050000001}, "viewport": {"northeast": {"lat": 36.1059005802915, "lng": -86.86414016970849}, "southwest": {"lat": 36.1032026197085, "lng": -86.86683813029151}}}, "icon": "https://maps.gstatic.com/mapfiles/place_api/icons/v1/png_71/generic_business-71.png", "name": "APTA", "place_id": "ChIJqcl-u01iZIgRnjPRl1_YnF0", "plus_code": {"compound_code": "443M+RR Nashville, TN, USA", "global_code": "868M443M+RR"}, "rating": 4, "reference": "ChIJqcl-u01iZIgRnjPRl1_YnF0", "scope": "GOOGLE", "types": ["point_of_interest", "establishment"], "user_ratings_total": 1, "vicinity": "110 Leake Avenue, Nashville"}]}, {"mapped_location": "(35.93248551150915, -86.52630689325409)", "address": "8100 Tridon Dr, Nan", "results": [{"business_status": "OPERATIONAL", "geometry": {"location": {"lat": 35.9321517, "lng": -86.5262908}, "viewport": {"northeast": {"lat": 35.9338344802915, "lng": -86.5249735197085}, "southwest": {"lat": 35.9311365197085, "lng": -86.5276714802915}}}, "icon": "https://maps.gstatic.com/mapfiles/place_api/icons/v1/png_71/generic_business-71.png", "name": "Ideal Clamp Products Inc", "place_id": "ChIJ49BLspULZIgRUIhUEuV3P9I", "plus_code": {"compound_code": "WFJF+VF Smyrna, TN, USA", "global_code": "867MWFJF+VF"}, "rating": 2.8, "reference": "ChIJ49BLspULZIgRUIhUEuV3P9I", "scope": "GOOGLE", "types": ["point_of_interest", "establishment"], "user_ratings_total": 6, "vicinity": "8100 Tridon Drive, Smyrna"}, {"business_status": "OPERATIONAL", "geometry": {"location": {"lat": 35.932808, "lng": -86.527186}, "viewport": {"northeast": {"lat": 35.9343222802915, "lng": -86.5260572197085}, "southwest": {"lat": 35.9316243197085, "lng": -86.52875518029151}}}, "icon": "https://maps.gstatic.com/mapfiles/place_api/icons/v1/png_71/shopping-71.png", "name": "Walter A Wood Supply Co Inc", "opening_hours": {"open_now": true}, "place_id": "ChIJyV2GU5YLZIgRIiZFhyNAqco", "plus_code": {"compound_code": "WFMF+44 Smyrna, TN, USA", "global_code": "867MWFMF+44"}, "reference": "ChIJyV2GU5YLZIgRIiZFhyNAqco", "scope": "GOOGLE", "types": ["home_goods_store", "point_of_interest", "store", "establishment"], "vicinity": "8125 Tridon Drive, Smyrna"}, {"business_status": "OPERATIONAL", "geometry": {"location": {"lat": 35.9325937, "lng": -86.5251201}, "viewport": {"northeast": {"lat": 35.9341435802915, "lng": -86.52362736970849}, "southwest": {"lat": 35.93144561970851, "lng": -86.5263253302915}}}, "icon": "https://maps.gstatic.com/mapfiles/place_api/icons/v1/png_71/generic_business-71.png", "name": "Tridon Inc", "place_id": "ChIJ49BLspULZIgRFrEec5pP0Dg", "plus_code": {"compound_code": "WFMF+2X Smyrna, TN, USA", "global_code": "867MWFMF+2X"}, "rating": 4, "reference": "ChIJ49BLspULZIgRFrEec5pP0Dg", "scope": "GOOGLE", "types": ["point_of_interest", "establishment"], "user_ratings_total": 4, "vicinity": "8100 Tridon Drive, Smyrna"}, {"business_status": "OPERATIONAL", "geometry": {"location": {"lat": 35.9326386, "lng": -86.5276787}, "viewport": {"northeast": {"lat": 35.9342018802915, "lng": -86.52633061970849}, "southwest": {"lat": 35.9315039197085, "lng": -86.5290285802915}}}, "icon": "https://maps.gstatic.com/mapfiles/place_api/icons/v1/png_71/generic_business-71.png", "name": "Pugh Lubricants", "place_id": "ChIJyV2GU5YLZIgR_p_hUju8Fds", "plus_code": {"compound_code": "WFMC+3W Smyrna, TN, USA", "global_code": "867MWFMC+3W"}, "rating": 3, "reference": "ChIJyV2GU5YLZIgR_p_hUju8Fds", "scope": "GOOGLE", "types": ["point_of_interest", "establishment"], "user_ratings_total": 2, "vicinity": "8125 Tridon Drive, Smyrna"}, {"business_status": "OPERATIONAL", "geometry": {"location": {"lat": 35.9332803, "lng": -86.5286053}, "viewport": {"northeast": {"lat": 35.9345227302915, "lng": -86.52680771970849}, "southwest": {"lat": 35.93182476970851, "lng": -86.5295056802915}}}, "icon": "https://maps.gstatic.com/mapfiles/place_api/icons/v1/png_71/generic_business-71.png", "name": "Aggreko Rental", "place_id": "ChIJV_89yAUMZIgRh4p1jgXDb7I", "plus_code": {"compound_code": "WFMC+8H Smyrna, TN, USA", "global_code": "867MWFMC+8H"}, "reference": "ChIJV_89yAUMZIgRh4p1jgXDb7I", "scope": "GOOGLE", "types": ["point_of_interest", "establishment"], "vicinity": "8175 Ww Williams Drive, Smyrna"}]}, {"mapped_location": "(36.1844449, -86.7745501)", "address": "800 Dickerson Pike, Nashville", "results": [{"business_status": "OPERATIONAL", "geometry": {"location": {"lat": 36.1844449, "lng": -86.7745501}, "viewport": {"northeast": {"lat": 36.1857612302915, "lng": -86.7727871197085}, "southwest": {"lat": 36.1830632697085, "lng": -86.7754850802915}}}, "icon": "https://maps.gstatic.com/mapfiles/place_api/icons/v1/png_71/shopping-71.png", "name": "Gateway Tires Nashville TN,US", "opening_hours": {"open_now": true}, "place_id": "ChIJQV63sq9nZIgRT5VFMiEJLSA", "plus_code": {"compound_code": "56MG+Q5 Nashville, TN, USA", "global_code": "868M56MG+Q5"}, "rating": 4.6, "reference": "ChIJQV63sq9nZIgRT5VFMiEJLSA", "scope": "GOOGLE", "types": ["car_repair", "point_of_interest", "store", "establishment"], "user_ratings_total": 11, "vicinity": "800 Dickerson Pike, Nashville"}, {"business_status": "OPERATIONAL", "geometry": {"location": {"lat": 36.184433, "lng": -86.774518}, "viewport": {"northeast": {"lat": 36.18575063029149, "lng": -86.77277166970849}, "southwest": {"lat": 36.1830526697085, "lng": -86.77546963029151}}}, "icon": "https://maps.gstatic.com/mapfiles/place_api/icons/v1/png_71/shopping-71.png", "name": "Gateway Tire & Service Center", "opening_hours": {"open_now": true}, "photos": [{"height": 2268, "html_attributions": ["<a href=\"https://maps.google.com/maps/contrib/109721527781361702595\">Adam Waldrup</a>"], "photo_reference": "CmRaAAAAxuQ26JrtsUWZE8M8iwtGJf0Wi3N2yj9g6QhljJ30n4lxO5dKXDE8lhOk0Ipmo1ignZQ8jmzyBbDq2viKoKjioC8LmhG7URaejSGMZDRtgFQzhN9mQFyVzN_zg5-aq1qzEhAMAUDTXhqznf8EwI2Vi4uxGhTFQMtj9MhjoYpFH8Wamvx_4Ot8DQ", "width": 4032}], "place_id": "ChIJZ61H_q5nZIgRgbbLnYuecCk", "plus_code": {"compound_code": "56MG+Q5 Nashville, TN, USA", "global_code": "868M56MG+Q5"}, "rating": 4.6, "reference": "ChIJZ61H_q5nZIgRgbbLnYuecCk", "scope": "GOOGLE", "types": ["car_repair", "point_of_interest", "store", "establishment"], "user_ratings_total": 146, "vicinity": "800 Dickerson Pike, Nashville"}, {"business_status": "OPERATIONAL", "geometry": {"location": {"lat": 36.183977, "lng": -86.774096}, "viewport": {"northeast": {"lat": 36.1853132802915, "lng": -86.77258601970848}, "southwest": {"lat": 36.1826153197085, "lng": -86.7752839802915}}}, "icon": "https://maps.gstatic.com/mapfiles/place_api/icons/v1/png_71/shopping-71.png", "name": "Chef's Deal Restaurant Equipment", "opening_hours": {"open_now": true}, "photos": [{"height": 768, "html_attributions": ["<a href=\"https://maps.google.com/maps/contrib/111832400575425815993\">Emin K</a>"], "photo_reference": "CmRaAAAAKRDRuo0XcVrW0yFn6XjsSAzxob6k9eAdBtYzDkJAjSo56zL1yJUqWASskXf54wm_hklzHak3p_KP-z44sliR_4Ral6GtFz2Q7Ny5IquhkkYwPMOyYVo6vCxf7_zk-2wXEhAgVgpdYXWhZGljhdE22fEoGhTbnQYH70v8La6SG72fmoReFYkw7Q", "width": 909}], "place_id": "ChIJwbGQ061nZIgRFkaiHt0csiY", "plus_code": {"compound_code": "56MG+H9 Nashville, TN, USA", "global_code": "868M56MG+H9"}, "rating": 4.6, "reference": "ChIJwbGQ061nZIgRFkaiHt0csiY", "scope": "GOOGLE", "types": ["point_of_interest", "store", "establishment"], "user_ratings_total": 90, "vicinity": "708 Dickerson Pike, Nashville"}, {"business_status": "OPERATIONAL", "geometry": {"location": {"lat": 36.18385800000001, "lng": -86.774056}, "viewport": {"northeast": {"lat": 36.18519638029151, "lng": -86.77257296970849}, "southwest": {"lat": 36.18249841970851, "lng": -86.7752709302915}}}, "icon": "https://maps.gstatic.com/mapfiles/place_api/icons/v1/png_71/shopping-71.png", "name": "Chef's Deal Restaurant Equipment", "opening_hours": {"open_now": true}, "photos": [{"height": 3024, "html_attributions": ["<a href=\"https://maps.google.com/maps/contrib/101599959947704531100\">Chefs Deal</a>"], "photo_reference": "CmRaAAAA0D6bCA9gxRzi4h6TVwyw-O0y_GLA6n5r5-qBHzvzRW4VlBanqF-4L3ee05sKLUkpGVRznj-56Qloo0UG6Vq0jApoc4fOEcq56YrlkB_17T8I_o9ppXiVlMnEuH-68G-8EhCTEw6Qh9_428uM6EM07R0aGhS3jUj_LdcJXbRmFI99R61l95mdDw", "width": 4032}], "place_id": "ChIJ81RoXK5nZIgRwYeafcRbTCA", "plus_code": {"compound_code": "56MG+G9 Nashville, TN, USA", "global_code": "868M56MG+G9"}, "price_level": 1, "rating": 4.6, "reference": "ChIJ81RoXK5nZIgRwYeafcRbTCA", "scope": "GOOGLE", "types": ["point_of_interest", "store", "establishment"], "user_ratings_total": 33, "vicinity": "708 North 1st Street, Nashville"}, {"business_status": "OPERATIONAL", "geometry": {"location": {"lat": 36.184323, "lng": -86.773647}, "viewport": {"northeast": {"lat": 36.1856257802915, "lng": -86.7723442197085}, "southwest": {"lat": 36.1829278197085, "lng": -86.7750421802915}}}, "icon": "https://maps.gstatic.com/mapfiles/place_api/icons/v1/png_71/generic_business-71.png", "name": "N Dickerson Pike & Hancock St NB", "place_id": "ChIJryMKUq5nZIgR-Uk6Z7JQA8A", "plus_code": {"compound_code": "56MG+PG Nashville, TN, USA", "global_code": "868M56MG+PG"}, "reference": "ChIJryMKUq5nZIgR-Uk6Z7JQA8A", "scope": "GOOGLE", "types": ["transit_station", "point_of_interest", "establishment"], "vicinity": "United States"}]}, {"mapped_location": "(36.1816865, -86.7967261)", "address": "1716 Rosa L Parks Blvd, Nashville", "results": [{"business_status": "OPERATIONAL", "geometry": {"location": {"lat": 36.1816865, "lng": -86.7967261}, "viewport": {"northeast": {"lat": 36.1829913802915, "lng": -86.7954780697085}, "southwest": {"lat": 36.1802934197085, "lng": -86.79817603029151}}}, "icon": "https://maps.gstatic.com/mapfiles/place_api/icons/v1/png_71/generic_business-71.png", "name": "SSVF", "opening_hours": {"open_now": true}, "place_id": "ChIJ90jFHBxnZIgRNKDowU7icPk", "plus_code": {"compound_code": "56J3+M8 Nashville, TN, USA", "global_code": "868M56J3+M8"}, "rating": 5, "reference": "ChIJ90jFHBxnZIgRNKDowU7icPk", "scope": "GOOGLE", "types": ["point_of_interest", "establishment"], "user_ratings_total": 1, "vicinity": "1716 Rosa L Parks Boulevard, Nashville"}, {"business_status": "OPERATIONAL", "geometry": {"location": {"lat": 36.1816865, "lng": -86.7967261}, "viewport": {"northeast": {"lat": 36.1829913802915, "lng": -86.7954780697085}, "southwest": {"lat": 36.1802934197085, "lng": -86.79817603029151}}}, "icon": "https://maps.gstatic.com/mapfiles/place_api/icons/v1/png_71/generic_business-71.png", "name": "Nashville Rescue Mission-Family", "opening_hours": {"open_now": true}, "photos": [{"height": 4032, "html_attributions": ["<a href=\"https://maps.google.com/maps/contrib/101801796580842740636\">Iris Epperson</a>"], "photo_reference": "CmRaAAAAdlvBqbm5GtZJOxeycuInrf5AfqfT5UNBixQlKdYHSmjtYPU3j_PZwdf3y_sSH2HwwZ0D93laQVLXLVqnK7hGakZmQNQ3xwxLbtzjcxF5amC5ktwQQDRVSAq7jmn_jxv1EhARuSpHwHybjhL-qLpD4q3eGhSWpaJ-gpHz5DZ1Ny7f8GZy5mkpjQ", "width": 3024}], "place_id": "ChIJ0ceqBBxnZIgRX2yO1_Guc10", "plus_code": {"compound_code": "56J3+M8 Nashville, TN, USA", "global_code": "868M56J3+M8"}, "rating": 3.3, "reference": "ChIJ0ceqBBxnZIgRX2yO1_Guc10", "scope": "GOOGLE", "types": ["point_of_interest", "establishment"], "user_ratings_total": 181, "vicinity": "1716 Rosa L Parks Boulevard, Nashville"}, {"business_status": "OPERATIONAL", "geometry": {"location": {"lat": 36.1816865, "lng": -86.7967261}, "viewport": {"northeast": {"lat": 36.1829913802915, "lng": -86.7954780697085}, "southwest": {"lat": 36.1802934197085, "lng": -86.79817603029151}}}, "icon": "https://maps.gstatic.com/mapfiles/place_api/icons/v1/png_71/generic_business-71.png", "name": "Mental Health Co-Op", "opening_hours": {"open_now": true}, "place_id": "ChIJZV2eY-hmZIgRSprCFGSXp8A", "plus_code": {"compound_code": "56J3+M8 Nashville, TN, USA", "global_code": "868M56J3+M8"}, "rating": 3, "reference": "ChIJZV2eY-hmZIgRSprCFGSXp8A", "scope": "GOOGLE", "types": ["health", "point_of_interest", "establishment"], "user_ratings_total": 2, "vicinity": "1716 Rosa L Parks Boulevard, Nashville"}, {"business_status": "OPERATIONAL", "geometry": {"location": {"lat": 36.18175069999999, "lng": -86.7967131}, "viewport": {"northeast": {"lat": 36.18304613029149, "lng": -86.79548671970849}, "southwest": {"lat": 36.18034816970849, "lng": -86.7981846802915}}}, "icon": "https://maps.gstatic.com/mapfiles/place_api/icons/v1/png_71/generic_business-71.png", "name": "Jim And Jan Carell Hope Center", "place_id": "ChIJx-kzAxxnZIgRLjIA_LXUJMU", "plus_code": {"compound_code": "56J3+P8 Nashville, TN, USA", "global_code": "868M56J3+P8"}, "reference": "ChIJx-kzAxxnZIgRLjIA_LXUJMU", "scope": "GOOGLE", "types": ["point_of_interest", "establishment"], "vicinity": "United States"}, {"business_status": "OPERATIONAL", "geometry": {"location": {"lat": 36.180718, "lng": -86.796562}, "viewport": {"northeast": {"lat": 36.1820815802915, "lng": -86.7951811697085}, "southwest": {"lat": 36.1793836197085, "lng": -86.7978791302915}}}, "icon": "https://maps.gstatic.com/mapfiles/place_api/icons/v1/png_71/generic_business-71.png", "name": "Rosa Parks Blvd & Garfield St SB", "place_id": "ChIJzWhcJBxnZIgRLaJ81cpJUQo", "plus_code": {"compound_code": "56J3+79 Nashville, TN, USA", "global_code": "868M56J3+79"}, "reference": "ChIJzWhcJBxnZIgRLaJ81cpJUQo", "scope": "GOOGLE", "types": ["transit_station", "point_of_interest", "establishment"], "vicinity": "United States"}]}, {"mapped_location": "(36.1711077, -86.7648498)", "address": "120 S 5th St, Nashville", "results": [{"business_status": "OPERATIONAL", "geometry": {"location": {"lat": 36.1714027, "lng": -86.7650134}, "viewport": {"northeast": {"lat": 36.1728878802915, "lng": -86.76374361970849}, "southwest": {"lat": 36.17018991970851, "lng": -86.76644158029151}}}, "icon": "https://maps.gstatic.com/mapfiles/place_api/icons/v1/png_71/generic_business-71.png", "name": "F45 Training East Nashville", "opening_hours": {"open_now": true}, "photos": [{"height": 533, "html_attributions": ["<a href=\"https://maps.google.com/maps/contrib/117253064358143138310\">F45 Training East Nashville</a>"], "photo_reference": "CmRaAAAATzaDIV_GCzbswbpoF9Vxetr3_jIh77MemJOsOQB8VeleqVs7EyTmL88CfqBrxUVYh5G-ozMKyQA70tB8-MFeFfVvOYu1u91mv-LoVTPD3YvOod4UTv78ISE8CEzXkwWVEhBw-7q-E_pScMj-zjKW_XrDGhQR5bvqAROP_p8SPlTMX5LFN14J-g", "width": 948}], "place_id": "ChIJM9h0HHZnZIgRMZvL8i82Ehw", "plus_code": {"compound_code": "56CM+HX Nashville, TN, USA", "global_code": "868M56CM+HX"}, "rating": 4.9, "reference": "ChIJM9h0HHZnZIgRMZvL8i82Ehw", "scope": "GOOGLE", "types": ["gym", "health", "point_of_interest", "establishment"], "user_ratings_total": 30, "vicinity": "418 Woodland Street, Nashville"}, {"business_status": "OPERATIONAL", "geometry": {"location": {"lat": 36.1714536, "lng": -86.7651386}, "viewport": {"northeast": {"lat": 36.1728984802915, "lng": -86.7638453697085}, "southwest": {"lat": 36.1702005197085, "lng": -86.76654333029151}}}, "icon": "https://maps.gstatic.com/mapfiles/place_api/icons/v1/png_71/shopping-71.png", "name": "Pedego Electric Bikes Nashville", "opening_hours": {"open_now": true}, "photos": [{"height": 640, "html_attributions": ["<a href=\"https://maps.google.com/maps/contrib/109721527781361702595\">Adam Waldrup</a>"], "photo_reference": "CmRaAAAAch4_JC5EMv3Ee0ZOX3ezj48ERbHG59EITEKBob2H5cFzOXBpAq7-GIMDk_JGnm82cbzx5HE3eqizOCxJBBImM7SaiIzIPQfI2Stdm9XIPPIQUxHGJuwDSbUNw5QDPI04EhAe3r7Ui_UdIT_r3v6upoxkGhQNHVdbF4iJKCwBdVpKSgg0V3B4MA", "width": 480}], "place_id": "ChIJEV2ykURnZIgRY6AooZE8EM0", "plus_code": {"compound_code": "56CM+HW Nashville, TN, USA", "global_code": "868M56CM+HW"}, "rating": 4.9, "reference": "ChIJEV2ykURnZIgRY6AooZE8EM0", "scope": "GOOGLE", "types": ["bicycle_store", "point_of_interest", "store", "establishment"], "user_ratings_total": 22, "vicinity": "416 Woodland Street, Nashville"}, {"business_status": "OPERATIONAL", "geometry": {"location": {"lat": 36.1714844, "lng": -86.7653141}, "viewport": {"northeast": {"lat": 36.17288938029149, "lng": -86.76399771970848}, "southwest": {"lat": 36.17019141970849, "lng": -86.76669568029149}}}, "icon": "https://maps.gstatic.com/mapfiles/place_api/icons/v1/png_71/generic_business-71.png", "name": "Surreal Blow Out Bar", "opening_hours": {"open_now": true}, "photos": [{"height": 3744, "html_attributions": ["<a href=\"https://maps.google.com/maps/contrib/111761253404283539266\">Mermaid Vlogs</a>"], "photo_reference": "CmRaAAAAdUHGKFqPREx0VPpEzD-tbiLT584YjUXFHGBYgkeQgz31o8pItHcyEy-xIsN9JHlxt_DnUPse8aNZsKwy0F-isKGJiFO6zszYe6XgBLCJjlCu4Eqzx8a7939FblDiiELkEhCYQV-rIgeqrY22IKo4hzR_GhT4N9WegcsH_SP8NCxvy1UilhLfkw", "width": 5616}], "place_id": "ChIJEWQyr3NkZIgR9YHra03vIdc", "plus_code": {"compound_code": "56CM+HV Nashville, TN, USA", "global_code": "868M56CM+HV"}, "rating": 4.4, "reference": "ChIJEWQyr3NkZIgR9YHra03vIdc", "scope": "GOOGLE", "types": ["hair_care", "point_of_interest", "establishment"], "user_ratings_total": 53, "vicinity": "414 Woodland Street, Nashville"}, {"business_status": "OPERATIONAL", "geometry": {"location": {"lat": 36.17085299999999, "lng": -86.764262}, "viewport": {"northeast": {"lat": 36.1721812302915, "lng": -86.7629012697085}, "southwest": {"lat": 36.16948326970851, "lng": -86.76559923029151}}}, "icon": "https://maps.gstatic.com/mapfiles/place_api/icons/v1/png_71/generic_business-71.png", "name": "S 5th St & Russell St SB", "place_id": "ChIJ5yrVKkpmZIgRwu6OzuXGOUM", "plus_code": {"compound_code": "56CP+87 Nashville, TN, USA", "global_code": "868M56CP+87"}, "reference": "ChIJ5yrVKkpmZIgRwu6OzuXGOUM", "scope": "GOOGLE", "types": ["transit_station", "point_of_interest", "establishment"], "vicinity": "United States"}, {"business_status": "OPERATIONAL", "geometry": {"location": {"lat": 36.17167799999999, "lng": -86.764955}, "viewport": {"northeast": {"lat": 36.1730594302915, "lng": -86.76362491970849}, "southwest": {"lat": 36.1703614697085, "lng": -86.7663228802915}}}, "icon": "https://maps.gstatic.com/mapfiles/place_api/icons/v1/png_71/generic_business-71.png", "name": "Woodland St & S 5th St EB", "place_id": "ChIJGefoxUtmZIgRqzcp-q3oXTE", "plus_code": {"compound_code": "56CP+M2 Nashville, TN, USA", "global_code": "868M56CP+M2"}, "reference": "ChIJGefoxUtmZIgRqzcp-q3oXTE", "scope": "GOOGLE", "types": ["transit_station", "point_of_interest", "establishment"], "vicinity": "United States"}]}, {"mapped_location": "(36.15219, -86.84221)", "address": "Charlotte Ave & 46th Ave N, Nashville", "results": [{"business_status": "OPERATIONAL", "geometry": {"location": {"lat": 36.1520851, "lng": -86.84208679999999}, "viewport": {"northeast": {"lat": 36.1534340802915, "lng": -86.8407378197085}, "southwest": {"lat": 36.1507361197085, "lng": -86.8434357802915}}}, "icon": "https://maps.gstatic.com/mapfiles/place_api/icons/v1/png_71/generic_business-71.png", "name": "Your Move Real Estate", "photos": [{"height": 4032, "html_attributions": ["<a href=\"https://maps.google.com/maps/contrib/105066793771258887651\">\uc774\uac15\uc6d0</a>"], "photo_reference": "CmRaAAAADcBAsJ9Wqy3zZ4l7yvKQpAkVVajHVf9QjzllM0lDpVMgXtflMCbj6PzWyRyhYqCggQLqjfNhwomBFRCrm5Q9e6E6OAldamLhaVY0AEtTwoVJAcpkx0AswHxl3OR_12C4EhAr1r1hUmAJWAD3dCfKktTUGhTDhnssRWW51SgK4Z-UjwKEWBpesw", "width": 3024}], "place_id": "ChIJr28ECmphZIgRBvUYSdcdQ_o", "plus_code": {"compound_code": "5525+R5 Nashville, TN, USA", "global_code": "868M5525+R5"}, "rating": 4, "reference": "ChIJr28ECmphZIgRBvUYSdcdQ_o", "scope": "GOOGLE", "types": ["real_estate_agency", "point_of_interest", "establishment"], "user_ratings_total": 5, "vicinity": "4525 Charlotte Avenue, Nashville"}, {"business_status": "OPERATIONAL", "geometry": {"location": {"lat": 36.1520863, "lng": -86.8420318}, "viewport": {"northeast": {"lat": 36.1534870302915, "lng": -86.8406848197085}, "southwest": {"lat": 36.1507890697085, "lng": -86.8433827802915}}}, "icon": "https://maps.gstatic.com/mapfiles/place_api/icons/v1/png_71/shopping-71.png", "name": "Framing & Finding", "place_id": "ChIJm8iK4UFhZIgRHQiSVVyEwcs", "plus_code": {"compound_code": "5525+R5 Nashville, TN, USA", "global_code": "868M5525+R5"}, "reference": "ChIJm8iK4UFhZIgRHQiSVVyEwcs", "scope": "GOOGLE", "types": ["point_of_interest", "store", "establishment"], "vicinity": "Nashville"}, {"business_status": "OPERATIONAL", "geometry": {"location": {"lat": 36.15209499999999, "lng": -86.841977}, "viewport": {"northeast": {"lat": 36.15349208029149, "lng": -86.8406298697085}, "southwest": {"lat": 36.15079411970849, "lng": -86.8433278302915}}}, "icon": "https://maps.gstatic.com/mapfiles/place_api/icons/v1/png_71/generic_business-71.png", "name": "Welty Law Office", "opening_hours": {"open_now": true}, "place_id": "ChIJj8vxLVZmZIgRca5enfyGiAc", "plus_code": {"compound_code": "5525+R6 Nashville, TN, USA", "global_code": "868M5525+R6"}, "rating": 3.9, "reference": "ChIJj8vxLVZmZIgRca5enfyGiAc", "scope": "GOOGLE", "types": ["lawyer", "point_of_interest", "establishment"], "user_ratings_total": 11, "vicinity": "4517 Charlotte Avenue, Nashville"}, {"business_status": "OPERATIONAL", "geometry": {"location": {"lat": 36.1520933, "lng": -86.8419202}, "viewport": {"northeast": {"lat": 36.15349193029149, "lng": -86.8405731197085}, "southwest": {"lat": 36.1507939697085, "lng": -86.8432710802915}}}, "icon": "https://maps.gstatic.com/mapfiles/place_api/icons/v1/png_71/shopping-71.png", "name": "Ride615 Bicycle Shop", "opening_hours": {"open_now": true}, "photos": [{"height": 2610, "html_attributions": ["<a href=\"https://maps.google.com/maps/contrib/114461168580106103900\">Ride615 Bicycle Shop</a>"], "photo_reference": "CmRaAAAAKKVATadh0-icbArOO_9PqDE6j3vQGkBIjwzzGFs9KsMKB9j5zd3haW8QueC1JRkvimxpJaVEY0CszcOVWa9TxSj9fjduMYaLKZI2OJc2hWOPf4dY7tEp91zP-jdJW3YLEhDPbtqyKal8lmnv-AHcxUJkGhQLqjep07PJpYtoy8sLCMSowVOUGQ", "width": 4640}], "place_id": "ChIJaXkUE8xhZIgRiideenZjLdk", "plus_code": {"compound_code": "5525+R6 Nashville, TN, USA", "global_code": "868M5525+R6"}, "rating": 4.8, "reference": "ChIJaXkUE8xhZIgRiideenZjLdk", "scope": "GOOGLE", "types": ["bicycle_store", "point_of_interest", "store", "establishment"], "user_ratings_total": 18, "vicinity": "4511 Charlotte Avenue, Nashville"}, {"business_status": "OPERATIONAL", "geometry": {"location": {"lat": 36.152244, "lng": -86.841898}, "viewport": {"northeast": {"lat": 36.15357378029151, "lng": -86.8405482197085}, "southwest": {"lat": 36.15087581970851, "lng": -86.8432461802915}}}, "icon": "https://maps.gstatic.com/mapfiles/place_api/icons/v1/png_71/bus-71.png", "name": "46th Ave/Richland Park Station Outbound", "place_id": "ChIJFdor4EFhZIgRDzatazoVaQo", "plus_code": {"compound_code": "5525+V6 Nashville, TN, USA", "global_code": "868M5525+V6"}, "reference": "ChIJFdor4EFhZIgRDzatazoVaQo", "scope": "GOOGLE", "types": ["bus_station", "transit_station", "point_of_interest", "establishment"], "vicinity": "United States"}]}, {"mapped_location": "(36.13393, -86.77946)", "address": "2001 8th Ave S, Nashville", "results": [{"business_status": "OPERATIONAL", "geometry": {"location": {"lat": 36.1339448, "lng": -86.7794612}, "viewport": {"northeast": {"lat": 36.1352986802915, "lng": -86.77816036970849}, "southwest": {"lat": 36.1326007197085, "lng": -86.7808583302915}}}, "icon": "https://maps.gstatic.com/mapfiles/place_api/icons/v1/png_71/shopping-71.png", "name": "Tiger Market", "opening_hours": {"open_now": true}, "photos": [{"height": 2340, "html_attributions": ["<a href=\"https://maps.google.com/maps/contrib/109791570878668852459\">Jody McCarter</a>"], "photo_reference": "CmRaAAAAhlF8vwP3QDvFv8uWsHMPl2P531IfcGQApJgvJA_jJyqqnGJ29BVNRANvEswAPuGOc3wYjsPyrPOtI2zEZBALLoNA0jBtguEURJ2rsoGNk2WOWfiSzKP8loAzTmZBZYRTEhAQAv1HaM-HS3XaW4Tq58YzGhRA8uwjPNCD1FTetnvPeBIOkBFPYA", "width": 4160}], "place_id": "ChIJF_aSnH9mZIgRIcAsmMr_eWs", "plus_code": {"compound_code": "46MC+H6 Nashville, TN, USA", "global_code": "868M46MC+H6"}, "rating": 3, "reference": "ChIJF_aSnH9mZIgRIcAsmMr_eWs", "scope": "GOOGLE", "types": ["convenience_store", "food", "point_of_interest", "store", "establishment"], "user_ratings_total": 13, "vicinity": "2001 8th Avenue South, Nashville"}, {"business_status": "OPERATIONAL", "geometry": {"location": {"lat": 36.1340041, "lng": -86.7793772}, "viewport": {"northeast": {"lat": 36.1353523802915, "lng": -86.77801986970849}, "southwest": {"lat": 36.1326544197085, "lng": -86.78071783029151}}}, "icon": "https://maps.gstatic.com/mapfiles/place_api/icons/v1/png_71/gas_station-71.png", "name": "TIGERMARKET #214", "opening_hours": {"open_now": true}, "photos": [{"height": 3024, "html_attributions": ["<a href=\"https://maps.google.com/maps/contrib/100201960762355239004\">Paul Kang</a>"], "photo_reference": "CmRaAAAAomzEfszpcE3FkzGb0IrDgaEJKyub-NdGCMyfDrKM8cJLqki5QkvE4Gw95NwVQGDjTyjfnG17J0X-vhbPrQb8S4hwDovnnC7UShNM8KIYdU06MdhjBfBhpQgtLGsDoJYSEhCCj4PrvqnduVctgCYafNOnGhTsEzn9S9I8CpECa1de378itzpwIA", "width": 4032}], "place_id": "ChIJv9oQnX9mZIgRLW-XPSCHmWc", "plus_code": {"compound_code": "46MC+J6 Nashville, TN, USA", "global_code": "868M46MC+J6"}, "rating": 3.7, "reference": "ChIJv9oQnX9mZIgRLW-XPSCHmWc", "scope": "GOOGLE", "types": ["gas_station", "point_of_interest", "establishment"], "user_ratings_total": 131, "vicinity": "2001 8th Avenue South, Nashville"}, {"business_status": "OPERATIONAL", "geometry": {"location": {"lat": 36.134158, "lng": -86.77930599999999}, "viewport": {"northeast": {"lat": 36.1355462802915, "lng": -86.7779564697085}, "southwest": {"lat": 36.1328483197085, "lng": -86.7806544302915}}}, "icon": "https://maps.gstatic.com/mapfiles/place_api/icons/v1/png_71/bus-71.png", "name": "Wedewood Ave & 8th Ave S EB", "place_id": "ChIJSWD7dX9mZIgRYcqqhUX9-fI", "plus_code": {"compound_code": "46MC+M7 Nashville, TN, USA", "global_code": "868M46MC+M7"}, "reference": "ChIJSWD7dX9mZIgRYcqqhUX9-fI", "scope": "GOOGLE", "types": ["bus_station", "transit_station", "point_of_interest", "establishment"], "vicinity": "United States"}, {"business_status": "OPERATIONAL", "geometry": {"location": {"lat": 36.133717, "lng": -86.77923}, "viewport": {"northeast": {"lat": 36.1350631802915, "lng": -86.7778351197085}, "southwest": {"lat": 36.1323652197085, "lng": -86.7805330802915}}}, "icon": "https://maps.gstatic.com/mapfiles/place_api/icons/v1/png_71/generic_business-71.png", "name": "8th Ave S & Roycroft Pl SB", "place_id": "ChIJ8cKGgn9mZIgRCpl1I1fCdG0", "plus_code": {"compound_code": "46MC+F8 Nashville, TN, USA", "global_code": "868M46MC+F8"}, "reference": "ChIJ8cKGgn9mZIgRCpl1I1fCdG0", "scope": "GOOGLE", "types": ["transit_station", "point_of_interest", "establishment"], "vicinity": "United States"}, {"business_status": "OPERATIONAL", "geometry": {"location": {"lat": 36.13367960000001, "lng": -86.7791159}, "viewport": {"northeast": {"lat": 36.1350277302915, "lng": -86.77775311970849}, "southwest": {"lat": 36.1323297697085, "lng": -86.7804510802915}}}, "icon": "https://maps.gstatic.com/mapfiles/place_api/icons/v1/png_71/hospital-71.png", "name": "Santomas Hospital", "place_id": "ChIJK0m8eX9mZIgR0pCwxZpPqxw", "plus_code": {"compound_code": "46MC+F9 Nashville, TN, USA", "global_code": "868M46MC+F9"}, "reference": "ChIJK0m8eX9mZIgR0pCwxZpPqxw", "scope": "GOOGLE", "types": ["hospital", "health", "point_of_interest", "establishment"], "vicinity": "1998-1954, Tennessee 6, Nashville"}]}, {"mapped_location": "(36.21702029999999, -86.5923241)", "address": "4690 Lebanon Pike, Hermitage", "results": [{"business_status": "OPERATIONAL", "geometry": {"location": {"lat": 36.21702029999999, "lng": -86.5923241}, "viewport": {"northeast": {"lat": 36.21825098029149, "lng": -86.5909782197085}, "southwest": {"lat": 36.21555301970849, "lng": -86.59367618029151}}}, "icon": "https://maps.gstatic.com/mapfiles/place_api/icons/v1/png_71/shopping-71.png", "name": "Hickory Center Jewelry", "place_id": "ChIJ2ZJFAR5AZIgRGcW3juTFcvc", "plus_code": {"compound_code": "6C85+R3 Nashville, TN, USA", "global_code": "868M6C85+R3"}, "reference": "ChIJ2ZJFAR5AZIgRGcW3juTFcvc", "scope": "GOOGLE", "types": ["jewelry_store", "point_of_interest", "store", "establishment"], "vicinity": "4690 Lebanon Pike, Hermitage"}, {"business_status": "OPERATIONAL", "geometry": {"location": {"lat": 36.2169685, "lng": -86.592291}, "viewport": {"northeast": {"lat": 36.2182247802915, "lng": -86.5909795697085}, "southwest": {"lat": 36.21552681970851, "lng": -86.59367753029152}}}, "icon": "https://maps.gstatic.com/mapfiles/place_api/icons/v1/png_71/generic_business-71.png", "name": "Significant Physical Therapy & Neuropathy Care Center", "opening_hours": {"open_now": true}, "photos": [{"height": 5312, "html_attributions": ["<a href=\"https://maps.google.com/maps/contrib/110730106128907377456\">Danilo Flores</a>"], "photo_reference": "CmRaAAAAaUwMAbIPCo9E3QBb4k1_HGJy6ceh-YeSi85Gdpj-a6v71BUOPnG-PdUAqyI1xp5Vdudp_TCZWVJkPK1YQDg5MVGWl5tiZxyFQUTkJZzKj8sdNDvJOmIfRysOiQLAWIY_EhBHtfFcZ-wsgLaw7C9uXEiyGhQu23tO2dd7cvRrr2dt_kCVOTAhGQ", "width": 2988}], "place_id": "ChIJWf0lAR5AZIgRXzysxZrbWU4", "plus_code": {"compound_code": "6C85+Q3 Nashville, TN, USA", "global_code": "868M6C85+Q3"}, "rating": 4.9, "reference": "ChIJWf0lAR5AZIgRXzysxZrbWU4", "scope": "GOOGLE", "types": ["physiotherapist", "health", "point_of_interest", "establishment"], "user_ratings_total": 69, "vicinity": "4694 Lebanon Pike, Hermitage"}, {"business_status": "OPERATIONAL", "geometry": {"location": {"lat": 36.2169731, "lng": -86.5921965}, "viewport": {"northeast": {"lat": 36.2182261802915, "lng": -86.59081686970848}, "southwest": {"lat": 36.2155282197085, "lng": -86.5935148302915}}}, "icon": "https://maps.gstatic.com/mapfiles/place_api/icons/v1/png_71/generic_business-71.png", "name": "Western Union", "opening_hours": {"open_now": true}, "photos": [{"height": 1000, "html_attributions": ["<a href=\"https://maps.google.com/maps/contrib/108850950914353421822\">Western Union</a>"], "photo_reference": "CmRaAAAA_K7UMCzR13ICR1Omw7TWLAF5N8jnKjn3zFsvZYKnQHQLM2LTkXStPOifjTfzUzb_vu9RzMpGsKLAvLjUFwtqJRMNzYMOway7NjgmkXEiTr80qmdTid-vQPC9wEq_a4JGEhCWcMmammHdijS5k92oyijtGhSDN77EqGMy_B1yn9Mb0xLtIPBerw", "width": 1000}], "place_id": "ChIJ0ca3Gx1AZIgRT5CrGxyaPUo", "plus_code": {"compound_code": "6C85+Q4 Nashville, TN, USA", "global_code": "868M6C85+Q4"}, "reference": "ChIJ0ca3Gx1AZIgRT5CrGxyaPUo", "scope": "GOOGLE", "types": ["finance", "point_of_interest", "establishment"], "vicinity": "Check Into Cash, 4696 Lebanon Pike, Hermitage"}, {"business_status": "OPERATIONAL", "geometry": {"location": {"lat": 36.216966, "lng": -86.592196}, "viewport": {"northeast": {"lat": 36.2182226802915, "lng": -86.59081686970848}, "southwest": {"lat": 36.2155247197085, "lng": -86.5935148302915}}}, "icon": "https://maps.gstatic.com/mapfiles/place_api/icons/v1/png_71/generic_business-71.png", "name": "Check Into Cash", "opening_hours": {"open_now": true}, "photos": [{"height": 480, "html_attributions": ["<a href=\"https://maps.google.com/maps/contrib/115802838935602369352\">Check Into Cash</a>"], "photo_reference": "CmRaAAAAnRwfN_gaNj5RKjFJ5YU3KnSy_iwKlaX2Kr4PPf_XiNgmu9_kSN-A2wwWIPeSv-Mx4qFR85y-VU0_nuSEGiWYMLxJngJ_ZmongDdU_nh74BReYptNWn5fuAZhRlXwOHZcEhAUKnjGbCbmF5Wr1TPeRNyPGhQDGA_cO1wENFqrJDZm4N9GcGN4Jw", "width": 640}], "place_id": "ChIJh72mBh5AZIgRGt-NW0dNa2s", "plus_code": {"compound_code": "6C85+Q4 Nashville, TN, USA", "global_code": "868M6C85+Q4"}, "rating": 4.8, "reference": "ChIJh72mBh5AZIgRGt-NW0dNa2s", "scope": "GOOGLE", "types": ["bank", "finance", "point_of_interest", "establishment"], "user_ratings_total": 17, "vicinity": "4696 Lebanon Pike #31, Hermitage"}, {"business_status": "OPERATIONAL", "geometry": {"location": {"lat": 36.2168792, "lng": -86.5923758}, "viewport": {"northeast": {"lat": 36.2181808302915, "lng": -86.5910280697085},