[{"mapped_location": "(36.1758957, -86.7568201)", "address": "902 Main St, Nashville", "results": [{"business_status": "OPERATIONAL", "geometry": {"location": {"lat": 36.1758957, "lng": -86.7568201}, "viewport": {"northeast": {"lat": 36.1773295802915, "lng": -86.75552041970849}, "southwest": {"lat": 36.17463161970851, "lng": -86.75821838029151}}}, "icon": "https://maps.gstatic.com/mapfiles/place_api/icons/v1/png_71/restaurant-71.png", "name": "Butcher & Bee", "opening_hours": {"open_now": false}, "photos": [{"height": 853, "html_attributions": ["<a href=\"https://maps.google.com/maps/contrib/105614881741083710027\">Butcher &amp; Bee</a>"], "photo_reference": "CmRaAAAA-kqX5aopsts0Ij-UvNTKd4MfFaXOFdvJuIsDLoykfRGUu4XQemUD5yMLsj_NHEh5xckEZNkuJwLtMa1O2595aBwqaYN_303r4Sm86s29L7zzlcybQHCIfY0aoUgdOtarEhBYynn2DkTh7D_ZJKoJ9BwwGhT_WTaYKY15wAoqSbBHXWTo_nGNrQ", "width": 1280}], "place_id": "ChIJl4d3qsxnZIgRNDFlj8W0hvw", "plus_code": {"compound_code": "56GV+97 Nashville, TN, USA", "global_code": "868M56GV+97"}, "price_level": 2, "rating": 4.5, "reference": "ChIJl4d3qsxnZIgRNDFlj8W0hvw", "scope": "GOOGLE", "types": ["restaurant", "food", "point_of_interest", "establishment"], "user_ratings_total": 1319, "vicinity": "902 Main Street, Nashville"}, {"business_status": "OPERATIONAL", "geometry": {"location": {"lat": 36.1759026, "lng": -86.7566757}, "viewport": {"northeast": {"lat": 36.17727953029149, "lng": -86.75524361970851}, "southwest": {"lat": 36.1745815697085, "lng": -86.75794158029152}}}, "icon": "https://maps.gstatic.com/mapfiles/place_api/icons/v1/png_71/shopping-71.png", "name": "The Filling Station East", "opening_hours": {"open_now": true}, "photos": [{"height": 3264, "html_attributions": ["<a href=\"https://maps.google.com/maps/contrib/111951526427433634163\">Michael Edelstone</a>"], "photo_reference": "CmRaAAAATYdRyy0dhPVrYf6Mo5GluEePn9_EGwLxzuBpWxnpz70P_D0a0ihg5JPL_w6YuhyKgetF3Ozip-VbDl3Tq2AVBFPZq4C5IzrOTMXf0GTa-UYep13Oa6TQ7SiVe3CrwTMnEhBgA6LSjoTaglCNyDjwW-hPGhRUWYRPe3Z3-rU6RzRQSs8CSuYLlA", "width": 2448}], "place_id": "ChIJc-UXVTNmZIgRI-fxnSB9Q-Q", "plus_code": {"compound_code": "56GV+98 Nashville, TN, USA", "global_code": "868M56GV+98"}, "rating": 4.8, "reference": "ChIJc-UXVTNmZIgRI-fxnSB9Q-Q", "scope": "GOOGLE", "types": ["liquor_store", "point_of_interest", "store", "establishment"], "user_ratings_total": 105, "vicinity": "904 Main Street, Nashville"}, {"business_status": "OPERATIONAL", "geometry": {"location": {"lat": 36.1759658, "lng": -86.7566928}, "viewport": {"northeast": {"lat": 36.1773404802915, "lng": -86.7552673197085}, "southwest": {"lat": 36.1746425197085, "lng": -86.7579652802915}}}, "icon": "https://maps.gstatic.com/mapfiles/place_api/icons/v1/png_71/generic_business-71.png", "name": "RARE EARTH PROPERTIES", "opening_hours": {"open_now": true}, "place_id": "ChIJ96qlqsxnZIgRNcLue3wAM2s", "plus_code": {"compound_code": "56GV+98 Nashville, TN, USA", "global_code": "868M56GV+98"}, "reference": "ChIJ96qlqsxnZIgRNcLue3wAM2s", "scope": "GOOGLE", "types": ["point_of_interest", "establishment"], "vicinity": "904 Main Street, Nashville"}, {"business_status": "OPERATIONAL", "geometry": {"location": {"lat": 36.1759658, "lng": -86.7566928}, "viewport": {"northeast": {"lat": 36.1773404802915, "lng": -86.7552673197085}, "southwest": {"lat": 36.1746425197085, "lng": -86.7579652802915}}}, "icon": "https://maps.gstatic.com/mapfiles/place_api/icons/v1/png_71/generic_business-71.png", "name": "Wax Pot Studio", "place_id": "ChIJ96qlqsxnZIgR0EQYoIFKEFc", "plus_code": {"compound_code": "56GV+98 Nashville, TN, USA", "global_code": "868M56GV+98"}, "reference": "ChIJ96qlqsxnZIgR0EQYoIFKEFc", "scope": "GOOGLE", "types": ["beauty_salon", "point_of_interest", "establishment"], "vicinity": "904 Main Street, Nashville"}, {"business_status": "OPERATIONAL", "geometry": {"location": {"lat": 36.1759658, "lng": -86.7566928}, "viewport": {"northeast": {"lat": 36.1773147802915, "lng": -86.75534381970849}, "southwest": {"lat": 36.1746168197085, "lng": -86.75804178029149}}}, "icon": "https://maps.gstatic.com/mapfiles/place_api/icons/v1/png_71/generic_business-71.png", "name": "The Hideout Salon and Lounge", "opening_hours": {"open_now": true}, "photos": [{"height": 4032, "html_attributions": ["<a href=\"https://maps.google.com/maps/contrib/108728312496339510242\">The Hideout Salon and Lounge</a>"], "photo_reference": "CmRaAAAAaojMfxVZNcr4Brjf1SpEQHNqxMXr52CzgfReqxuQ8y6FiDhaclegqWNzACgIq-aX3AqIrgfIf3vatcG1AhdivkZDSBplz_llUG2OI6A_a1337DQI26TMJKXWlrej6dvAEhBFe6L_kQGT_FVpyw1RbZ7RGhSLQQSPdoQE6H8MingXHXQred2OeA", "width": 3024}], "place_id": "ChIJiRtL3OdnZIgRAnRmtxvhcjU", "plus_code": {"compound_code": "56GV+98 Nashville, TN, USA", "global_code": "868M56GV+98"}, "rating": 4.9, "reference": "ChIJiRtL3OdnZIgRAnRmtxvhcjU", "scope": "GOOGLE", "types": ["hair_care", "point_of_interest", "establishment"], "user_ratings_total": 34, "vicinity": "904 Main Street, Nashville"}]}, {"mapped_location": "(36.2137354, -86.7306157)", "address": "3708 Gallatin Pike, Nashville", "results": [{"business_status": "OPERATIONAL", "geometry": {"location": {"lat": 36.213791, "lng": -86.730705}, "viewport": {"northeast": {"lat": 36.2151917802915, "lng": -86.7294612697085}, "southwest": {"lat": 36.21249381970851, "lng": -86.73215923029151}}}, "icon": "https://maps.gstatic.com/mapfiles/place_api/icons/v1/png_71/restaurant-71.png", "name": "Captain D's", "opening_hours": {"open_now": true}, "photos": [{"height": 1080, "html_attributions": ["<a href=\"https://maps.google.com/maps/contrib/102189248744130499783\">Paul Nicholson</a>"], "photo_reference": "CmRaAAAAmI2xAMirV3duBADVS9zsPWyuXyoCOAMSvmtthmfnXStuiNLaO2cxCr8AaJShQBu1AoV9ZqY-EOHw6rvAZp6UVZvUEUFvq5_QqGEdRoP6hZaUqymYvV-FTnWlUBgIEkUlEhCJgf36k6giFduaIp_dKCEwGhSQ-DCYJMjcnEtJ5ctviQcPNuxrjw", "width": 1920}], "place_id": "ChIJS6fnpBxoZIgRq-WH0Kb079s", "plus_code": {"compound_code": "6779+GP Nashville, TN, USA", "global_code": "868M6779+GP"}, "price_level": 1, "rating": 3.7, "reference": "ChIJS6fnpBxoZIgRq-WH0Kb079s", "scope": "GOOGLE", "types": ["restaurant", "food", "point_of_interest", "establishment"], "user_ratings_total": 494, "vicinity": "3708 Gallatin Pike, Nashville"}, {"business_status": "OPERATIONAL", "geometry": {"location": {"lat": 36.2140461, "lng": -86.7303603}, "viewport": {"northeast": {"lat": 36.2154689302915, "lng": -86.72917866970849}, "southwest": {"lat": 36.2127709697085, "lng": -86.7318766302915}}}, "icon": "https://maps.gstatic.com/mapfiles/place_api/icons/v1/png_71/atm-71.png", "name": "Bitcoin Depot ATM", "opening_hours": {"open_now": true}, "photos": [{"height": 999, "html_attributions": ["<a href=\"https://maps.google.com/maps/contrib/110771815624695855627\">Bitcoin Depot ATM</a>"], "photo_reference": "CmRaAAAA0fuo-vV8pGoppB_tsUjKvtolZUcXQYqAHgYX0s0BMUAQhNG415imPAYPoP_TIPoI5OHIF4X4GYZ2YVIqXpUDZX9bzENP-Om4xNC_GDvLbdJ1D0ZL7FOw0iF87hfwe8LnEhBA05W1_-RuDGQ8ms9ENu_aGhSnv3ppbb-dD0KEK5NwaG8nhmr5bw", "width": 999}], "place_id": "ChIJFfqP3qtpZIgRuJVD1tVxYrA", "plus_code": {"compound_code": "6779+JV Nashville, TN, USA", "global_code": "868M6779+JV"}, "reference": "ChIJFfqP3qtpZIgRuJVD1tVxYrA", "scope": "GOOGLE", "types": ["atm", "finance", "point_of_interest", "establishment"], "vicinity": "3710 Gallatin Pike, Nashville"}, {"business_status": "OPERATIONAL", "geometry": {"location": {"lat": 36.214109, "lng": -86.730618}, "viewport": {"northeast": {"lat": 36.2154808302915, "lng": -86.7293207697085}, "southwest": {"lat": 36.2127828697085, "lng": -86.7320187302915}}}, "icon": "https://maps.gstatic.com/mapfiles/place_api/icons/v1/png_71/generic_business-71.png", "name": "Gallatin Pike & Gillock St NB", "place_id": "ChIJ6Y8LvBxoZIgRN0Ln2XiBk4M", "plus_code": {"compound_code": "6779+JQ Nashville, TN, USA", "global_code": "868M6779+JQ"}, "reference": "ChIJ6Y8LvBxoZIgRN0Ln2XiBk4M", "scope": "GOOGLE", "types": ["transit_station", "point_of_interest", "establishment"], "vicinity": "United States"}, {"business_status": "OPERATIONAL", "geometry": {"location": {"lat": 36.214093, "lng": -86.7304319}, "viewport": {"northeast": {"lat": 36.2154982802915, "lng": -86.72921046970849}, "southwest": {"lat": 36.2128003197085, "lng": -86.73190843029151}}}, "icon": "https://maps.gstatic.com/mapfiles/place_api/icons/v1/png_71/shopping-71.png", "name": "Kwik Sak", "opening_hours": {"open_now": true}, "photos": [{"height": 3024, "html_attributions": ["<a href=\"https://maps.google.com/maps/contrib/117499367590502784843\">Kwik Sak</a>"], "photo_reference": "CmRaAAAAVz-tKklHyEgXToQg4A2dvGHjO6k1VbhTX0dbnwR0VZYNr6Dc6ptK-Wq8fd-tiNTV5LcFKWZpy2TYvTkYPGWAN0hhbLC6PmJya9iHsMFn2dCOKWgvgTq88Mc3zdEI4fbREhDDhkq9VDlJOA8yuHVmrEVzGhTQPnnrbCBfGhe4CC5fKuiqpbCZ6g", "width": 4032}], "place_id": "ChIJ2Y_HvRxoZIgRwattWSD8X4I", "plus_code": {"compound_code": "6779+JR Nashville, TN, USA", "global_code": "868M6779+JR"}, "rating": 3.4, "reference": "ChIJ2Y_HvRxoZIgRwattWSD8X4I", "scope": "GOOGLE", "types": ["convenience_store", "gas_station", "food", "point_of_interest", "store", "establishment"], "user_ratings_total": 20, "vicinity": "3710 Gallatin Pike, Nashville"}, {"business_status": "OPERATIONAL", "geometry": {"location": {"lat": 36.2141599, "lng": -86.7304146}, "viewport": {"northeast": {"lat": 36.2155604302915, "lng": -86.7291823697085}, "southwest": {"lat": 36.2128624697085, "lng": -86.73188033029152}}}, "icon": "https://maps.gstatic.com/mapfiles/place_api/icons/v1/png_71/restaurant-71.png", "name": "La fondita Express #2", "opening_hours": {"open_now": true}, "photos": [{"height": 3024, "html_attributions": ["<a href=\"https://maps.google.com/maps/contrib/112119678122314695911\">Christian Cuevas</a>"], "photo_reference": "CmRaAAAAclEXj2EqlPr_cJ3euVsJG8DdtVG0rg3fVFMeCVYpiUCeWjXrZPaiQUEEY9DYWJwbwU7PPvSQv5gnCBCOT1PgsQrhiO3KYtBzgKpyEse5eXrlBLiigE_7KlFfoMZZy6pfEhAP0yJvNQDc1NBJZEXbRq7VGhTK8Hrpalnot6Fn3G62g2zIEOnHUg", "width": 4032}], "place_id": "ChIJB7m7WI1pZIgRqqiIz6ht7WE", "plus_code": {"compound_code": "6779+MR Nashville, TN, USA", "global_code": "868M6779+MR"}, "rating": 4.4, "reference": "ChIJB7m7WI1pZIgRqqiIz6ht7WE", "scope": "GOOGLE", "types": ["restaurant", "food", "point_of_interest", "establishment"], "user_ratings_total": 19, "vicinity": "3710 Gallatin Pike, Nashville"}]}, {"mapped_location": "(36.04485, -86.66215)", "address": "1101 Bell Rd, Antioch", "results": [{"business_status": "OPERATIONAL", "geometry": {"location": {"lat": 36.0451796, "lng": -86.6619025}, "viewport": {"northeast": {"lat": 36.04649038029149, "lng": -86.6605010197085}, "southwest": {"lat": 36.0437924197085, "lng": -86.66319898029151}}}, "icon": "https://maps.gstatic.com/mapfiles/place_api/icons/v1/png_71/gas_station-71.png", "name": "bp", "opening_hours": {"open_now": true}, "photos": [{"height": 5312, "html_attributions": ["<a href=\"https://maps.google.com/maps/contrib/109271665509459100751\">Nasser Kabir</a>"], "photo_reference": "CmRaAAAA0qJKSHSsa4_Y6NTBD-fOcnSFCLRngzBRj-LSLMaSyHwzH6hM17USVshEJK1xZcbUj-rdwEgdYnS0tPI4B2FyDBxmOEwJhWwajIlqudVYdF23m9eosG0hQNEguD_wN8r8EhBAYZ7hJajyzGsv39PZtzd3GhRHi5rHd1WB0SW5UZ1a5ZT6hXisfA", "width": 2988}], "place_id": "ChIJOyPAavltZIgRsyP64PifNUg", "plus_code": {"compound_code": "28WQ+36 Nashville, TN, USA", "global_code": "868M28WQ+36"}, "rating": 3.7, "reference": "ChIJOyPAavltZIgRsyP64PifNUg", "scope": "GOOGLE", "types": ["gas_station", "atm", "finance", "restaurant", "food", "point_of_interest", "establishment"], "user_ratings_total": 100, "vicinity": "1101 Bell Road, Antioch"}, {"business_status": "OPERATIONAL", "geometry": {"location": {"lat": 36.0452463, "lng": -86.66189539999999}, "viewport": {"northeast": {"lat": 36.0466118802915, "lng": -86.66050961970849}, "southwest": {"lat": 36.0439139197085, "lng": -86.6632075802915}}}, "icon": "https://maps.gstatic.com/mapfiles/place_api/icons/v1/png_71/gas_station-71.png", "name": "MAPCO Mart", "opening_hours": {"open_now": true}, "photos": [{"height": 2988, "html_attributions": ["<a href=\"https://maps.google.com/maps/contrib/102725794376836987210\">LeRoy Castle</a>"], "photo_reference": "CmRaAAAAV5D7p2t4OSckqbo1sS6XVIcid_8uuKkePihSySSAPTatNd26KHlw_YBvd3eO6rPtHKANUrO83CUKLquDRBVt2yZP6mTiubAqqrWtdpau_xo4q32d_21Im0zgpygnoSTPEhDgnV8X0CRYYNDqTgyGLK_iGhQiIPg6Jne-KoP7gZ23Rnvk4a3SNw", "width": 3984}], "place_id": "ChIJYz97ZgBuZIgR3O8K_I6nJok", "plus_code": {"compound_code": "28WQ+36 Nashville, TN, USA", "global_code": "868M28WQ+36"}, "rating": 2.4, "reference": "ChIJYz97ZgBuZIgR3O8K_I6nJok", "scope": "GOOGLE", "types": ["gas_station", "convenience_store", "restaurant", "food", "point_of_interest", "store", "establishment"], "user_ratings_total": 12, "vicinity": "1101 Bell Road, Antioch"}, {"business_status": "OPERATIONAL", "geometry": {"location": {"lat": 36.0442987, "lng": -86.6621297}, "viewport": {"northeast": {"lat": 36.04569903029149, "lng": -86.6607722697085}, "southwest": {"lat": 36.0430010697085, "lng": -86.66347023029151}}}, "icon": "https://maps.gstatic.com/mapfiles/place_api/icons/v1/png_71/lodging-71.png", "name": "Antioch Quarters Inn and Suites", "opening_hours": {"open_now": true}, "photos": [{"height": 1836, "html_attributions": ["<a href=\"https://maps.google.com/maps/contrib/106491350980347208133\">Josh Anderson</a>"], "photo_reference": "CmRaAAAA3V6vldZVQjgql3UEBkZh1ERbxqnP4wBzs3zj4D1AobEQIRusmjwswIqW1n3hSLwLaZzS5f2YixvpTcnxN9o6BuC9imoL6OIDN-xLiCFrIcu81Ukiv6m31TdNbSx49U1XEhBQTKxvuYfOWhPtx2_c9OWQGhT9cD19myCxrBiTs2PzkvITzkjIng", "width": 3264}], "place_id": "ChIJtZGabgBuZIgRzMAVsITSJVM", "plus_code": {"compound_code": "28VQ+P4 Nashville, TN, USA", "global_code": "868M28VQ+P4"}, "rating": 2.9, "reference": "ChIJtZGabgBuZIgRzMAVsITSJVM", "scope": "GOOGLE", "types": ["lodging", "point_of_interest", "establishment"], "user_ratings_total": 227, "vicinity": "1100 Bell Road, Antioch"}, {"business_status": "OPERATIONAL", "geometry": {"location": {"lat": 36.0452075, "lng": -86.6627125}, "viewport": {"northeast": {"lat": 36.0463718302915, "lng": -86.66138066970849}, "southwest": {"lat": 36.0436738697085, "lng": -86.66407863029151}}}, "icon": "https://maps.gstatic.com/mapfiles/place_api/icons/v1/png_71/generic_business-71.png", "name": "Valvoline Instant Oil Change", "opening_hours": {"open_now": true}, "photos": [{"height": 1192, "html_attributions": ["<a href=\"https://maps.google.com/maps/contrib/106151176170265340444\">Valvoline Instant Oil Change</a>"], "photo_reference": "CmRaAAAAQmYab7n6mpoXepLVQ-17mhQFtjKGKz7wnPoPftHz8h6qQjWO_TbPKR7uB38L3w75N7zYSmE8gHNEHQDOwJMGgl7VS8z0Jx7B3aRh_ZqoRCYU1B7yoAogm96g-4U46DxhEhDWmYlEZ70Nw6W6V-i3BLO4GhRQxsyfT8_UtlA_ubiHLeF2PCQsLA", "width": 2119}], "place_id": "ChIJG3hqRABuZIgR3ZFwnVC5x1w", "plus_code": {"compound_code": "28WP+3W Nashville, TN, USA", "global_code": "868M28WP+3W"}, "rating": 4.3, "reference": "ChIJG3hqRABuZIgR3ZFwnVC5x1w", "scope": "GOOGLE", "types": ["car_repair", "point_of_interest", "establishment"], "user_ratings_total": 144, "vicinity": "1109 Bell Road, Antioch"}, {"business_status": "OPERATIONAL", "geometry": {"location": {"lat": 36.0444219, "lng": -86.6626356}, "viewport": {"northeast": {"lat": 36.0458549302915, "lng": -86.66128426970849}, "southwest": {"lat": 36.0431569697085, "lng": -86.6639822302915}}}, "icon": "https://maps.gstatic.com/mapfiles/place_api/icons/v1/png_71/gas_station-71.png", "name": "Shell", "photos": [{"height": 3024, "html_attributions": ["<a href=\"https://maps.google.com/maps/contrib/105665817521106705759\">Aaron Wall</a>"], "photo_reference": "CmRaAAAAuAajj-Jp6RONmjq9zASEaA_IoOC5-6Lty3UDEVYFQ00WRZzrCfvj6qxbT0s5d-fkcjb8L4wnMTKGv_-f8cjFWvC9vQR4MCOCa1ky-vR1C6gNYEuz9yiCSyOahT1KDU1bEhDeAh-Faa83xOUHx09Ry5cGGhTHFGpWRKKA_gXzxNj8SiJvNPDqow", "width": 4032}], "place_id": "ChIJaVnNRgBuZIgRas_MIJ2wipk", "plus_code": {"compound_code": "28VP+QW Nashville, TN, USA", "global_code": "868M28VP+QW"}, "price_level": 2, "rating": 3.8, "reference": "ChIJaVnNRgBuZIgRas_MIJ2wipk", "scope": "GOOGLE", "types": ["gas_station", "atm", "car_wash", "convenience_store", "finance", "food", "point_of_interest", "store", "establishment"], "user_ratings_total": 54, "vicinity": "1110 Bell Road, Antioch"}]}, {"mapped_location": "(36.21238216095462, -86.73137241974473)", "address": "3604b Gallatin Pike, Nashville", "results": [{"business_status": "OPERATIONAL", "geometry": {"location": {"lat": 36.21230589999999, "lng": -86.73132810000001}, "viewport": {"northeast": {"lat": 36.2137859802915, "lng": -86.7302567697085}, "southwest": {"lat": 36.2110880197085, "lng": -86.73295473029151}}}, "icon": "https://maps.gstatic.com/mapfiles/place_api/icons/v1/png_71/generic_business-71.png", "name": "Gallatin Pike Coin Laundry", "opening_hours": {"open_now": true}, "photos": [{"height": 539, "html_attributions": ["<a href=\"https://maps.google.com/maps/contrib/103507774215900497973\">Gallatin Pike Coin Laundry</a>"], "photo_reference": "CmRaAAAAnTCsBnO7eOZCa63FqvhrJ5qz0mLCVnVMHjzjE5LOieb7SKZpOtWsBBgi9lx11Lg58_S0azc8Qvp8H1gOvkY6H7RTQU9NYqDZjbniJcZVeBpLqNCVdNg0IlyoRab1grUZEhAzVh5mJsyLMp13aQ5foa4RGhQsRnEjliPqRE783uWLo1jRCfXfZg", "width": 720}], "place_id": "ChIJn1EWGJxpZIgR5ah-d7VsgnU", "plus_code": {"compound_code": "6769+WF Nashville, TN, USA", "global_code": "868M6769+WF"}, "rating": 4.6, "reference": "ChIJn1EWGJxpZIgR5ah-d7VsgnU", "scope": "GOOGLE", "types": ["laundry", "point_of_interest", "establishment"], "user_ratings_total": 71, "vicinity": "3602 Gallatin Pike, Nashville"}, {"business_status": "OPERATIONAL", "geometry": {"location": {"lat": 36.212293, "lng": -86.7313034}, "viewport": {"northeast": {"lat": 36.21377903029149, "lng": -86.7302447697085}, "southwest": {"lat": 36.2110810697085, "lng": -86.73294273029151}}}, "icon": "https://maps.gstatic.com/mapfiles/place_api/icons/v1/png_71/shopping-71.png", "name": "T-Mobile", "opening_hours": {"open_now": true}, "photos": [{"height": 2000, "html_attributions": ["<a href=\"https://maps.google.com/maps/contrib/111604123618762192050\">T-Mobile</a>"], "photo_reference": "CmRaAAAA6HEFzOeRlSRAHefmvbmuH7vXCdTuwF7RU8jePfyWAZ0OfbHHDjTnSab3lEtIrqrRQpfkadY6p4q9sDXMJ1EcXYq5FSinPIYD89LT-dGitS5IRvRK0f3DLy228jorYW53EhBlRjTb6RP2IKBFcx5pSwGKGhSaqZhQBUc_4dxOSpMz7wls4dw2Gg", "width": 3000}], "place_id": "ChIJQ1jjuq9pZIgRDTq9it2E_Dk", "plus_code": {"compound_code": "6769+WF Nashville, TN, USA", "global_code": "868M6769+WF"}, "rating": 3.9, "reference": "ChIJQ1jjuq9pZIgRDTq9it2E_Dk", "scope": "GOOGLE", "types": ["electronics_store", "point_of_interest", "store", "establishment"], "user_ratings_total": 37, "vicinity": "3600 Gallatin Pike, Nashville"}, {"business_status": "OPERATIONAL", "geometry": {"location": {"lat": 36.21243589999999, "lng": -86.7312066}, "viewport": {"northeast": {"lat": 36.2139207302915, "lng": -86.73014541970849}, "southwest": {"lat": 36.2112227697085, "lng": -86.7328433802915}}}, "icon": "https://maps.gstatic.com/mapfiles/place_api/icons/v1/png_71/restaurant-71.png", "name": "Papa John's Pizza", "opening_hours": {"open_now": true}, "photos": [{"height": 1080, "html_attributions": ["<a href=\"https://maps.google.com/maps/contrib/109833418826721760465\">Tony Stankard</a>"], "photo_reference": "CmRaAAAA4KPAeKNdlYLmJxuprDq0ZI8ma2SBKecljDtEaLUPU0w-XgvXvryI4fzhVlTmqP0U9vAiBT3SM9MCn1cgA0MuPm5qONVOOn6VvWOgwbd_ktbek2JYXgw10ugNvisjDtLkEhAflQ8lrPr9icn52uThzwK4GhR84z9CARwdOBEyxigmoP6RjqBa9w", "width": 1920}], "place_id": "ChIJFbCVsQRoZIgRfZ-_YAYBc4Y", "plus_code": {"compound_code": "6769+XG Nashville, TN, USA", "global_code": "868M6769+XG"}, "price_level": 1, "rating": 3.1, "reference": "ChIJFbCVsQRoZIgRfZ-_YAYBc4Y", "scope": "GOOGLE", "types": ["restaurant", "food", "point_of_interest", "establishment"], "user_ratings_total": 263, "vicinity": "3604 Gallatin Pike, Nashville"}, {"business_status": "OPERATIONAL", "geometry": {"location": {"lat": 36.21257999999999, "lng": -86.73125}, "viewport": {"northeast": {"lat": 36.21403883029149, "lng": -86.7301337197085}, "southwest": {"lat": 36.21134086970849, "lng": -86.73283168029151}}}, "icon": "https://maps.gstatic.com/mapfiles/place_api/icons/v1/png_71/generic_business-71.png", "name": "ACE Cash Express", "opening_hours": {"open_now": true}, "photos": [{"height": 900, "html_attributions": ["<a href=\"https://maps.google.com/maps/contrib/115136597405502574683\">ACE Cash Express</a>"], "photo_reference": "CmRaAAAAQE3HFxa_xX60j9qGSvhM1-pe9PqXpqhWtWKijtC8IpCBub9ZsCmp_AQ8jUVBEx534iIlvGDVs-I9_IpgqIHWyoOOj-kZKk5QVJvvvSkWzkZLP5SD4fAQv20b6xpodHMYEhCEfYZKPygiPxN1W7zHVBtdGhRmMvw9dFX2Bx-j77Qq9xJVXyuVxw", "width": 1600}], "place_id": "ChIJG1LvrQRoZIgRk-gBNdH_EPc", "plus_code": {"compound_code": "6779+2G Nashville, TN, USA", "global_code": "868M6779+2G"}, "rating": 4.7, "reference": "ChIJG1LvrQRoZIgRk-gBNdH_EPc", "scope": "GOOGLE", "types": ["finance", "point_of_interest", "establishment"], "user_ratings_total": 19, "vicinity": "3606 Gallatin Pike, Nashville"}, {"business_status": "OPERATIONAL", "geometry": {"location": {"lat": 36.21250359999999, "lng": -86.7311295}, "viewport": {"northeast": {"lat": 36.21399338029149, "lng": -86.73007876970848}, "southwest": {"lat": 36.21129541970849, "lng": -86.73277673029149}}}, "icon": "https://maps.gstatic.com/mapfiles/place_api/icons/v1/png_71/generic_business-71.png", "name": "MoneyGram", "opening_hours": {"open_now": true}, "place_id": "ChIJoxHWURtoZIgRW68EDCmxmCM", "plus_code": {"compound_code": "6779+2G Nashville, TN, USA", "global_code": "868M6779+2G"}, "rating": 3, "reference": "ChIJoxHWURtoZIgRW68EDCmxmCM", "scope": "GOOGLE", "types": ["finance", "point_of_interest", "establishment"], "user_ratings_total": 1, "vicinity": "3606 Gallatin Pike, Nashville"}]}, {"mapped_location": "(36.151640098202236, -86.78028814820047)", "address": "811 Gleaves St, Nashville", "results": [{"business_status": "OPERATIONAL", "geometry": {"location": {"lat": 36.1517755, "lng": -86.78023429999999}, "viewport": {"northeast": {"lat": 36.1531870802915, "lng": -86.77887461970849}, "southwest": {"lat": 36.1504891197085, "lng": -86.7815725802915}}}, "icon": "https://maps.gstatic.com/mapfiles/place_api/icons/v1/png_71/generic_business-71.png", "name": "Steelhead", "place_id": "ChIJRYdZsWFmZIgRxZMygezbbjA", "plus_code": {"compound_code": "5629+PW Nashville, TN, USA", "global_code": "868M5629+PW"}, "reference": "ChIJRYdZsWFmZIgRxZMygezbbjA", "scope": "GOOGLE", "types": ["point_of_interest", "establishment"], "vicinity": "829 Gleaves Street, Nashville"}, {"business_status": "OPERATIONAL", "geometry": {"location": {"lat": 36.1517783, "lng": -86.78023069999999}, "viewport": {"northeast": {"lat": 36.1531882802915, "lng": -86.77887126970847}, "southwest": {"lat": 36.1504903197085, "lng": -86.7815692302915}}}, "icon": "https://maps.gstatic.com/mapfiles/place_api/icons/v1/png_71/generic_business-71.png", "name": "Scout's Barbershop", "opening_hours": {"open_now": true}, "photos": [{"height": 4032, "html_attributions": ["<a href=\"https://maps.google.com/maps/contrib/115431135571584730495\">James Sutherlin</a>"], "photo_reference": "CmRaAAAAJGOSU_Y-tA6wnNd4xw0a8ORaJ3AHuComEPV3GwXKBHqqyjNimswPiCgQiZVdCqRY5OGDRHEnRwfqBQwzeLe8tQYxnb3k9FHVcccYbN2qWmBhW_-ig2vBhdJ_Pqb5cdugEhAa24SS09-okQI5dn61Lv9gGhT-Q0q5AXkyel2_k5ahR7WW6XXX1w", "width": 3024}], "place_id": "ChIJnfvtsWFmZIgR8e4C7CTVLM0", "plus_code": {"compound_code": "5629+PW Nashville, TN, USA", "global_code": "868M5629+PW"}, "rating": 4.5, "reference": "ChIJnfvtsWFmZIgR8e4C7CTVLM0", "scope": "GOOGLE", "types": ["hair_care", "health", "point_of_interest", "store", "establishment"], "user_ratings_total": 143, "vicinity": "811 Gleaves Street, Nashville"}, {"business_status": "OPERATIONAL", "geometry": {"location": {"lat": 36.151529, "lng": -86.7800725}, "viewport": {"northeast": {"lat": 36.15289308029151, "lng": -86.7788992197085}, "southwest": {"lat": 36.15019511970851, "lng": -86.78159718029151}}}, "icon": "https://maps.gstatic.com/mapfiles/place_api/icons/v1/png_71/shopping-71.png", "name": "Casa de Montecristo", "opening_hours": {"open_now": true}, "photos": [{"height": 4032, "html_attributions": ["<a href=\"https://maps.google.com/maps/contrib/110747100264062890180\">Canan Arslan</a>"], "photo_reference": "CmRaAAAAJSYuXEf012x28CwFxBLAI0ml62_bGQRrjrMVK2ZRpGtuH3xjbrPtNs59vY_mIk1kXoto1kaWyc7ScEzXc-A9fmL9wW0Anc29JdwjowrFOKggOyqT4P6SVGzY2iC90SBDEhAd6hpVFAAz-ma3JbWG1RYoGhSPxkPCh6hrH1Q3s3HMn97DKIgzgQ", "width": 3024}], "place_id": "ChIJbS-0sWFmZIgR9stFGeTedgo", "plus_code": {"compound_code": "5629+JX Nashville, TN, USA", "global_code": "868M5629+JX"}, "rating": 4.7, "reference": "ChIJbS-0sWFmZIgR9stFGeTedgo", "scope": "GOOGLE", "types": ["night_club", "bar", "point_of_interest", "store", "establishment"], "user_ratings_total": 413, "vicinity": "600 9th Avenue South #130, Nashville"}, {"business_status": "CLOSED_TEMPORARILY", "geometry": {"location": {"lat": 36.1518084, "lng": -86.7800863}, "viewport": {"northeast": {"lat": 36.1531958802915, "lng": -86.7787316697085}, "southwest": {"lat": 36.1504979197085, "lng": -86.78142963029151}}}, "icon": "https://maps.gstatic.com/mapfiles/place_api/icons/v1/png_71/bar-71.png", "name": "Rudy's Jazz Room", "permanently_closed": true, "photos": [{"height": 1365, "html_attributions": ["<a href=\"https://maps.google.com/maps/contrib/110656929387039416800\">Rudy&#39;s Jazz Room</a>"], "photo_reference": "CmRaAAAABNpEkoo3OtuRKVs8uzctf8h7E5njnJxOB3WWYojZsX24hnXsAWG1Pm3-fveFJpbQO7NwubyHSF7hEqoofr6WlH7B0u8AIp9M82P4GQHJ1XPxZdLIqikJQC8Q8X_okcy2EhCL1ikAlx2I-E1lHQCXqaojGhSePhDVCP5TwIUN7X8B543KxyE_HA", "width": 2048}], "place_id": "ChIJdUP7sWFmZIgR-GieG9G2mmc", "plus_code": {"compound_code": "5629+PX Nashville, TN, USA", "global_code": "868M5629+PX"}, "price_level": 2, "rating": 4.7, "reference": "ChIJdUP7sWFmZIgR-GieG9G2mmc", "scope": "GOOGLE", "types": ["night_club", "bar", "restaurant", "food", "point_of_interest", "establishment"], "user_ratings_total": 747, "vicinity": "809 Gleaves Street, Nashville"}, {"business_status": "OPERATIONAL", "geometry": {"location": {"lat": 36.1515328, "lng": -86.78075439999999}, "viewport": {"northeast": {"lat": 36.1528678802915, "lng": -86.77924371970849}, "southwest": {"lat": 36.1501699197085, "lng": -86.7819416802915}}}, "icon": "https://maps.gstatic.com/mapfiles/place_api/icons/v1/png_71/generic_business-71.png", "name": "TRUMAV Fitness", "opening_hours": {"open_now": true}, "photos": [{"height": 4299, "html_attributions": ["<a href=\"https://maps.google.com/maps/contrib/104007995424291114807\">TRUMAV Fitness</a>"], "photo_reference": "CmRaAAAAA_K9J3Iqy6c8gT5ZpEY8dD3ni69RYxvcWLHeIVA-RVy8IVMQRfURUPlmVrHUd6OlkSE1TSDe2yC9_9zDLytStPEBG-LzHmQwLoIFJtwuk5_B2JPDR__oMGVXbvI78xWdEhAO3kFZjlq6qWnmpzCDWWVWGhTRrbVVJqhm0oOlEh-7cvBNI4CyDA", "width": 6448}], "place_id": "ChIJJWPF3_FnZIgRr10zY1c5rZI", "plus_code": {"compound_code": "5629+JM Nashville, TN, USA", "global_code": "868M5629+JM"}, "rating": 5, "reference": "ChIJJWPF3_FnZIgRr10zY1c5rZI", "scope": "GOOGLE", "types": ["gym", "health", "point_of_interest", "establishment"], "user_ratings_total": 9, "vicinity": "603 9th Avenue South, Nashville"}]}, {"mapped_location": "(36.2456, -86.71562)", "address": "734 Berkley Dr, Madison", "results": [{"business_status": "OPERATIONAL", "geometry": {"location": {"lat": 36.24645900000001, "lng": -86.715537}, "viewport": {"northeast": {"lat": 36.2478575802915, "lng": -86.71435501970849}, "southwest": {"lat": 36.2451596197085, "lng": -86.7170529802915}}}, "icon": "https://maps.gstatic.com/mapfiles/place_api/icons/v1/png_71/generic_business-71.png", "name": "Morales Roofing LLC", "opening_hours": {"open_now": true}, "photos": [{"height": 750, "html_attributions": ["<a href=\"https://maps.google.com/maps/contrib/109494335565604133361\">Morales Roofing LLC</a>"], "photo_reference": "CmRaAAAAGTRl2Sn8nw2a3ftzDSYd7LlUCXw-kWtrdf0WpHxZBXbH6Jy3CdGpjJ7Un6wtr78NSsaGo_oKqz-KohMRbYeOj8ENu-hTUZk_qHFJar6f_b5LqlNM8QvtZGTiQ7XApaTgEhBCZp43AwX_j1S9UDM7VUPhGhS8i4nEA_Zvr6YHOXtjoTw2dQrbkQ", "width": 1000}], "place_id": "ChIJc5kqv-5CZIgRFgI4l6ODG70", "plus_code": {"compound_code": "67WM+HQ Nashville, TN, USA", "global_code": "868M67WM+HQ"}, "rating": 5, "reference": "ChIJc5kqv-5CZIgRFgI4l6ODG70", "scope": "GOOGLE", "types": ["roofing_contractor", "point_of_interest", "establishment"], "user_ratings_total": 24, "vicinity": "1208 Argle Avenue, Madison"}, {"business_status": "OPERATIONAL", "geometry": {"location": {"lat": 36.2468146, "lng": -86.71484219999999}, "viewport": {"northeast": {"lat": 36.2480720802915, "lng": -86.7134939697085}, "southwest": {"lat": 36.2453741197085, "lng": -86.71619193029152}}}, "icon": "https://maps.gstatic.com/mapfiles/place_api/icons/v1/png_71/lodging-71.png", "name": "Hotel Stay. Save. Smile", "place_id": "ChIJ25Fl7O5CZIgRIFrTOzDdqGE", "plus_code": {"compound_code": "67WP+P3 Nashville, TN, USA", "global_code": "868M67WP+P3"}, "reference": "ChIJ25Fl7O5CZIgRIFrTOzDdqGE", "scope": "GOOGLE", "types": ["lodging", "point_of_interest", "establishment"], "vicinity": "Barry Drive, Madison"}, {"business_status": "OPERATIONAL", "geometry": {"location": {"lat": 36.24545289999999, "lng": -86.71388809999999}, "viewport": {"northeast": {"lat": 36.24646568029149, "lng": -86.71154120000001}, "southwest": {"lat": 36.24376771970849, "lng": -86.71467039999999}}}, "icon": "https://maps.gstatic.com/mapfiles/place_api/icons/v1/png_71/generic_business-71.png", "name": "J&E CLEANING SERVICE", "opening_hours": {"open_now": true}, "photos": [{"height": 271, "html_attributions": ["<a href=\"https://maps.google.com/maps/contrib/107124986515098823091\">J&amp;E CLEANING SERVICE</a>"], "photo_reference": "CmRaAAAAyHxeY7bvRzfEy6-2ElNxoKwNRhp8FQK2AuQCDGTjhRd_qtayjyClBaPBBMLVTd3KNnE-UK7Q3zOVEnU5EFqHqkKkGFMxtuLfCe8sdTo70AfN0OQ1Za88L3nv1-4_ogfJEhBqKWTNl549Me2dOdfeDXHGGhQmSTDTeyEph09gQJP0zbOWFvCsJw", "width": 481}], "place_id": "ChIJrUEhf-JDZIgRFKU1Lu6g2ks", "plus_code": {"compound_code": "67WP+5C Nashville, TN, USA", "global_code": "868M67WP+5C"}, "reference": "ChIJrUEhf-JDZIgRFKU1Lu6g2ks", "scope": "GOOGLE", "types": ["point_of_interest", "establishment"], "vicinity": "300 Berkley Drive apt r03, R03"}, {"business_status": "OPERATIONAL", "geometry": {"location": {"lat": 36.24545289999999, "lng": -86.71388809999999}, "viewport": {"northeast": {"lat": 36.24646568029149, "lng": -86.71154120000001}, "southwest": {"lat": 36.24376771970849, "lng": -86.71467039999999}}}, "icon": "https://maps.gstatic.com/mapfiles/place_api/icons/v1/png_71/generic_business-71.png", "name": "Berkley Hills Apartments", "opening_hours": {"open_now": true}, "photos": [{"height": 360, "html_attributions": ["<a href=\"https://maps.google.com/maps/contrib/100267311085750103806\">Berkley Hills Apartments</a>"], "photo_reference": "CmRaAAAAElEe5qwAQM_clPtIr_PObqeTRKYxpDGl2UL5zVer6gOGmwhpv1ftZ-UJ2h0rcDXFNuhampY3y-sKL_HxojjwRvVo2OIOVmXMufvyWeTlOu_3-dgla3PVvLY91-BtFSVxEhClzgJDk6mXyNovKy5M03KLGhTT8_761JnnIB3SZaJI-TtkkGjQUg", "width": 540}], "place_id": "ChIJ76aOe-5CZIgR6Ct_l3HJeaw", "plus_code": {"compound_code": "67WP+5C Nashville, TN, USA", "global_code": "868M67WP+5C"}, "rating": 2.2, "reference": "ChIJ76aOe-5CZIgR6Ct_l3HJeaw", "scope": "GOOGLE", "types": ["real_estate_agency", "point_of_interest", "establishment"], "user_ratings_total": 38, "vicinity": "300 Berkley Drive, Madison"}, {"business_status": "OPERATIONAL", "geometry": {"location": {"lat": 36.246886, "lng": -86.71338999999999}, "viewport": {"northeast": {"lat": 36.2483347302915, "lng": -86.71193786970849}, "southwest": {"lat": 36.2456367697085, "lng": -86.7146358302915}}}, "icon": "https://maps.gstatic.com/mapfiles/place_api/icons/v1/png_71/generic_business-71.png", "name": "Tennessee Players Inc", "photos": [{"height": 1836, "html_attributions": ["<a href=\"https://maps.google.com/maps/contrib/106955747092723889530\">Eddie Hamilton</a>"], "photo_reference": "CmRaAAAAUYfWLi6rMMhsOKS-IWDbVR7lgkbXFukl8HsZRhfBb_BryT8WJvsWE7C_qqqBcbtuZtoFuZDbvwGkSea2B22PoQdDoZu9CuSbT4Zeg_UsIeaIAktp9rBS58mXlPNsBom6EhCexfD5Hr6D759QPd_JsPcIGhRDUDR0GOZLv_jysGHS57talvuMLw", "width": 3264}], "place_id": "ChIJhfIrf8NCZIgRQKSqw3e7huw", "plus_code": {"compound_code": "67WP+QJ Nashville, TN, USA", "global_code": "868M67WP+QJ"}, "rating": 4.3, "reference": "ChIJhfIrf8NCZIgRQKSqw3e7huw", "scope": "GOOGLE", "types": ["point_of_interest", "establishment"], "user_ratings_total": 4, "vicinity": "304 East Due West Avenue, Madison"}]}, {"mapped_location": "(36.04518273320394, -86.71568817542946)", "address": "15121 Old Hickory Blvd, Nashville", "results": [{"business_status": "OPERATIONAL", "geometry": {"location": {"lat": 36.0451843, "lng": -86.7157016}, "viewport": {"northeast": {"lat": 36.04651698029149, "lng": -86.7143520197085}, "southwest": {"lat": 36.04381901970849, "lng": -86.7170499802915}}}, "icon": "https://maps.gstatic.com/mapfiles/place_api/icons/v1/png_71/generic_business-71.png", "name": "Al Cadenas Insurance", "place_id": "ChIJmXMqpdhvZIgRxD29cdhGeB0", "plus_code": {"compound_code": "27WM+3P Nashville, TN, USA", "global_code": "868M27WM+3P"}, "rating": 5, "reference": "ChIJmXMqpdhvZIgRxD29cdhGeB0", "scope": "GOOGLE", "types": ["insurance_agency", "point_of_interest", "establishment"], "user_ratings_total": 1, "vicinity": "15121 Old Hickory Boulevard #103, Nashville"}, {"business_status": "OPERATIONAL", "geometry": {"location": {"lat": 36.0456261, "lng": -86.71565050000001}, "viewport": {"northeast": {"lat": 36.0469237802915, "lng": -86.7142994197085}, "southwest": {"lat": 36.04422581970851, "lng": -86.7169973802915}}}, "icon": "https://maps.gstatic.com/mapfiles/place_api/icons/v1/png_71/generic_business-71.png", "name": "Phone Repair Nashville - iJunkiez Phone Repair", "opening_hours": {"open_now": true}, "photos": [{"height": 632, "html_attributions": ["<a href=\"https://maps.google.com/maps/contrib/103526513735323988894\">Phone Repair Nashville - iJunkiez Phone Repair</a>"], "photo_reference": "CmRaAAAAO9IcKgIyrxTFWEiqqbeF6czdNPx19h6Oz4end_2MLMnPhlL3mRpNdkmyIoR_CQ2ZcFrVdFNvss_TzBGLdGUgq4NKJCm3_ieqOgw_Dyc83yJ9qeKQeNUshE6LsoBnE4frEhAHQCBsq_i6r1WZo50ng66tGhR5TcoLAHFRF1NUFCnR2JXmfJ-Mtw", "width": 1121}], "place_id": "ChIJsZM7u9hvZIgRzJLhC-qr_fQ", "plus_code": {"compound_code": "27WM+7P Nashville, TN, USA", "global_code": "868M27WM+7P"}, "rating": 4.5, "reference": "ChIJsZM7u9hvZIgRzJLhC-qr_fQ", "scope": "GOOGLE", "types": ["point_of_interest", "establishment"], "user_ratings_total": 140, "vicinity": "15120 Old Hickory Boulevard, Nashville"}, {"business_status": "OPERATIONAL", "geometry": {"location": {"lat": 36.0456866, "lng": -86.71553039999999}, "viewport": {"northeast": {"lat": 36.0469556802915, "lng": -86.71417811970849}, "southwest": {"lat": 36.0442577197085, "lng": -86.7168760802915}}}, "icon": "https://maps.gstatic.com/mapfiles/place_api/icons/v1/png_71/restaurant-71.png", "name": "Gyro Spot LLC", "opening_hours": {"open_now": true}, "photos": [{"height": 2267, "html_attributions": ["<a href=\"https://maps.google.com/maps/contrib/107643110199528850763\">Jody May</a>"], "photo_reference": "CmRaAAAAPKH_xdEQQBABUDUbUqSu0ZO_7i2Jrv46Z0GAqdJIWGv4Ha6cPGc8cAuqtV5qfjBjg4wL6oNyf9e2Rs-9Su7XujemM394-Uf_UN7ree0pKD2wFbEtaoImDOdg9DIE43w0EhCKvFbxpV8_YHM0KQcgKm6IGhT-g7WDufzmLsX3Inw2Ne46v-c3Sg", "width": 4032}], "place_id": "ChIJzV9PvdhvZIgR0ZxTB8OTHH0", "plus_code": {"compound_code": "27WM+7Q Nashville, TN, USA", "global_code": "868M27WM+7Q"}, "price_level": 1, "rating": 4.7, "reference": "ChIJzV9PvdhvZIgR0ZxTB8OTHH0", "scope": "GOOGLE", "types": ["restaurant", "food", "point_of_interest", "establishment"], "user_ratings_total": 195, "vicinity": "15118 Old Hickory Boulevard, Nashville"}, {"business_status": "OPERATIONAL", "geometry": {"location": {"lat": 36.0456737, "lng": -86.7159752}, "viewport": {"northeast": {"lat": 36.0470230802915, "lng": -86.7145682697085}, "southwest": {"lat": 36.0443251197085, "lng": -86.7172662302915}}}, "icon": "https://maps.gstatic.com/mapfiles/place_api/icons/v1/png_71/shopping-71.png", "name": "Sherwin-Williams Paint Store", "opening_hours": {"open_now": true}, "photos": [{"height": 1397, "html_attributions": ["<a href=\"https://maps.google.com/maps/contrib/107643110199528850763\">Jody May</a>"], "photo_reference": "CmRaAAAAoFRhy39h_xx0N-aCdeIaey70MozUvTNnXZsbhtrVayxUDr54L8DTVyjwtOc_0XiA24JExgtR0MOsmi68bqApxmtWJ33heydECIAdMxDWdLMgOhoceMLKMOhZKBQSsKYfEhB4pQNenrft-kWA2BrkfAPQGhTpPMkerDbw-zwrcLKUBkeFcgw11g", "width": 2483}], "place_id": "ChIJjXMdsthvZIgRNfLhUMDJYss", "plus_code": {"compound_code": "27WM+7J Nashville, TN, USA", "global_code": "868M27WM+7J"}, "price_level": 2, "rating": 4.5, "reference": "ChIJjXMdsthvZIgRNfLhUMDJYss", "scope": "GOOGLE", "types": ["home_goods_store", "point_of_interest", "store", "establishment"], "user_ratings_total": 77, "vicinity": "15124 Old Hickory Boulevard, Nashville"}, {"business_status": "OPERATIONAL", "geometry": {"location": {"lat": 36.045665, "lng": -86.7153752}, "viewport": {"northeast": {"lat": 36.0469469802915, "lng": -86.7140234697085}, "southwest": {"lat": 36.0442490197085, "lng": -86.7167214302915}}}, "icon": "https://maps.gstatic.com/mapfiles/place_api/icons/v1/png_71/shopping-71.png", "name": "Discount Beer & Tobacco", "opening_hours": {"open_now": true}, "photos": [{"height": 2056, "html_attributions": ["<a href=\"https://maps.google.com/maps/contrib/107643110199528850763\">Jody May</a>"], "photo_reference": "CmRaAAAASQH0t6HlUf5-X05Lb4Y3llIms78KuZOeqF1cQKg-aWRVlAKrsSVbow5qQM13xcz10MxIiexaFmvgIuRFNtitaakf9jBijkpsn6qzS7pBtBQN7YFavhacnw12PGEz69lzEhAvX8Yln-ik2aG8Fz6ibUoPGhRS1KbpvZ_C5H70cuooAHMl5mGfgA", "width": 3653}], "place_id": "ChIJ27y3kNhvZIgRC3KV7MIDxDM", "plus_code": {"compound_code": "27WM+7R Nashville, TN, USA", "global_code": "868M27WM+7R"}, "rating": 3.2, "reference": "ChIJ27y3kNhvZIgRC3KV7MIDxDM", "scope": "GOOGLE", "types": ["liquor_store", "point_of_interest", "store", "establishment"], "user_ratings_total": 10, "vicinity": "15116 Old Hickory Boulevard, Nashville"}]}, {"mapped_location": "(36.189239561618024, -86.74633830674593)", "address": "1010 Gallatin Ave, Nashville", "results": [{"business_status": "OPERATIONAL", "geometry": {"location": {"lat": 36.1892964, "lng": -86.7462929}, "viewport": {"northeast": {"lat": 36.19060183029149, "lng": -86.74478806970849}, "southwest": {"lat": 36.1879038697085, "lng": -86.74748603029151}}}, "icon": "https://maps.gstatic.com/mapfiles/place_api/icons/v1/png_71/cafe-71.png", "name": "Slow Hand Coffee + Bakeshop", "opening_hours": {"open_now": false}, "photos": [{"height": 4032, "html_attributions": ["<a href=\"https://maps.google.com/maps/contrib/115058853933620576427\">Geoffrey Vera</a>"], "photo_reference": "CmRaAAAA8r-2oMBYZiF5Lm3UZS_UJtqn75vm486xlj48yeamH3vglNZs_IR_n8lwnA7sY6ro9a7KZMwznwB0kiaiu9BJ7IVbuIakh_O4bDtko2OIZECoy7esGBGnc8pZbgtazdS3EhAYCfiHVzur8Pqg6KjYUSXUGhTd-fuNL2Fc7lRjBjHGIUbMsOxnIg", "width": 3024}], "place_id": "ChIJxZftas5nZIgRkN0R83mjZI8", "plus_code": {"compound_code": "57Q3+PF Nashville, TN, USA", "global_code": "868M57Q3+PF"}, "rating": 4.3, "reference": "ChIJxZftas5nZIgRkN0R83mjZI8", "scope": "GOOGLE", "types": ["bakery", "cafe", "food", "point_of_interest", "store", "establishment"], "user_ratings_total": 120, "vicinity": "1012 Gallatin Avenue, Nashville"}, {"business_status": "OPERATIONAL", "geometry": {"location": {"lat": 36.1891848, "lng": -86.7462619}, "viewport": {"northeast": {"lat": 36.1905031302915, "lng": -86.74480156970849}, "southwest": {"lat": 36.1878051697085, "lng": -86.74749953029149}}}, "icon": "https://maps.gstatic.com/mapfiles/place_api/icons/v1/png_71/restaurant-71.png", "name": "Pelican & Pig", "opening_hours": {"open_now": false}, "photos": [{"height": 3840, "html_attributions": ["<a href=\"https://maps.google.com/maps/contrib/116546288138045050659\">John Stevenson</a>"], "photo_reference": "CmRaAAAAPIb7r3YZ44x1vyXz6z_Xcdn0J0bb2xmd5-kbuCymTI1aHpDWHyOtjKyM-7gLlK3zF82gVZ_I2CX2cMi6lS8Q0hFXQ-oxdT8Og8H4_U34Oy5XJ3VmGM7ampFCZQHj1RtiEhA51u9YKhhbkj5dwuMWTc3KGhSbdduGjIIwY2fsxaeRRzUzBy1z0Q", "width": 5760}], "place_id": "ChIJyfd2zfZnZIgR5sYzbG-eMhg", "plus_code": {"compound_code": "57Q3+MF Nashville, TN, USA", "global_code": "868M57Q3+MF"}, "rating": 4.6, "reference": "ChIJyfd2zfZnZIgR5sYzbG-eMhg", "scope": "GOOGLE", "types": ["restaurant", "food", "point_of_interest", "establishment"], "user_ratings_total": 168, "vicinity": "1010 Gallatin Avenue, Nashville"}, {"business_status": "OPERATIONAL", "geometry": {"location": {"lat": 36.189065, "lng": -86.74639499999999}, "viewport": {"northeast": {"lat": 36.19037318029149, "lng": -86.74489771970848}, "southwest": {"lat": 36.1876752197085, "lng": -86.7475956802915}}}, "icon": "https://maps.gstatic.com/mapfiles/place_api/icons/v1/png_71/bar-71.png", "name": "Pearl Diver", "opening_hours": {"open_now": false}, "photos": [{"height": 1536, "html_attributions": ["<a href=\"https://maps.google.com/maps/contrib/103143966469342871167\">karimah white</a>"], "photo_reference": "CmRZAAAAzKyFwt_G_4-XcYFEPgQxcjKiMFHjyBk8w6qu7aS0QTyZioVPDRocvHFCIv_OSXJEd3kYpYV2ZhOjF0V5VO8bsuO1x0o6hl3UZtUm-kCK-KIdxsaoe0DvJ2CTev6KewVSEhBWe8D1R2wPlgAUne4ZWae6GhQWKseQZBjZyHuRygvQbdyQu15NbQ", "width": 2048}], "place_id": "ChIJUQrwU-BnZIgRdrkY-uVFpWg", "plus_code": {"compound_code": "57Q3+JC Nashville, TN, USA", "global_code": "868M57Q3+JC"}, "price_level": 2, "rating": 4.4, "reference": "ChIJUQrwU-BnZIgRdrkY-uVFpWg", "scope": "GOOGLE", "types": ["bar", "point_of_interest", "establishment"], "user_ratings_total": 286, "vicinity": "1008 Gallatin Avenue, Nashville"}, {"business_status": "OPERATIONAL", "geometry": {"location": {"lat": 36.1888792, "lng": -86.74652859999999}, "viewport": {"northeast": {"lat": 36.1901805802915, "lng": -86.74500661970849}, "southwest": {"lat": 36.1874826197085, "lng": -86.74770458029151}}}, "icon": "https://maps.gstatic.com/mapfiles/place_api/icons/v1/png_71/shopping-71.png", "name": "LabCanna East CBD Hemp Dispensary", "opening_hours": {"open_now": true}, "photos": [{"height": 630, "html_attributions": ["<a href=\"https://maps.google.com/maps/contrib/104132448667067812753\">LabCanna East CBD Hemp Dispensary</a>"], "photo_reference": "CmRaAAAA7bURRdANLEnzIQq9FvMbfJDN4UxqcPB4PLdm1Fh5P5mnq2HpJJVUnVEZDzr8yemFVUbSxKbebqoqQCRDhYJqLq3AMhQQ98EPZs_hV5XWnNdqXbXIR4cLG2DY6f3mvdaKEhAeL3bLAeLyDpIaUugdW6RhGhSGxUJiFRb5kXDpyMum7lGA5n_V2w", "width": 1200}], "place_id": "ChIJLwLOBKZnZIgRdg46uWnUTZA", "plus_code": {"compound_code": "57Q3+H9 Nashville, TN, USA", "global_code": "868M57Q3+H9"}, "rating": 5, "reference": "ChIJLwLOBKZnZIgRdg46uWnUTZA", "scope": "GOOGLE", "types": ["point_of_interest", "store", "establishment"], "user_ratings_total": 24, "vicinity": "1006 Gallatin Avenue, Nashville"}, {"business_status": "OPERATIONAL", "geometry": {"location": {"lat": 36.1895585, "lng": -86.7459265}, "viewport": {"northeast": {"lat": 36.1908998302915, "lng": -86.7445509197085}, "southwest": {"lat": 36.1882018697085, "lng": -86.74724888029152}}}, "icon": "https://maps.gstatic.com/mapfiles/place_api/icons/v1/png_71/generic_business-71.png", "name": "Gallatin Ave & Sharpe Ave SB", "place_id": "ChIJwUQ5d9lnZIgRslv7OQnX4MA", "plus_code": {"compound_code": "57Q3+RJ Nashville, TN, USA", "global_code": "868M57Q3+RJ"}, "reference": "ChIJwUQ5d9lnZIgRslv7OQnX4MA", "scope": "GOOGLE", "types": ["transit_station", "point_of_interest", "establishment"], "vicinity": "United States"}]}, {"mapped_location": "(36.16449693532521, -86.7834167554486)", "address": "300 7th Ave N, Nashville", "results": [{"business_status": "OPERATIONAL", "geometry": {"location": {"lat": 36.1644355, "lng": -86.78357749999999}, "viewport": {"northeast": {"lat": 36.16578448029149, "lng": -86.78222851970848}, "southwest": {"lat": 36.1630865197085, "lng": -86.7849264802915}}}, "icon": "https://maps.gstatic.com/mapfiles/place_api/icons/v1/png_71/civic_building-71.png", "name": "Tennessee House of Representatives", "place_id": "ChIJbR0ynNJnZIgRw4J4-r_RHz4", "plus_code": {"compound_code": "5678+QH Nashville, TN, USA", "global_code": "868M5678+QH"}, "reference": "ChIJbR0ynNJnZIgRw4J4-r_RHz4", "scope": "GOOGLE", "types": ["local_government_office", "point_of_interest", "establishment"], "vicinity": "19 Legislative Plz, Nashville"}, {"business_status": "OPERATIONAL", "geometry": {"location": {"lat": 36.1645929, "lng": -86.7832655}, "viewport": {"northeast": {"lat": 36.16603758029149, "lng": -86.78169551970849}, "southwest": {"lat": 36.16333961970849, "lng": -86.7843934802915}}}, "icon": "https://maps.gstatic.com/mapfiles/place_api/icons/v1/png_71/generic_business-71.png", "name": "Ida. B Wells Plaza", "place_id": "ChIJKSL6nRxnZIgRgXT3Db42qb4", "plus_code": {"compound_code": "5678+RM Nashville, TN, USA", "global_code": "868M5678+RM"}, "rating": 4, "reference": "ChIJKSL6nRxnZIgRgXT3Db42qb4", "scope": "GOOGLE", "types": ["point_of_interest", "establishment"], "user_ratings_total": 2, "vicinity": "301 6th Avenue North, Nashville"}, {"business_status": "OPERATIONAL", "geometry": {"location": {"lat": 36.1645929, "lng": -86.7832655}, "viewport": {"northeast": {"lat": 36.16603758029149, "lng": -86.78169551970849}, "southwest": {"lat": 36.16333961970849, "lng": -86.7843934802915}}}, "icon": "https://maps.gstatic.com/mapfiles/place_api/icons/v1/png_71/park-71.png", "name": "Legislative Plaza", "opening_hours": {"open_now": true}, "photos": [{"height": 3024, "html_attributions": ["<a href=\"https://maps.google.com/maps/contrib/111363216412544000017\">Tom Kenna</a>"], "photo_reference": "CmRaAAAAFsMmFk9zIjmN62yj_yzs_nzcZDa83VQCUIvfFsGVRjgia6VD7PnKodwjBEG-KIyjDF4m7hw4Np1qH3yatBArylIWg-m3wuNSN4KoLjQGBGZ-6f3ZKznS6gczXfoGUMq7EhDxBeI4xvmfQKdA4xQKa0exGhRx5q8bpQfmwoPH19dKrgtzA-i_Eg", "width": 4032}], "place_id": "ChIJOeszvvdmZIgRoZJGpYdz6cM", "plus_code": {"compound_code": "5678+RM Nashville, TN, USA", "global_code": "868M5678+RM"}, "rating": 4.5, "reference": "ChIJOeszvvdmZIgRoZJGpYdz6cM", "scope": "GOOGLE", "types": ["park", "point_of_interest", "establishment"], "user_ratings_total": 161, "vicinity": "301 6th Avenue North, Nashville"}, {"business_status": "OPERATIONAL", "geometry": {"location": {"lat": 36.1645929, "lng": -86.78326539999999}, "viewport": {"northeast": {"lat": 36.1660375302915, "lng": -86.7816954697085}, "southwest": {"lat": 36.1633395697085, "lng": -86.7843934302915}}}, "icon": "https://maps.gstatic.com/mapfiles/place_api/icons/v1/png_71/civic_building-71.png", "name": "Senator Mae Beavers", "place_id": "ChIJAQAA3PtmZIgRX0q-aXgJCxk", "plus_code": {"compound_code": "5678+RM Nashville, TN, USA", "global_code": "868M5678+RM"}, "rating": 3.1, "reference": "ChIJAQAA3PtmZIgRX0q-aXgJCxk", "scope": "GOOGLE", "types": ["local_government_office", "point_of_interest", "establishment"], "user_ratings_total": 15, "vicinity": "Legislative Plaza, 301 6th Avenue North #6, Nashville"}, {"business_status": "OPERATIONAL", "geometry": {"location": {"lat": 36.1643965, "lng": -86.7836483}, "viewport": {"northeast": {"lat": 36.16593253029149, "lng": -86.78188226970849}, "southwest": {"lat": 36.1632345697085, "lng": -86.7845802302915}}}, "icon": "https://maps.gstatic.com/mapfiles/place_api/icons/v1/png_71/civic_building-71.png", "name": "Rep. Darren Jernigan", "place_id": "ChIJ6xVJlfdmZIgRLVeoYtrQ_D8", "plus_code": {"compound_code": "5678+QG Nashville, TN, USA", "global_code": "868M5678+QG"}, "reference": "ChIJ6xVJlfdmZIgRLVeoYtrQ_D8", "scope": "GOOGLE", "types": ["point_of_interest", "establishment"], "vicinity": "301 6th Avenue North, Nashville"}]}, {"mapped_location": "(36.184346, -86.649926)", "address": "300 Danyacrest Dr, Nashville", "results": [{"business_status": "OPERATIONAL", "geometry": {"location": {"lat": 36.184346, "lng": -86.649926}, "viewport": {"northeast": {"lat": 36.1856626802915, "lng": -86.64889696970849}, "southwest": {"lat": 36.1829647197085, "lng": -86.65159493029151}}}, "icon": "https://maps.gstatic.com/mapfiles/place_api/icons/v1/png_71/school-71.png", "name": "Donelson Christian Academy", "opening_hours": {"open_now": true}, "photos": [{"height": 3024, "html_attributions": ["<a href=\"https://maps.google.com/maps/contrib/111446261160435686491\">Lil Dude</a>"], "photo_reference": "CmRZAAAAjB2jUExQ-mcIU2UlWtPZFahVX92nOa8xvCkEKhnHCG3lQFmP8O-i10mxDQZXOhtLXRpVia7c8pXRDOFLfGBqrknPp9-Dc54LrEIFTXa_Fxpl6Y6xzbhZUaAYb9BuEcbcEhA1jfUPVOJXYgAH74JGhlDZGhQF0uZam21tFLnwnYABO6qI_z0B5w", "width": 4032}], "place_id": "ChIJ_Z5nBzBqZIgRONE1QvEMwko", "plus_code": {"compound_code": "59M2+P2 Nashville, TN, USA", "global_code": "868M59M2+P2"}, "rating": 4, "reference": "ChIJ_Z5nBzBqZIgRONE1QvEMwko", "scope": "GOOGLE", "types": ["primary_school", "secondary_school", "school", "point_of_interest", "establishment"], "user_ratings_total": 30, "vicinity": "300 Danyacrest Drive, Nashville"}, {"business_status": "OPERATIONAL", "geometry": {"location": {"lat": 36.1844651, "lng": -86.6502874}, "viewport": {"northeast": {"lat": 36.1857432302915, "lng": -86.64908886970849}, "southwest": {"lat": 36.1830452697085, "lng": -86.6517868302915}}}, "icon": "https://maps.gstatic.com/mapfiles/place_api/icons/v1/png_71/park-71.png", "name": "DCA School Park XD", "place_id": "ChIJAVnNke5rZIgRTfxLPmQaTj4", "plus_code": {"compound_code": "58MX+QV Nashville, TN, USA", "global_code": "868M58MX+QV"}, "rating": 5, "reference": "ChIJAVnNke5rZIgRTfxLPmQaTj4", "scope": "GOOGLE", "types": ["park", "point_of_interest", "establishment"], "user_ratings_total": 4, "vicinity": "Nashville"}, {"business_status": "OPERATIONAL", "geometry": {"location": {"lat": 36.1846053, "lng": -86.65047179999999}, "viewport": {"northeast": {"lat": 36.1858671802915, "lng": -86.64924421970849}, "southwest": {"lat": 36.1831692197085, "lng": -86.6519421802915}}}, "icon": "https://maps.gstatic.com/mapfiles/place_api/icons/v1/png_71/cafe-71.png", "name": "Wildcats Cafe", "photos": [{"height": 1271, "html_attributions": ["<a href=\"https://maps.google.com/maps/contrib/101179000450235601739\">Drew Johnson</a>"], "photo_reference": "CmRaAAAAwUnNvXxMlkl61SLXHsXR43vXtvt0U9X-lK8UlvucK6BpLEKxlUWnnr6Vwtb8NatSxyDdYbHPetjN-WH1WaP_hbXunK0Oyn6bSFXsnQiTyRE8xV1SPxulxchZj8Rgl_yqEhB4RnTye_Yz877sdUBAbclCGhSjXFPgaqpl3u6v4OGq_OwSpmGugw", "width": 1834}], "place_id": "ChIJ93T905NrZIgRIB1qsErZz70", "plus_code": {"compound_code": "58MX+RR Nashville, TN, USA", "global_code": "868M58MX+RR"}, "rating": 5, "reference": "ChIJ93T905NrZIgRIB1qsErZz70", "scope": "GOOGLE", "types": ["cafe", "food", "point_of_interest", "establishment"], "user_ratings_total": 2, "vicinity": "Nashville"}, {"business_status": "OPERATIONAL", "geometry": {"location": {"lat": 36.18416020000001, "lng": -86.6492176}, "viewport": {"northeast": {"lat": 36.1854316802915, "lng": -86.64777861970849}, "southwest": {"lat": 36.1827337197085, "lng": -86.65047658029151}}}, "icon": "https://maps.gstatic.com/mapfiles/place_api/icons/v1/png_71/shopping-71.png", "name": "The Underground Treehouse", "photos": [{"height": 375, "html_attributions": ["<a href=\"https://maps.google.com/maps/contrib/105631531420932756407\">underground treehouse</a>"], "photo_reference": "CmRaAAAA825peWhv0A9S5e2LtnL1pUulq-AYwdo1udn44pJWhQef9KzxuFNheyZkWKf9XqgFB7QdTZPALYpgpmpzw4TtPxQN6v5YnUVH5UOijfed0XfMwc14QEEfZiqI0aT2ge8fEhBAGUH_KKyxQT9xE7HIvZvsGhQCNxx27PuSmPfNpgk2hcXFp-mFWQ", "width": 500}], "place_id": "ChIJBbafmzpqZIgR84zNGQ0fnSA", "plus_code": {"compound_code": "59M2+M8 Nashville, TN, USA", "global_code": "868M59M2+M8"}, "rating": 5, "reference": "ChIJBbafmzpqZIgR84zNGQ0fnSA", "scope": "GOOGLE", "types": ["electronics_store", "home_goods_store", "point_of_interest", "store", "establishment"], "user_ratings_total": 2, "vicinity": "3145 Stafford Drive, Nashville"}, {"business_status": "OPERATIONAL", "geometry": {"location": {"lat": 36.1840686, "lng": -86.6508047}, "viewport": {"northeast": {"lat": 36.1854211802915, "lng": -86.64946381970849}, "southwest": {"lat": 36.1827232197085, "lng": -86.6521617802915}}}, "icon": "https://maps.gstatic.com/mapfiles/place_api/icons/v1/png_71/school-71.png", "name": "High & Middle School", "place_id": "ChIJ_Z5nBzBqZIgRXr01TOhz9dk", "plus_code": {"compound_code": "58MX+JM Nashville, TN, USA", "global_code": "868M58MX+JM"}, "reference": "ChIJ_Z5nBzBqZIgRXr01TOhz9dk", "scope": "GOOGLE", "types": ["secondary_school", "school", "point_of_interest", "establishment"], "vicinity": "300 Danyacrest Drive, Nashville"}]}, {"mapped_location": "(35.97418704166953, -83.92119011850592)", "address": "101 E 5th Ave, Nan", "results": [{"business_status": "OPERATIONAL", "geometry": {"location": {"lat": 35.9740581, "lng": -83.9210023}, "viewport": {"northeast": {"lat": 35.9753454302915, "lng": -83.91958941970849}, "southwest": {"lat": 35.9726474697085, "lng": -83.9222873802915}}}, "icon": "https://maps.gstatic.com/mapfiles/place_api/icons/v1/png_71/generic_business-71.png", "name": "117th Infantry Regiment Memorial", "photos": [{"height": 4032, "html_attributions": ["<a href=\"https://maps.google.com/maps/contrib/105358084762367944086\">Jay Scott</a>"], "photo_reference": "CmRaAAAAzYNGLgeMJ62ywKl5WttTQe26jhUy9Bj0zNJ4KFb8fqMrB2_f4W420SxMT0Rr8Uxi9fIfm0Idgyt2imceIErse6NhjJ8tZlzLk326sWDzU4gGRV3QxNKP0hsI6bkx1OkJEhBwv9fGnbX9kBeYLcXvnN2iGhSF4uQZ-0LTlZlGWtpyKu-A_wPiYw", "width": 3024}], "place_id": "ChIJrXye-80XXIgRS_f83H_9Kl4", "plus_code": {"compound_code": "X3FH+JH Knoxville, TN, USA", "global_code": "867RX3FH+JH"}, "rating": 5, "reference": "ChIJrXye-80XXIgRS_f83H_9Kl4", "scope": "GOOGLE", "types": ["point_of_interest", "establishment"], "user_ratings_total": 4, "vicinity": "101 East 5th Avenue, Knoxville"}, {"business_status": "OPERATIONAL", "geometry": {"location": {"lat": 35.97442600000001, "lng": -83.92137}, "viewport": {"northeast": {"lat": 35.97553208029151, "lng": -83.9197693197085}, "southwest": {"lat": 35.97283411970851, "lng": -83.9224672802915}}}, "icon": "https://maps.gstatic.com/mapfiles/place_api/icons/v1/png_71/generic_business-71.png", "name": "Adult Business & Information", "place_id": "ChIJsSMQ-c0XXIgRbiaNZ9QPuOs", "plus_code": {"compound_code": "X3FH+QF Knoxville, TN, USA", "global_code": "867RX3FH+QF"}, "reference": "ChIJsSMQ-c0XXIgRbiaNZ9QPuOs", "scope": "GOOGLE", "types": ["point_of_interest", "establishment"], "vicinity": "101 East 5th Avenue, Knoxville"}, {"business_status": "OPERATIONAL", "geometry": {"location": {"lat": 35.97442600000001, "lng": -83.92137}, "viewport": {"northeast": {"lat": 35.97553208029151, "lng": -83.9197693197085}, "southwest": {"lat": 35.97283411970851, "lng": -83.9224672802915}}}, "icon": "https://maps.gstatic.com/mapfiles/place_api/icons/v1/png_71/school-71.png", "name": "Continuing Education", "place_id": "ChIJLYmY980XXIgRxjtaWrL4sXE", "plus_code": {"compound_code": "X3FH+QF Knoxville, TN, USA", "global_code": "867RX3FH+QF"}, "reference": "ChIJLYmY980XXIgRxjtaWrL4sXE", "scope": "GOOGLE", "types": ["point_of_interest", "establishment"], "vicinity": "101 East 5th Avenue, Knoxville"}, {"business_status": "OPERATIONAL", "geometry": {"location": {"lat": 35.9745167, "lng": -83.9213241}, "viewport": {"northeast": {"lat": 35.9755774302915, "lng": -83.9197463697085}, "southwest": {"lat": 35.9728794697085, "lng": -83.92244433029151}}}, "icon": "https://maps.gstatic.com/mapfiles/place_api/icons/v1/png_71/generic_business-71.png", "name": "Knoxville High Independent Senior Living", "opening_hours": {"open_now": true}, "photos": [{"height": 405, "html_attributions": ["<a href=\"https://maps.google.com/maps/contrib/115183061233592984572\">Knoxville High Independent Senior Living</a>"], "photo_reference": "CmRaAAAA5Z3MoTljhZrPUXbvPEWs3v-Es1OahymEYUqNOIcxXJ0PcU0PwXPOY_7xu5EKw-h1Tg3dDKyOnkgvE1bPzKmLFOQt2q7uCqPyZBfKeimMiOWHevmcfZ8Alu3ouUASINwgEhDdOhKhD065jL_tBpmtr1x-GhTUMDUcoBxNWCSOcv_7gpjb9Nckfg", "width": 543}], "place_id": "ChIJtZmX980XXIgRzlplYv7pFhc", "plus_code": {"compound_code": "X3FH+RF Knoxville, TN, USA", "global_code": "867RX3FH+RF"}, "rating": 4.4, "reference": "ChIJtZmX980XXIgRzlplYv7pFhc", "scope": "GOOGLE", "types": ["point_of_interest", "establishment"], "user_ratings_total": 20, "vicinity": "101 East 5th Avenue, Knoxville"}, {"business_status": "OPERATIONAL", "geometry": {"location": {"lat": 35.973769, "lng": -83.921458}, "viewport": {"northeast": {"lat": 35.9751398302915, "lng": -83.92007576970849}, "southwest": {"lat": 35.9724418697085, "lng": -83.92277373029151}}}, "icon": "https://maps.gstatic.com/mapfiles/place_api/icons/v1/png_71/generic_business-71.png", "name": "Central St SB @ 5th Ave", "place_id": "ChIJ3wKN_80XXIgRL0XrsAdMO_U", "plus_code": {"compound_code": "X3FH+GC Knoxville, TN, USA", "global_code": "867RX3FH+GC"}, "reference": "ChIJ3wKN_80XXIgRL0XrsAdMO_U", "scope": "GOOGLE", "types": ["transit_station", "point_of_interest", "establishment"], "vicinity": "United States"}]}, {"mapped_location": "(36.1448599, -86.8110109)", "address": "2613 West End Ave, Nashville", "results": [{"business_status": "OPERATIONAL", "geometry": {"location": {"lat": 36.14483, "lng": -86.81088}, "viewport": {"northeast": {"lat": 36.1461296302915, "lng": -86.8097153197085}, "southwest": {"lat": 36.14343166970851, "lng": -86.81241328029151}}}, "icon": "https://maps.gstatic.com/mapfiles/place_api/icons/v1/png_71/lodging-71.png", "name": "Holiday Inn Nashville-Vanderbilt (Dwtn)", "opening_hours": {"open_now": true}, "photos": [{"height": 800, "html_attributions": ["<a href=\"https://maps.google.com/maps/contrib/110205594413793898142\">Holiday Inn Nashville-Vanderbilt (Dwtn)</a>"], "photo_reference": "CmRaAAAAR9evNHfyvx2UgsK5CDhsSLDvb7FZWs2b5Yx4Mgwkxc0boJfreuuT_PugTB1LCvhyKYmL0OHv122V1_RhOQDs8WQKQ8xnmyJPai5c7hnuavXoAyBsQZZoQVk_2Ocdk3n7EhAm0BmouizhpNJdmsbaGLPVGhRiBqmNt1OUKP57EvfrQZsl0PguKQ", "width": 1200}], "place_id": "ChIJJUx8sLpmZIgRU694vLPVU6g", "plus_code": {"compound_code": "45VQ+WJ Nashville, TN, USA", "global_code": "868M45VQ+WJ"}, "rating": 4.3, "reference": "ChIJJUx8sLpmZIgRU694vLPVU6g", "scope": "GOOGLE", "types": ["lodging", "point_of_interest", "establishment"], "user_ratings_total": 1408, "vicinity": "2613 West End Avenue, Nashville"}, {"business_status": "OPERATIONAL", "geometry": {"location": {"lat": 36.1449923, "lng": -86.81099139999999}, "viewport": {"northeast": {"lat": 36.1464006802915, "lng": -86.8096850197085}, "southwest": {"lat": 36.1437027197085, "lng": -86.8123829802915}}}, "icon": "https://maps.gstatic.com/mapfiles/place_api/icons/v1/png_71/restaurant-71.png", "name": "Commodore Grille", "opening_hours": {"open_now": false}, "photos": [{"height": 2988, "html_attributions": ["<a href=\"https://maps.google.com/maps/contrib/116502593940649910888\">Pj Pro</a>"], "photo_reference": "CmRaAAAAzJZ3q6D0VCAUSkK1TdcKqOdayIfocVqBzu94uXCQfbvc6KEXJxsdVZzflib63vVih8Tp_aNkyMvW5xaE_NTHp6X5kXzf68jqQXwtArExJKhtYO-354a3afIoLVmKnfFyEhC4P2wPihqrrCTBEtWEspGiGhQbrOd75qSQZWBhm77oCEfx_qxOhw", "width": 5312}], "place_id": "ChIJI_Vs57pmZIgR5KJmO7SUz3w", "plus_code": {"compound_code": "45VQ+XJ Nashville, TN, USA", "global_code": "868M45VQ+XJ"}, "price_level": 2, "rating": 4.4, "reference": "ChIJI_Vs57pmZIgR5KJmO7SUz3w", "scope": "GOOGLE", "types": ["bar", "restaurant", "food", "point_of_interest", "establishment"], "user_ratings_total": 163, "vicinity": "2613 West End Avenue, Nashville"}, {"business_status": "OPERATIONAL", "geometry": {"location": {"lat": 36.144782, "lng": -86.811317}, "viewport": {"northeast": {"lat": 36.1460823802915, "lng": -86.81006541970848}, "southwest": {"lat": 36.1433844197085, "lng": -86.8127633802915}}}, "icon": "https://maps.gstatic.com/mapfiles/place_api/icons/v1/png_71/parking-71.png", "name": "2613 West End Ave Parking", "place_id": "ChIJi6XYtLpmZIgRrIlAtjf0lPs", "plus_code": {"compound_code": "45VQ+WF Nashville, TN, USA", "global_code": "868M45VQ+WF"}, "reference": "ChIJi6XYtLpmZIgRrIlAtjf0lPs", "scope": "GOOGLE", "types": ["parking", "point_of_interest", "establishment"], "vicinity": "106 28th Avenue South, Nashville"}, {"business_status": "OPERATIONAL", "geometry": {"location": {"lat": 36.14513479999999, "lng": -86.81134899999999}, "viewport": {"northeast": {"lat": 36.1464837802915, "lng": -86.8100000197085}, "southwest": {"lat": 36.1437858197085, "lng": -86.8126979802915}}}, "icon": "https://maps.gstatic.com/mapfiles/place_api/icons/v1/png_71/generic_business-71.png", "name": "duGard Communications", "opening_hours": {"open_now": true}, "place_id": "ChIJde67De1mZIgRAJosti8G_Qk", "plus_code": {"compound_code": "45WQ+3F Nashville, TN, USA", "global_code": "868M45WQ+3F"}, "rating": 5, "reference": "ChIJde67De1mZIgRAJosti8G_Qk", "scope": "GOOGLE", "types": ["point_of_interest", "establishment"], "user_ratings_total": 1, "vicinity": "2817 West End Avenue Suite 126143, Nashville"}, {"business_status": "OPERATIONAL", "geometry": {"location": {"lat": 36.1453504, "lng": -86.81082769999999}, "viewport": {"northeast": {"lat": 36.14658953029149, "lng": -86.80943856970849}, "southwest": {"lat": 36.14389156970849, "lng": -86.8121365302915}}}, "icon": "https://maps.gstatic.com/mapfiles/place_api/icons/v1/png_71/generic_business-71.png", "name": "Elizabeth J. Phillips, MD", "place_id": "ChIJf--2t7pmZIgRdTGU4PvtZxY", "plus_code": {"compound_code": "45WQ+4M Nashville, TN, USA", "global_code": "868M45WQ+4M"}, "reference": "ChIJf--2t7pmZIgRdTGU4PvtZxY", "scope": "GOOGLE", "types": ["doctor", "health", "point_of_interest", "establishment"], "vicinity": "2611 West End Avenue Suite 210, Nashville"}]}, {"mapped_location": "(36.205414, -86.72199599999999)", "address": "1424 McGavock Pk, Nashville", "results": [{"business_status": "OPERATIONAL", "geometry": {"location": {"lat": 36.2056393, "lng": -86.72297329999999}, "viewport": {"northeast": {"lat": 36.2068925302915, "lng": -86.72156036970848}, "southwest": {"lat": 36.20419456970851, "lng": -86.7242583302915}}}, "icon": "https://maps.gstatic.com/mapfiles/place_api/icons/v1/png_71/generic_business-71.png", "name": "Mae Ship Media", "opening_hours": {"open_now": true}, "photos": [{"height": 888, "html_attributions": ["<a href=\"https://maps.google.com/maps/contrib/100512194521472462955\">Mae Ship Media</a>"], "photo_reference": "CmRaAAAAXfwLgnME_ynKm3bN_XBUqngpF3R_k2P_E42qcfgQ7VyZmC8VBiQQKpmV48Biql4N_6Apaq65Bb4t89NBzI4iDglkvYhZ3FwrYpIKkSoB0rYBb4xBXPG6R9yLtX7-vNwqEhBtnvQ7PpUPHMZmVcCWs6hYGhS3JGt7Ku1d3zF9e77w5iQGvydIbA", "width": 1669}], "place_id": "ChIJhQxwuRdoZIgRH_MP43XiAG4", "plus_code": {"compound_code": "674G+7R Nashville, TN, USA", "global_code": "868M674G+7R"}, "reference": "ChIJhQxwuRdoZIgRH_MP43XiAG4", "scope": "GOOGLE", "types": ["point_of_interest", "establishment"], "vicinity": "1417 McGavock Pike, Nashville"}, {"business_status": "OPERATIONAL", "geometry": {"location": {"lat": 36.204813, "lng": -86.723586}, "viewport": {"northeast": {"lat": 36.2061768802915, "lng": -86.7222602197085}, "southwest": {"lat": 36.2034789197085, "lng": -86.72495818029151}}}, "icon": "https://maps.gstatic.com/mapfiles/place_api/icons/v1/png_71/pharmacy-71.png", "name": "Riverside Village Pharmacy", "opening_hours": {"open_now": true}, "photos": [{"height": 2448, "html_attributions": ["<a href=\"https://maps.google.com/maps/contrib/101145024915935017644\">Riverside Village Pharmacy</a>"], "photo_reference": "CmRaAAAA_k_hvc8bkbtu5pIBPFZpfvnnZgYpyfBLxRwWa9aRYy6tuhV7CxdONoJkgtz_LBFMhnS6HYEGhss0ThJLJ1QbfTtkd_DQqDiY2O2qVYWiEsgIs-IwPWQYMkKJgHFK1VZpEhA6Q-vOOOOPYInk_XMCT0yLGhTuw1a_O-8XWHDQFsZfxHGT6SoIlg", "width": 3264}], "place_id": "ChIJm-ouUxZoZIgRX9VpWMAYqTA", "plus_code": {"compound_code": "673G+WH Nashville, TN, USA", "global_code": "868M673G+WH"}, "rating": 4.7, "reference": "ChIJm-ouUxZoZIgRX9VpWMAYqTA", "scope": "GOOGLE", "types": ["pharmacy", "health", "point_of_interest", "store", "establishment"], "user_ratings_total": 66, "vicinity": "1406A McGavock Pike, Nashville"}, {"business_status": "OPERATIONAL", "geometry": {"location": {"lat": 36.20481350000001, "lng": -86.7235863}, "viewport": {"northeast": {"lat": 36.2061768802915, "lng": -86.7222603697085}, "southwest": {"lat": 36.2034789197085, "lng": -86.7249583302915}}}, "icon": "https://maps.gstatic.com/mapfiles/place_api/icons/v1/png_71/generic_business-71.png", "name": "Riverside Village Clinic", "opening_hours": {"open_now": true}, "photos": [{"height": 4160, "html_attributions": ["<a href=\"https://maps.google.com/maps/contrib/114080871744933721210\">Riverside Village Clinic</a>"], "photo_reference": "CmRaAAAA5yhSoHIjDEBXSVsOMHr7NyHfay8KUPq3EQKkaMQbn-K4ad6aH9MyrqtD4Q5-gOg_0OfXgIpQ0AuDU4ywE3nH1ZBoUY0MwNthcrmcI0l-QsTHRsQQbFuIfXuOvnx1vPCSEhBLATf2D6SPhrCwFewjVqqQGhRXxqcbnKLUpxTMT5iDC8UyxZlNyw", "width": 3120}], "place_id": "ChIJaUiGTH9pZIgRd8z4cPF6JF8", "plus_code": {"compound_code": "673G+WH Nashville, TN, USA", "global_code": "868M673G+WH"}, "rating": 5, "reference": "ChIJaUiGTH9pZIgRd8z4cPF6JF8", "scope": "GOOGLE", "types": ["doctor", "health", "point_of_interest", "establishment"], "user_ratings_total": 47, "vicinity": "1406 McGavock Pike suite b, Nashville"}, {"business_status": "OPERATIONAL", "geometry": {"location": {"lat": 36.2047111, "lng": -86.723522}, "viewport": {"northeast": {"lat": 36.20601228029149, "lng": -86.7221401197085}, "southwest": {"lat": 36.20331431970849, "lng": -86.7248380802915}}}, "icon": "https://maps.gstatic.com/mapfiles/place_api/icons/v1/png_71/generic_business-71.png", "name": "Jason L. Boylan, NP", "place_id": "ChIJm4eNUhZoZIgRnUKBwzuH7Z0", "plus_code": {"compound_code": "673G+VH Nashville, TN, USA", "global_code": "868M673G+VH"}, "reference": "ChIJm4eNUhZoZIgRnUKBwzuH7Z0", "scope": "GOOGLE", "types": ["doctor", "health", "point_of_interest", "establishment"], "vicinity": "1406 McGavock Pike, Madison"}, {"business_status": "OPERATIONAL", "geometry": {"location": {"lat": 36.2047154, "lng": -86.72367919999999}, "viewport": {"northeast": {"lat": 36.2059842802915, "lng": -86.72228711970848}, "southwest": {"lat": 36.2032863197085, "lng": -86.72498508029149}}}, "icon": "https://maps.gstatic.com/mapfiles/place_api/icons/v1/png_71/restaurant-71.png", "name": "Castrillo's Pizza of Inglewood", "opening_hours": {"open_now": false}, "photos": [{"height": 1932, "html_attributions": ["<a href=\"https://maps.google.com/maps/contrib/102227673076902382133\">Castrillo&#39;s Pizza of Inglewood</a>"], "photo_reference": "CmRaAAAAPNNNle-A9Tn-z9g5LV6T1hPEEpxxTN_8sSaUFcwsGhwmVegmAGICWDRllbbJr-wn5S4lPt5ONWE6T5tvN98icn1XraN9IxSsAhgR0JZysztJUMMsdoedu-_2eO2lUNJtEhBvbc84iMDZi4Iuo4qfCT1fGhRZFUKMTsnSBP8lTrX-8lyIJAABsQ", "width": 2576}], "place_id": "ChIJv6QWqxdoZIgRbe7N2hCFwWo", "plus_code": {"compound_code": "673G+VG Nashville, TN, USA", "global_code": "868M673G+VG"}, "price_level": 2, "rating": 4, "reference": "ChIJv6QWqxdoZIgRbe7N2hCFwWo", "scope": "GOOGLE", "types": ["meal_delivery", "restaurant", "food", "point_of_interest", "store", "establishment"], "user_ratings_total": 177, "vicinity": "1404 A McGavock Pike, Nashville"}]}, {"mapped_location": "(36.0482424, -86.7104399)", "address": "5566 Nolensville Pike, Nashville", "results": [{"business_status": "OPERATIONAL", "geometry": {"location": {"lat": 36.048251, "lng": -86.7104343}, "viewport": {"northeast": {"lat": 36.0496800802915, "lng": -86.7091127697085}, "southwest": {"lat": 36.0469821197085, "lng": -86.7118107302915}}}, "icon": "https://maps.gstatic.com/mapfiles/place_api/icons/v1/png_71/generic_business-71.png", "name": "Lolo's Barbershop & Salon", "opening_hours": {"open_now": true}, "photos": [{"height": 2988, "html_attributions": ["<a href=\"https://maps.google.com/maps/contrib/102725794376836987210\">LeRoy Castle</a>"], "photo_reference": "CmRaAAAAO4gp3_nDTdAia1KoYbggOXy59pFMQfGPTjxjMmwN28RgdKC0sHbkL_5QLkZBXBIpNDMPEPZBU165j4ArHh3feiQyA-yVH80D-EvP14AVwb67fglO3ppsUYu5ppa4X8xnEhBBHcGSeNPNsomrjR_fWJj-GhSsu9XNXewW42D4wPHypP5uECEjdQ", "width": 5312}], "place_id": "ChIJMbaMm9lvZIgReou2LRmSHgU", "plus_code": {"compound_code": "27XQ+8R Nashville, TN, USA", "global_code": "868M27XQ+8R"}, "rating": 3.8, "reference": "ChIJMbaMm9lvZIgReou2LRmSHgU", "scope": "GOOGLE", "types": ["beauty_salon", "hair_care", "health", "point_of_interest", "establishment"], "user_ratings_total": 144, "vicinity": "5566 Nolensville Pike, Nashville"}, {"business_status": "OPERATIONAL", "geometry": {"location": {"lat": 36.0482572, "lng": -86.7103341}, "viewport": {"northeast": {"lat": 36.04966563029149, "lng": -86.70896471970849}, "southwest": {"lat": 36.0469676697085, "lng": -86.71166268029151}}}, "icon": "https://maps.gstatic.com/mapfiles/place_api/icons/v1/png_71/shopping-71.png", "name": "8 Segundos Tienda Vaquera", "opening_hours": {"open_now": true}, "photos": [{"height": 2988, "html_attributions": ["<a href=\"https://maps.google.com/maps/contrib/102725794376836987210\">LeRoy Castle</a>"], "photo_reference": "CmRaAAAA_i_IxFxtJfScz27dPiMZzwNORK56IDPqqQomqJmRSbWV1g0Oym-Gfxy3uGArf6tYsF7WuHoO259-JO4RThnFYV6fmZRmssGwFYW9IwcMseuWF4phWlMNUxippxdX4POwEhBSpWuuYigMSJ_QrcPWU2_TGhSJDuEhMOlcpUlLUy_GUn1WhmZklA", "width": 5312}], "place_id": "ChIJdRoHa9dvZIgRriDt_x764S8", "plus_code": {"compound_code": "27XQ+8V Nashville, TN, USA", "global_code": "868M27XQ+8V"}, "rating": 4, "reference": "ChIJdRoHa9dvZIgRriDt_x764S8", "scope": "GOOGLE", "types": ["shoe_store", "point_of_interest", "store", "establishment"], "user_ratings_total": 5, "vicinity": "5568 Nolensville Pike, Nashville"}, {"business_status": "OPERATIONAL", "geometry": {"location": {"lat": 36.0482203, "lng": -86.7106329}, "viewport": {"northeast": {"lat": 36.0495688802915, "lng": -86.70927646970848}, "southwest": {"lat": 36.0468709197085, "lng": -86.7119744302915}}}, "icon": "https://maps.gstatic.com/mapfiles/place_api/icons/v1/png_71/restaurant-71.png", "name": "Fogatas Authentic Mexican Food", "opening_hours": {"open_now": true}, "photos": [{"height": 465, "html_attributions": ["<a href=\"https://maps.google.com/maps/contrib/104194256071421024775\">Fogatas Authentic Mexican Food</a>"], "photo_reference": "CmRaAAAAMjt3a47oIpkDHeMAeEOJoIqAgaycIZx_baghZEIhC1z1N-WB-Ks-fCdUKiP2kJRtzHHQADP-fENi5_AHP8YkASV5qVYJxtA6Bn3GbdFnn5nHGlEWJh9eOQOg-Z1EzH8lEhDxpmbmkWjKOO_KQ17RbjSGGhQtvAqj6muhUuSbtl6Z7UREHhK3Ww", "width": 720}], "place_id": "ChIJJ7Nrm9lvZIgRedgBmlWf3tU", "plus_code": {"compound_code": "27XQ+7P Nashville, TN, USA", "global_code": "868M27XQ+7P"}, "price_level": 2, "rating": 4.2, "reference": "ChIJJ7Nrm9lvZIgRedgBmlWf3tU", "scope": "GOOGLE", "types": ["bar", "restaurant", "food", "point_of_interest", "establishment"], "user_ratings_total": 584, "vicinity": "5560 Nolensville Pike, Nashville"}, {"business_status": "OPERATIONAL", "geometry": {"location": {"lat": 36.0482417, "lng": -86.7102414}, "viewport": {"northeast": {"lat": 36.0496613302915, "lng": -86.7089201697085}, "southwest": {"lat": 36.0469633697085, "lng": -86.71161813029151}}}, "icon": "https://maps.gstatic.com/mapfiles/place_api/icons/v1/png_71/generic_business-71.png", "name": "Luxe Salon", "photos": [{"height": 2988, "html_attributions": ["<a href=\"https://maps.google.com/maps/contrib/102725794376836987210\">LeRoy Castle</a>"], "photo_reference": "CmRaAAAA21kgzELLchwQjoIW_rUbplyBVNozlnkQPMz8Q6hVXfvkpuFVLvq3oltXLEPy7BmVgaAGlyVmmm9HpgJAxq0xKjdUwzFQ79BpklZYmjzM3IeWrxNZpcCkz-STOCMOC1SEEhDWQa4S-sgOOh9d3Nay8UvQGhTjMI3RIO9MbPXDpj7lunv14HJh7Q", "width": 5312}], "place_id": "ChIJ4SUla9dvZIgRBl_bhxyMuQk", "plus_code": {"compound_code": "27XQ+7W Nashville, TN, USA", "global_code": "868M27XQ+7W"}, "rating": 3, "reference": "ChIJ4SUla9dvZIgRBl_bhxyMuQk", "scope": "GOOGLE", "types": ["hair_care", "point_of_interest", "establishment"], "user_ratings_total": 1, "vicinity": "5520 Nolensville Pike, Nashville"}, {"business_status": "OPERATIONAL", "geometry": {"location": {"lat": 36.0482022, "lng": -86.7102448}, "viewport": {"northeast": {"lat": 36.0494767802915, "lng": -86.7088636197085}, "southwest": {"lat": 36.0467788197085, "lng": -86.7115615802915}}}, "icon": "https://maps.gstatic.com/mapfiles/place_api/icons/v1/png_71/shopping-71.png", "name": "The Ice Cream Bar", "opening_hours": {"open_now": false}, "photos": [{"height": 720, "html_attributions": ["<a href=\"https://maps.google.com/maps/contrib/110315632845721776632\">The Ice Cream Bar</a>"], "photo_reference": "CmRaAAAAn1dZB4b5Ri3MH__5UquUDj-klE-_KAdYYOkZ2J9G7xwQBvM7AEVeYWegfSs82qyFR4qQADTu5NJp2BSK2xH22tmzSMlwDeba8OM8oD4mz_AfgaPjNKu6eDdmvsO6oPqsEhCeeQTepjGVfWXWnys_6N8ZGhQZCo0IYrJYosfR24qwhz116ZJ4jQ", "width": 960}], "place_id": "ChIJL3vnKthvZIgR5ThsK_TVeeM", "plus_code": {"compound_code": "27XQ+7W Nashville, TN, USA", "global_code": "868M27XQ+7W"}, "rating": 4.5, "reference": "ChIJL3vnKthvZIgR5ThsK_TVeeM", "scope": "GOOGLE", "types": ["food", "point_of_interest", "store", "establishment"], "user_ratings_total": 256, "vicinity": "5572 Nolensville Pike, Nashville"}]}, {"mapped_location": "(36.2906549, -86.73931929999999)", "address": "900 Weeping Willow Way, Goodlettsville", "results": [{"business_status": "OPERATIONAL", "geometry": {"location": {"lat": 36.2906549, "lng": -86.73931929999999}, "viewport": {"northeast": {"lat": 36.2919604802915, "lng": -86.73807136970849}, "southwest": {"lat": 36.2892625197085, "lng": -86.7407693302915}}}, "icon": "https://maps.gstatic.com/mapfiles/place_api/icons/v1/png_71/school-71.png", "name": "Angels Christian Academy", "opening_hours": {"open_now": true}, "photos": [{"height": 1365, "html_attributions": ["<a href=\"https://maps.google.com/maps/contrib/115251672515049993303\">Ronald Jasmin</a>"], "photo_reference": "CmRaAAAAQ446nE-guXlTuWhrS2DjeNv5Eh8_HKJSB4illupNb9poml03YO-x1l_J-YZTGMG2QeJzA-gYpJyvNeLqe98wKprQMx7dwpUP79g9Zx0uMHRU7zlUVLCQokbVM1rvbxcHEhDGTCPiWPXJUyvydNT4sMGfGhTZuyjqboPa7EijnJRxr4Ip6kNs5g", "width": 2048}], "place_id": "ChIJad3A9ExDZIgRjVV7g-LWYGM", "plus_code": {"compound_code": "77R6+77 Goodlettsville, TN, USA", "global_code": "868M77R6+77"}, "rating": 4.5, "reference": "ChIJad3A9ExDZIgRjVV7g-LWYGM", "scope": "GOOGLE", "types": ["point_of_interest", "establishment"], "user_ratings_total": 8, "vicinity": "900 Weeping Willow Way, Goodlettsville"}, {"business_status": "OPERATIONAL", "geometry": {"location": {"lat": 36.2907248, "lng": -86.7378404}, "viewport": {"northeast": {"lat": 36.2921019302915, "lng": -86.7365089697085}, "southwest": {"lat": 36.2894039697085, "lng": -86.7392069302915}}}, "icon": "https://maps.gstatic.com/mapfiles/place_api/icons/v1/png_71/civic_building-71.png", "name": "Nashville Fire Department", "place_id": "ChIJ9ZSDP0xDZIgRYE0gJrbiIU0", "plus_code": {"compound_code": "77R6+7V Goodlettsville, TN, USA", "global_code": "868M77R6+7V"}, "reference": "ChIJ9ZSDP0xDZIgRYE0gJrbiIU0", "scope": "GOOGLE", "types": ["fire_station", "point_of_interest", "establishment"], "vicinity": "1247 Dickerson Pike, Goodlettsville"}, {"business_status": "OPERATIONAL", "geometry": {"location": {"lat": 36.29133289999999, "lng": -86.7377789}, "viewport": {"northeast": {"lat": 36.29244928029149, "lng": -86.7362846197085}, "southwest": {"lat": 36.28975131970849, "lng": -86.7389825802915}}}, "icon": "https://maps.gstatic.com/mapfiles/place_api/icons/v1/png_71/school-71.png", "name": "Old Center Elementary School", "photos": [{"height": 2952, "html_attributions": ["<a href=\"https://maps.google.com/maps/contrib/116546288138045050659\">John Stevenson</a>"], "photo_reference": "CmRaAAAAJ0h2b6ZYJK0E31K_IJ3xRVL9lUaxZUJ53pDald-06j_TdkAEbmpX3n3Anl4SAsd3pG0Nkik07ACP-lrP_YVwxTqViFRXReHxpw9QbsF12FP0mkzQ-tqcxIZ5_A0EVI-EEhDtyRZJhu10Vly5i3fKJXhlGhRsBvj4REcRVcyis6Y6E6tQLoLR0w", "width": 5248}], "place_id": "ChIJt0IKVE5DZIgRGTQAd5pGHQ0", "plus_code": {"compound_code": "77R6+GV Goodlettsville, TN, USA", "global_code": "868M77R6+GV"}, "rating": 4.4, "reference": "ChIJt0IKVE5DZIgRGTQAd5pGHQ0", "scope": "GOOGLE", "types": ["primary_school", "school", "point_of_interest", "establishment"], "user_ratings_total": 7, "vicinity": "1245 Dickerson Pike South, Goodlettsville"}, {"business_status": "OPERATIONAL", "geometry": {"location": {"lat": 36.2893467, "lng": -86.74027459999999}, "viewport": {"northeast": {"lat": 36.2908485302915, "lng": -86.73902216970849}, "southwest": {"lat": 36.2881505697085, "lng": -86.74172013029151}}}, "icon": "https://maps.gstatic.com/mapfiles/place_api/icons/v1/png_71/shopping-71.png", "name": "New World Auto Shop & Sales", "place_id": "ChIJg2qjn0xDZIgRCFff5chC26I", "plus_code": {"compound_code": "77Q5+PV Goodlettsville, TN, USA", "global_code": "868M77Q5+PV"}, "rating": 5, "reference": "ChIJg2qjn0xDZIgRCFff5chC26I", "scope": "GOOGLE", "types": ["car_dealer", "point_of_interest", "store", "establishment"], "user_ratings_total": 1, "vicinity": "1292 Dickerson Road, Goodlettsville"}, {"business_status": "OPERATIONAL", "geometry": {"location": {"lat": 36.28964509999999, "lng": -86.7409393}, "viewport": {"northeast": {"lat": 36.29092013029149, "lng": -86.73954361970848}, "southwest": {"lat": 36.2882221697085, "lng": -86.74224158029149}}}, "icon": "https://maps.gstatic.com/mapfiles/place_api/icons/v1/png_71/generic_business-71.png", "name": "Overholt & Sons, Inc", "opening_hours": {"open_now": true}, "photos": [{"height": 713, "html_attributions": ["<a href=\"https://maps.google.com/maps/contrib/108871007771869847117\">Overholt &amp; Sons, Inc</a>"], "photo_reference": "CmRaAAAAgWX1P8ltCKeEAJ5D-2NSr_xpKZ4Cw04aYr7fOzI38T4QIYYNf5vxjDRgkfZH92Bg3RfStGBlpHDGPzEoPssSWSgW8gDtN2ZqsqOQiV3yzbZCqPBtLT4z8HqB_rtZlEOSEhBCg2wqWstZ2aIAX0BH73IuGhToQ7fmyw3sMsDtJT1pZwxPuQ-0Lw", "width": 1029}], "place_id": "ChIJ4Q7xXxNDZIgRrSG_Fe2ZZto", "plus_code": {"compound_code": "77Q5+VJ Goodlettsville, TN, USA", "global_code": "868M77Q5+VJ"}, "rating": 5, "reference": "ChIJ4Q7xXxNDZIgRrSG_Fe2ZZto", "scope": "GOOGLE", "types": ["point_of_interest", "establishment"], "user_ratings_total": 1, "vicinity": "1259 S Dickerson Road, Goodlettsville"}]}, {"mapped_location": "(36.1362263, -86.7746396)", "address": "1510 Fort Negley Blvd, Nashville", "results": [{"business_status": "OPERATIONAL", "geometry": {"location": {"lat": 36.135903, "lng": -86.7740397}, "viewport": {"northeast": {"lat": 36.13714668029149, "lng": -86.7727030197085}, "southwest": {"lat": 36.1344487197085, "lng": -86.77540098029151}}}, "icon": "https://maps.gstatic.com/mapfiles/place_api/icons/v1/png_71/generic_business-71.png", "name": "Franklin Equipment", "opening_hours": {"open_now": true}, "photos": [{"height": 486, "html_attributions": ["<a href=\"https://maps.google.com/maps/contrib/112183168040076076666\">Franklin Equipment</a>"], "photo_reference": "CmRaAAAA54T69IUqCB48eCq8uz5lxLW39GVYqB-e9HQg54pQUpQ8U66Z9JD38sOj9WHGelwFawIrULsMfmOEi1Tl78-eDdxsKJ3TcPWc-UAGnXRKUDAbdtzrjbtSfjBTD_xCun1OEhCoEVZnZm9iD7DtZPjwfL-fGhQsO_jy4BKoKmX7wQG0WRcTU9qJHg", "width": 864}], "place_id": "ChIJZdHwBnlmZIgRLPTJWG9FDrI", "plus_code": {"compound_code": "46PG+99 Nashville, TN, USA", "global_code": "868M46PG+99"}, "rating": 4.3, "reference": "ChIJZdHwBnlmZIgRLPTJWG9FDrI", "scope": "GOOGLE", "types": ["point_of_interest", "establishment"], "user_ratings_total": 28, "vicinity": "1510 Fort Negley Boulevard, Nashville"}, {"business_status": "OPERATIONAL", "geometry": {"location": {"lat": 36.1369285, "lng": -86.7747392}, "viewport": {"northeast": {"lat": 36.1382730802915, "lng": -86.7736132697085}, "southwest": {"lat": 36.13557511970851, "lng": -86.77631123029151}}}, "icon": "https://maps.gstatic.com/mapfiles/place_api/icons/v1/png_71/generic_business-71.png", "name": "WORLDPAC", "opening_hours": {"open_now": true}, "place_id": "ChIJ027PeXlmZIgRiJdaKdeUAw0", "plus_code": {"compound_code": "46PG+Q4 Nashville, TN, USA", "global_code": "868M46PG+Q4"}, "reference": "ChIJ027PeXlmZIgRiJdaKdeUAw0", "scope": "GOOGLE", "types": ["point_of_interest", "establishment"], "vicinity": "1414 Fort Negley Boulevard, Nashville"}, {"business_status": "OPERATIONAL", "geometry": {"location": {"lat": 36.135369, "lng": -86.774421}, "viewport": {"northeast": {"lat": 36.1367331302915, "lng": -86.77307016970849}, "southwest": {"lat": 36.1340351697085, "lng": -86.77576813029151}}}, "icon": "https://maps.gstatic.com/mapfiles/place_api/icons/v1/png_71/generic_business-71.png", "name": "Summit Constructors Inc", "place_id": "ChIJ6xsz_3hmZIgRi4Aqy0r_zhc", "plus_code": {"compound_code": "46PG+46 Nashville, TN, USA", "global_code": "868M46PG+46"}, "rating": 3.8, "reference": "ChIJ6xsz_3hmZIgRi4Aqy0r_zhc", "scope": "GOOGLE", "types": ["general_contractor", "point_of_interest", "establishment"], "user_ratings_total": 24, "vicinity": "1516 Fort Negley Boulevard, Nashville"}, {"business_status": "OPERATIONAL", "geometry": {"location": {"lat": 36.1368145, "lng": -86.7734752}, "viewport": {"northeast": {"lat": 36.1380241802915, "lng": -86.77205786970849}, "southwest": {"lat": 36.1353262197085, "lng": -86.77475583029151}}}, "icon": "https://maps.gstatic.com/mapfiles/place_api/icons/v1/png_71/generic_business-71.png", "name": "Rebar Pick Up", "place_id": "ChIJhcBFvHlmZIgRQAQY7xfoYzg", "plus_code": {"compound_code": "46PG+PJ Nashville, TN, USA", "global_code": "868M46PG+PJ"}, "reference": "ChIJhcBFvHlmZIgRQAQY7xfoYzg", "scope": "GOOGLE", "types": ["point_of_interest", "establishment"], "vicinity": "650 Southgate Avenue, Nashville"}, {"business_status": "OPERATIONAL", "geometry": {"location": {"lat": 36.13708659999999, "lng": -86.7734696}, "viewport": {"northeast": {"lat": 36.13829798029149, "lng": -86.77190396970849}, "southwest": {"lat": 36.1356000197085, "lng": -86.77460193029151}}}, "icon": "https://maps.gstatic.com/mapfiles/place_api/icons/v1/png_71/generic_business-71.png", "name": "McCarthy Jones and Woodard", "opening_hours": {"open_now": true}, "place_id": "ChIJ91IvlHlmZIgR94-Y6LpRZWY", "plus_code": {"compound_code": "46PG+RJ Nashville, TN, USA", "global_code": "868M46PG+RJ"}, "rating": 4.6, "reference": "ChIJ91IvlHlmZIgR94-Y6LpRZWY", "scope": "GOOGLE", "types": ["point_of_interest", "establishment"], "user_ratings_total": 25, "vicinity": "650 Southgate Avenue, Nashville"}]}, {"mapped_location": "(36.1513899398427, -86.80382961407304)", "address": "2205 Elliston Pl, Nashville", "results": [{"business_status": "OPERATIONAL", "geometry": {"location": {"lat": 36.1513781, "lng": -86.8038603}, "viewport": {"northeast": {"lat": 36.1527270802915, "lng": -86.80251131970849}, "southwest": {"lat": 36.1500291197085, "lng": -86.8052092802915}}}, "icon": "https://maps.gstatic.com/mapfiles/place_api/icons/v1/png_71/restaurant-71.png", "name": "Samurai Sushi", "opening_hours": {"open_now": false}, "photos": [{"height": 480, "html_attributions": ["<a href=\"https://maps.google.com/maps/contrib/112919650773790908418\">Samurai</a>"], "photo_reference": "CmRaAAAArm-LvLpJLWaPMiYYV8x6vM6hZPjA0pHOD3e1xd_JAxTYEuHh2NtANs50tSVRi056OpbsdVYQFqoGNKzIfCQudIlg7UQr_kkTJXDLvG2LawRUmAa6mMzqcYnO1g0QEAqoEhDu0OtrCJihVx1WlHL03q7fGhT7OeGl4Ma_sRO_psoHYvaQk6lFrQ", "width": 640}], "place_id": "ChIJPzM3Z75mZIgRrjftIJmjclk", "plus_code": {"compound_code": "552W+HF Nashville, TN, USA", "global_code": "868M552W+HF"}, "price_level": 2, "rating": 4.4, "reference": "ChIJPzM3Z75mZIgRrjftIJmjclk", "scope": "GOOGLE", "types": ["restaurant", "food", "point_of_interest", "establishment"], "user_ratings_total": 383, "vicinity": "2209 Elliston Place, Nashville"}, {"business_status": "OPERATIONAL", "geometry": {"location": {"lat": 36.1512689, "lng": -86.8038749}, "viewport": {"northeast": {"lat": 36.1526802302915, "lng": -86.80261116970848}, "southwest": {"lat": 36.1499822697085, "lng": -86.80530913029149}}}, "icon": "https://maps.gstatic.com/mapfiles/place_api/icons/v1/png_71/restaurant-71.png", "name": "Milano's Pizzeria", "opening_hours": {"open_now": false}, "photos": [{"height": 3456, "html_attributions": ["<a href=\"https://maps.google.com/maps/contrib/117887594797139862608\">Derrick Grace</a>"], "photo_reference": "CmRaAAAArsl1eBBDVdOq8CuQv-hvc9ExefTOlOiULJfeAcuxs7eGQjQsulMc34u5mx8KDUIbMVEU7hsmm22OOeDsrrEVBMwiGPE3AMQxMFk37oIzvLq4x_DKAswWCfxhYZMkuBe1EhBhA1cf_cZ_RQkFGTHHrxG_GhSZ6A_a6qVdW9QDfdP9b4rf1y9T8w", "width": 4608}], "place_id": "ChIJ_UmwpehnZIgRsgVMoClAfMc", "plus_code": {"compound_code": "552W+GF Nashville, TN, USA", "global_code": "868M552W+GF"}, "rating": 4.8, "reference": "ChIJ_UmwpehnZIgRsgVMoClAfMc", "scope": "GOOGLE", "types": ["restaurant", "food", "point_of_interest", "establishment"], "user_ratings_total": 56, "vicinity": "2213 Elliston Place, Nashville"}, {"business_status": "OPERATIONAL", "geometry": {"location": {"lat": 36.151255, "lng": -86.803933}, "viewport": {"northeast": {"lat": 36.1526577802915, "lng": -86.80265756970849}, "southwest": {"lat": 36.1499598197085, "lng": -86.80535553029151}}}, "icon": "https://maps.gstatic.com/mapfiles/place_api/icons/v1/png_71/generic_business-71.png", "name": "New York Pizza", "opening_hours": {"open_now": true}, "photos": [{"height": 750, "html_attributions": ["<a href=\"https://maps.google.com/maps/contrib/106871645573432699607\">New York Pizza</a>"], "photo_reference": "CmRaAAAAXOUOr0EMgWRxVFMKas7Kz9ltyoV09fAgJkI2nq2Mx8Zu2Gh6KMRAwFwS0dEczc-LD9v-AS4B8Xr_kJYf8mfhoqtTSfwk5sh2WDyUnKWpR64eWfaEK4y9_ozbL7wtStF8EhCg2pJgWX4KX1Ayh-8rzmh8GhRm6C3qEKg98Crx2DG7PLrzIT2Zgg", "width": 1000}], "place_id": "ChIJgXwtZ75mZIgRxkxQ7yReQNI", "plus_code": {"compound_code": "552W+GC Nashville, TN, USA", "global_code": "868M552W+GC"}, "rating": 3.6, "reference": "ChIJgXwtZ75mZIgRxkxQ7yReQNI", "scope": "GOOGLE", "types": ["meal_delivery", "meal_takeaway", "restaurant", "food", "point_of_interest", "establishment"], "user_ratings_total": 222, "vicinity": "2215 Elliston Place, Nashville"}, {"business_status": "OPERATIONAL", "geometry": {"location": {"lat": 36.1515401, "lng": -86.8037087}, "viewport": {"northeast": {"lat": 36.15292368029149, "lng": -86.8024070197085}, "southwest": {"lat": 36.15022571970849, "lng": -86.8051049802915}}}, "icon": "https://maps.gstatic.com/mapfiles/place_api/icons/v1/png_71/shopping-71.png", "name": "Smack Clothing", "opening_hours": {"open_now": true}, "photos": [{"height": 1536, "html_attributions": ["<a href=\"https://maps.google.com/maps/contrib/111282725270054086886\">Debra Sheridan</a>"], "photo_reference": "CmRaAAAAFAUEiDXYlpEV4zTcwL1DJXq_R-Tx9y087bvvgdSlNCVbQLRldslfyAxtSlttSMsY3eN_nE8k6oF2v5wgdx91n7uEwBmjPgMyG1_6zfosHMwPIaU01PhVW2J4THv2sTeoEhCvDtWQUudC3_GMylxxwT_kGhQbHLo3FZamMjrXMly6jZQlHodeBg", "width": 2048}], "place_id": "ChIJaeNAZ75mZIgR7KBsRFj7zLE", "plus_code": {"compound_code": "552W+JG Nashville, TN, USA", "global_code": "868M552W+JG"}, "price_level": 3, "rating": 4.7, "reference": "ChIJaeNAZ75mZIgR7KBsRFj7zLE", "scope": "GOOGLE", "types": ["point_of_interest", "clothing_store", "store", "establishment"], "user_ratings_total": 30, "vicinity": "2201 Elliston Place, Nashville"}, {"business_status": "OPERATIONAL", "geometry": {"location": {"lat": 36.151209, "lng": -86.803997}, "viewport": {"northeast": {"lat": 36.1526086802915, "lng": -86.80271886970849}, "southwest": {"lat": 36.1499107197085, "lng": -86.80541683029149}}}, "icon": "https://maps.gstatic.com/mapfiles/place_api/icons/v1/png_71/restaurant-71.png", "name": "Obie's Pizza", "opening_hours": {"open_now": false}, "photos": [{"height": 3024, "html_attributions": ["<a href=\"https://maps.google.com/maps/contrib/111282725270054086886\">Debra Sheridan</a>"], "photo_reference": "CmRaAAAAzEqnKpKon4MJJ7IMglkHR_kc5zG-kakw6vpJu-GQqcjRc_o9EI5s5pQEBj5q8g9LXBQ7Ztu-jBp_U0UGelm99lrJe7QZ6CzVtfeDJ2oJ-TQaRi6pTJy-wbDwkY4sbIPXEhAXCZI9dXHINYH3Urf8kCHcGhR5-VzsEm9guCBgCVbDQkToRhMiFw", "width": 4032}], "place_id": "ChIJFdPSYL5mZIgRflw04JVlTO0", "plus_code": {"compound_code": "552W+FC Nashville, TN, USA", "global_code": "868M552W+FC"}, "price_level": 1, "rating": 4.4, "reference": "ChIJFdPSYL5mZIgRflw04JVlTO0", "scope": "GOOGLE", "types": ["meal_delivery", "restaurant", "food", "point_of_interest", "establishment"], "user_ratings_total": 145, "vicinity": "2217 Elliston Place, Nashville"}]}, {"mapped_location": "(35.24117821121941, -85.84676969325409)", "address": "541 W Main St, Nan", "results": [{"business_status": "OPERATIONAL", "geometry": {"location": {"lat": 35.24117459999999, "lng": -85.8467536}, "viewport": {"northeast": {"lat": 35.2425271802915, "lng": -85.84546566970849}, "southwest": {"lat": 35.2398292197085, "lng": -85.84816363029151}}}, "icon": "https://maps.gstatic.com/mapfiles/place_api/icons/v1/png_71/restaurant-71.png", "name": "Sonic Drive-In", "opening_hours": {"open_now": true}, "photos": [{"height": 3024, "html_attributions": ["<a href=\"https://maps.google.com/maps/contrib/108844604732829641783\">Chris Babcock</a>"], "photo_reference": "CmRaAAAAiMsCboxDUX7aZRCTuB_xgt5grOg_P3iX1hWYnSUASlvjwGHdzQQTbW0v2Gw3_1VHQfFrbqJXg-EDxRiO9TElwxsEOorsdBt80YNnixeTQt0rwqzOrqf4WXZ-GQwkrCMOEhCOYjMD8w1_QblYXdUcZlWrGhQudVTm3f6OToKnTtFvIwgHwLhkyQ", "width": 4032}], "place_id": "ChIJJa3zsqgOYYgRoz0LXSy-V8E", "plus_code": {"compound_code": "65R3+F7 Monteagle, TN, USA", "global_code": "867P65R3+F7"}, "price_level": 1, "rating": 3.8, "reference": "ChIJJa3zsqgOYYgRoz0LXSy-V8E", "scope": "GOOGLE", "types": ["restaurant", "food", "point_of_interest", "store", "establishment"], "user_ratings_total": 635, "vicinity": "541 West Main Street, Monteagle"}, {"business_status": "OPERATIONAL", "geometry": {"location": {"lat": 35.241175, "lng": -85.84594299999999}, "viewport": {"northeast": {"lat": 35.24239713029149, "lng": -85.8445527197085}, "southwest": {"lat": 35.23969916970849, "lng": -85.84725068029151}}}, "icon": "https://maps.gstatic.com/mapfiles/place_api/icons/v1/png_71/gas_station-71.png", "name": "bp", "photos": [{"height": 3024, "html_attributions": ["<a href=\"https://maps.google.com/maps/contrib/111504863807112948072\">Dixon Davenport</a>"], "photo_reference": "CmRaAAAAX9LrncWDgvMFrNEbeX4eA_dn-WgFybOm732TmiPkNUARwTgTWfUtIxGt5ttVKR6oWlaZO45uQydtRIs3321ED2j819mpkzw8U1j3bvBw6N-Jr4hEz5Wa_MGmQh_WGjSTEhApyunHOcudXamt0VvzdZrqGhQ29tOhcK9FidAGH_ibWFmKoRpLLg", "width": 4032}], "place_id": "ChIJp_t8i6gOYYgRrkbW45vUU8U", "plus_code": {"compound_code": "65R3+FJ Monteagle, TN, USA", "global_code": "867P65R3+FJ"}, "rating": 3.9, "reference": "ChIJp_t8i6gOYYgRrkbW45vUU8U", "scope": "GOOGLE", "types": ["gas_station", "atm", "convenience_store", "finance", "restaurant", "food", "point_of_interest", "store", "establishment"], "user_ratings_total": 29, "vicinity": "521 West Main Street, Monteagle"}, {"business_status": "OPERATIONAL", "geometry": {"location": {"lat": 35.2414813, "lng": -85.8459443}, "viewport": {"northeast": {"lat": 35.2428361802915, "lng": -85.8446845197085}, "southwest": {"lat": 35.2401382197085, "lng": -85.8473824802915}}}, "icon": "https://maps.gstatic.com/mapfiles/place_api/icons/v1/png_71/gas_station-71.png", "name": "MAPCO Mart", "opening_hours": {"open_now": true}, "photos": [{"height": 336, "html_attributions": ["<a href=\"https://maps.google.com/maps/contrib/111723155678351198320\">MAPCO Mart</a>"], "photo_reference": "CmRaAAAABe_nenbQAn5AubatvUbl6_ldnuUr19MCaro7NTkEbO4KI5yQDk_LqBoXS-1S1XEWRaY6oKXnNwQ-8vWRT9wY2IMmvgoQ-thduXTKDG58mC7GCdQlh4PdrhaZEDfcljMWEhBJZTZDFLm5SsuUH7gO75uXGhRIEuUeZlA8cQmPUak3cdmYMhwPyw", "width": 427}], "place_id": "ChIJ7Q9F86gOYYgRX0x-scYwWe4", "plus_code": {"compound_code": "65R3+HJ Monteagle, TN, USA", "global_code": "867P65R3+HJ"}, "rating": 4.2, "reference": "ChIJ7Q9F86gOYYgRX0x-scYwWe4", "scope": "GOOGLE", "types": ["gas_station", "convenience_store", "food", "point_of_interest", "store", "establishment"], "user_ratings_total": 5, "vicinity": "521 West Main Street, Monteagle"}, {"business_status": "OPERATIONAL", "geometry": {"location": {"lat": 35.2414813, "lng": -85.8459443}, "viewport": {"northeast": {"lat": 35.2428361802915, "lng": -85.8446845197085}, "southwest": {"lat": 35.2401382197085, "lng": -85.8473824802915}}}, "icon": "https://maps.gstatic.com/mapfiles/place_api/icons/v1/png_71/atm-71.png", "name": "ATM", "place_id": "ChIJHfoWOLAOYYgRkcXEvEveHqs", "plus_code": {"compound_code": "65R3+HJ Monteagle, TN, USA", "global_code": "867P65R3+HJ"}, "reference": "ChIJHfoWOLAOYYgRkcXEvEveHqs", "scope": "GOOGLE", "types": ["atm", "convenience_store", "finance", "food", "point_of_interest", "store", "establishment"], "vicinity": "519 West Main Street, Monteagle"}, {"business_status": "OPERATIONAL", "geometry": {"location": {"lat": 35.2415, "lng": -85.845931}, "viewport": {"northeast": {"lat": 35.2428552302915, "lng": -85.8446768697085}, "southwest": {"lat": 35.2401572697085, "lng": -85.84737483029151}}}, "icon": "https://maps.gstatic.com/mapfiles/place_api/icons/v1/png_71/restaurant-71.png", "name": "McDonald's", "opening_hours": {"open_now": true}, "photos": [{"height": 3120, "html_attributions": ["<a href=\"https://maps.google.com/maps/contrib/116011164100520021880\">B. Kimbrough</a>"], "photo_reference": "CmRaAAAAwcUhkVQSQ-aXENfZvAql_pkNohlQJ0lQS9O8t6lZ7X7TZqvjQNFpBb47UPbUqOi4OFoN3pP-UC1Z4trMWz5jm8hbmxpx33rt0pnc_vSC5xMgtPfe1BnSOnthWkIR4APwEhBk5jgo3mIhmdwYb-cPq2y9GhSyAX0ogkmWDNPnEYXJ2vNi1IJGoA", "width": 4160}], "place_id": "ChIJcQoO9KgOYYgRfNDAxMLRCZU", "plus_code": {"compound_code": "65R3+JJ Monteagle, TN, USA", "global_code": "867P65R3+JJ"}, "price_level": 1, "rating": 3.3, "reference": "ChIJcQoO9KgOYYgRfNDAxMLRCZU", "scope": "GOOGLE", "types": ["cafe", "restaurant", "food", "point_of_interest", "store", "establishment"], "user_ratings_total": 383, "vicinity": "521 West Main Street, Monteagle"}]}, {"mapped_location": "(36.1445039, -86.8138932)", "address": "2914 West End Ave, Nashville", "results": [{"business_status": "OPERATIONAL", "geometry": {"location": {"lat": 36.14450800000001, "lng": -86.813799}, "viewport": {"northeast": {"lat": 36.14568638029151, "lng": -86.81238016970849}, "southwest": {"lat": 36.14298841970851, "lng": -86.8150781302915}}}, "icon": "https://maps.gstatic.com/mapfiles/place_api/icons/v1/png_71/restaurant-71.png", "name": "Bombay Palace", "opening_hours": {"open_now": true}, "photos": [{"height": 3024, "html_attributions": ["<a href=\"https://maps.google.com/maps/contrib/114873572080972326366\">Mohamed Rafi</a>"], "photo_reference": "CmRaAAAAPG18LRO-gh-kqI37fIiWhAJurXPjOvYfPIKGLkyDM2SH1sdZl1reDVSs2O7Z4fg8azjz9uD3AyzgEZDVjr6ZdKFpL1fDMD7EH2lUdfgtT_SGXD18DzfdMTfZGCTS2I4lEhDm6_Qlb_dLKa0wLbuqL4ndGhRS18DjmdGRRgefyQaLnNjm_VLOOg", "width": 4032}], "place_id": "ChIJYeyy269mZIgRQsSzPd4b6MQ", "plus_code": {"compound_code": "45VP+RF Nashville, TN, USA", "global_code": "868M45VP+RF"}, "price_level": 2, "rating": 4.3, "reference": "ChIJYeyy269mZIgRQsSzPd4b6MQ", "scope": "GOOGLE", "types": ["restaurant", "food", "point_of_interest", "establishment"], "user_ratings_total": 796, "vicinity": "2912 West End Avenue, Nashville"}, {"business_status": "OPERATIONAL", "geometry": {"location": {"lat": 36.14443290000001, "lng": -86.81385809999999}, "viewport": {"northeast": {"lat": 36.14564883029151, "lng": -86.8124032697085}, "southwest": {"lat": 36.14295086970851, "lng": -86.8151012302915}}}, "icon": "https://maps.gstatic.com/mapfiles/place_api/icons/v1/png_71/restaurant-71.png", "name": "China Dragon", "opening_hours": {"open_now": true}, "photos": [{"height": 2386, "html_attributions": ["<a href=\"https://maps.google.com/maps/contrib/113359179597487495544\">Jack Warman</a>"], "photo_reference": "CmRaAAAALuuCr-Zx3dkir67UCbAtHIsl3vOEpXG6qmMXgp1VGFtlV8YbLw7pXF77GuU7o4-6Gos5GWhx3h0abiSC5pG8QBE6xcfPpone7BbMb4-hfuF0uC0vzSETVADDrpvEqb-mEhBMcFDWMTAiwiPz0q9BrDqIGhTe_OswpR4vmlp9CPcWXXTvTbxUsQ", "width": 2119}], "place_id": "ChIJVens2q9mZIgR973UokJgCLM", "plus_code": {"compound_code": "45VP+QF Nashville, TN, USA", "global_code": "868M45VP+QF"}, "price_level": 1, "rating": 3.6, "reference": "ChIJVens2q9mZIgR973UokJgCLM", "scope": "GOOGLE", "types": ["restaurant", "food", "point_of_interest", "establishment"], "user_ratings_total": 226, "vicinity": "2914 West End Avenue, Nashville"}, {"business_status": "OPERATIONAL", "geometry": {"location": {"lat": 36.1443671, "lng": -86.81383079999999}, "viewport": {"northeast": {"lat": 36.1456293802915, "lng": -86.8123731697085}, "southwest": {"lat": 36.1429314197085, "lng": -86.8150711302915}}}, "icon": "https://maps.gstatic.com/mapfiles/place_api/icons/v1/png_71/shopping-71.png", "name": "Dead Ahead Tattoo Co.", "opening_hours": {"open_now": true}, "photos": [{"height": 852, "html_attributions": ["<a href=\"https://maps.google.com/maps/contrib/114568640293419992835\">Dead Ahead Tattoo Co.</a>"], "photo_reference": "CmRaAAAAX5Adhzw_yx6K11K5dNC06ME-qp1RT7ZLThHhqmBys_-dZg1OLC85rLdi2TORLxQ5XBzEbRen2gq1zA9ZLnoRhfQ2ZiCLF0RKOsjXiZSb2b_GscWPA9_RvIlvtQSNUbAOEhDOSY8d8ofZLvW8KB3iJ7Q3GhSO_sgz_n3Bvq7JGJTXNDfvpkMIeg", "width": 3691}], "place_id": "ChIJhb-I2q9mZIgRWJDrghNVngk", "plus_code": {"compound_code": "45VP+PF Nashville, TN, USA", "global_code": "868M45VP+PF"}, "rating": 4.8, "reference": "ChIJhb-I2q9mZIgRWJDrghNVngk", "scope": "GOOGLE", "types": ["point_of_interest", "store", "establishment"], "user_ratings_total": 100, "vicinity": "2916 West End Avenue, Nashville"}, {"business_status": "OPERATIONAL", "geometry": {"location": {"lat": 36.1443603, "lng": -86.8139901}, "viewport": {"northeast": {"lat": 36.1455975302915, "lng": -86.8127695697085}, "southwest": {"lat": 36.1428995697085, "lng": -86.8154675302915}}}, "icon": "https://maps.gstatic.com/mapfiles/place_api/icons/v1/png_71/shopping-71.png", "name": "United Apparel Liquidators", "opening_hours": {"open_now": true}, "photos": [{"height": 1836, "html_attributions": ["<a href=\"https://maps.google.com/maps/contrib/111412720986468808788\">Ryan Priest</a>"], "photo_reference": "CmRaAAAAI-QnZzUGj8WFQQbOtBQUzZppsjIm7DxYITqXRIVYnp9RYEbJK8TfVy_fa9Gl4xfg4wIQpn5B_ghaytP_kngIzxgWLJFreUXupwvpfl96p4gsyjD5QDR6UYOi1PtphDmTEhC_L5cZmZzKJYDkriijjodZGhRie2grLc_gsnq0thYRMxBJ7FhbGA", "width": 3264}], "place_id": "ChIJN2Kg0a9mZIgRgP34YZtmf2s", "plus_code": {"compound_code": "45VP+PC Nashville, TN, USA", "global_code": "868M45VP+PC"}, "rating": 4.6, "reference": "ChIJN2Kg0a9mZIgRgP34YZtmf2s", "scope": "GOOGLE", "types": ["clothing_store", "point_of_interest", "store", "establishment"], "user_ratings_total": 45, "vicinity": "2918 West End Avenue, Nashville"}, {"business_status": "OPERATIONAL", "geometry": {"location": {"lat": 36.14430160000001, "lng": -86.8140456}, "viewport": {"northeast": {"lat": 36.14556818029151, "lng": -86.8127973197085}, "southwest": {"lat": 36.14287021970851, "lng": -86.8154952802915}}}, "icon": "https://maps.gstatic.com/mapfiles/place_api/icons/v1/png_71/generic_business-71.png", "name": "Angel Brewer", "opening_hours": {"open_now": true}, "place_id": "ChIJk23K0a9mZIgROn40hIVLNOI", "plus_code": {"compound_code": "45VP+P9 Nashville, TN, USA", "global_code": "868M45VP+P9"}, "reference": "ChIJk23K0a9mZIgROn40hIVLNOI", "scope": "GOOGLE", "types": ["hair_care", "point_of_interest", "establishment"], "vicinity": "700 18th Avenue South, Nashville"}]}, {"mapped_location": "(36.28382251165833, -86.92613209999998)", "address": "5000 Ridge Hill Rd, Joelton", "results": [{"business_status": "OPERATIONAL", "geometry": {"location": {"lat": 36.28621369999999, "lng": -86.9252745}, "viewport": {"northeast": {"lat": 36.28767143029149, "lng": -86.9240456197085}, "southwest": {"lat": 36.28497346970849, "lng": -86.9267435802915}}}, "icon": "https://maps.gstatic.com/mapfiles/place_api/icons/v1/png_71/generic_business-71.png", "name": "615 Electric", "opening_hours": {"open_now": true}, "place_id": "ChIJozpCAr_1ZIgRDI1YaUaDyK8", "plus_code": {"compound_code": "73PF+FV Nashville, TN, USA", "global_code": "868M73PF+FV"}, "rating": 4.2, "reference": "ChIJozpCAr_1ZIgRDI1YaUaDyK8", "scope": "GOOGLE", "types": ["electrician", "point_of_interest", "establishment"], "user_ratings_total": 5, "vicinity": "4675 Grays Point Road, Joelton"}, {"business_status": "OPERATIONAL", "geometry": {"location": {"lat": 36.2870805, "lng": -86.9241359}, "viewport": {"northeast": {"lat": 36.28842948029151, "lng": -86.92278691970849}, "southwest": {"lat": 36.28573151970851, "lng": -86.9254848802915}}}, "icon": "https://maps.gstatic.com/mapfiles/place_api/icons/v1/png_71/generic_business-71.png", "name": "Curtis Trust Ranch", "place_id": "ChIJqUmUF6P1ZIgRqn93M13qBs8", "plus_code": {"compound_code": "73PG+R8 Nashville, TN, USA", "global_code": "868M73PG+R8"}, "reference": "ChIJqUmUF6P1ZIgRqn93M13qBs8", "scope": "GOOGLE", "types": ["point_of_interest", "establishment"], "vicinity": "4664 Grays Point Road, Joelton"}, {"business_status": "OPERATIONAL", "geometry": {"location": {"lat": 36.28179699999999, "lng": -86.939123}, "viewport": {"northeast": {"lat": 36.28274604999999, "lng": -86.93720106970848}, "southwest": {"lat": 36.27894985, "lng": -86.9398990302915}}},