[{"mapped_location": "(36.18878024813888, -86.7462486683592)", "address": "1006 Gallatin Ave, Nashville", "results": [{"business_status": "OPERATIONAL", "geometry": {"location": {"lat": 36.1888792, "lng": -86.74652859999999}, "viewport": {"northeast": {"lat": 36.1901805802915, "lng": -86.74500661970849}, "southwest": {"lat": 36.1874826197085, "lng": -86.74770458029151}}}, "icon": "https://maps.gstatic.com/mapfiles/place_api/icons/v1/png_71/shopping-71.png", "name": "LabCanna East CBD Hemp Dispensary", "opening_hours": {"open_now": true}, "photos": [{"height": 630, "html_attributions": ["<a href=\"https://maps.google.com/maps/contrib/104132448667067812753\">LabCanna East CBD Hemp Dispensary</a>"], "photo_reference": "CmRaAAAAwVYAAaJfkG5o6EgISBX57y3ruXm_1YpsP5s0TK8S65lRkb5AhFTCpM4_WJeZ9k4EZK47dja489_cx6LZ0kfzTRkaGyizPRVL2OT8obYJZ9eYvrGy3TARNhL9ecBMGuwfEhDyTWUb7cZhJ2Mbi3v1l3vwGhTZ5Om9yaLfSLLwTsCl4U96E5IANw", "width": 1200}], "place_id": "ChIJLwLOBKZnZIgRdg46uWnUTZA", "plus_code": {"compound_code": "57Q3+H9 Nashville, TN, USA", "global_code": "868M57Q3+H9"}, "rating": 5, "reference": "ChIJLwLOBKZnZIgRdg46uWnUTZA", "scope": "GOOGLE", "types": ["point_of_interest", "store", "establishment"], "user_ratings_total": 24, "vicinity": "1006 Gallatin Avenue, Nashville"}, {"business_status": "OPERATIONAL", "geometry": {"location": {"lat": 36.1886586, "lng": -86.7465519}, "viewport": {"northeast": {"lat": 36.1899179302915, "lng": -86.7450826697085}, "southwest": {"lat": 36.1872199697085, "lng": -86.74778063029152}}}, "icon": "https://maps.gstatic.com/mapfiles/place_api/icons/v1/png_71/restaurant-71.png", "name": "East Side Banh Mi", "opening_hours": {"open_now": true}, "photos": [{"height": 4032, "html_attributions": ["<a href=\"https://maps.google.com/maps/contrib/113980689825561287149\">Britt F</a>"], "photo_reference": "CmRaAAAA3XucyKLcrIanhhQ2GID0Id9DEVkAivK6G5nk9Bz1ifUkBz0AFrPKQVDVw9joEU_OwFfLVTZdUMFG0McBzu8HnUrHYvkoPWfKx8We3eTSWqcxv4i2yVcq_RVqeuCI9jAgEhBOX9Dtofb3Jr7rhfS7vkexGhTwTKv3UAKupPEzQBLzJBWdCO2xcg", "width": 3024}], "place_id": "ChIJnWTlh69nZIgRslar-7jBang", "plus_code": {"compound_code": "57Q3+F9 Nashville, TN, USA", "global_code": "868M57Q3+F9"}, "rating": 5, "reference": "ChIJnWTlh69nZIgRslar-7jBang", "scope": "GOOGLE", "types": ["restaurant", "food", "point_of_interest", "establishment"], "user_ratings_total": 24, "vicinity": "1000 Gallatin Avenue, Nashville"}, {"business_status": "OPERATIONAL", "geometry": {"location": {"lat": 36.189065, "lng": -86.74639499999999}, "viewport": {"northeast": {"lat": 36.19037318029149, "lng": -86.74489771970848}, "southwest": {"lat": 36.1876752197085, "lng": -86.7475956802915}}}, "icon": "https://maps.gstatic.com/mapfiles/place_api/icons/v1/png_71/bar-71.png", "name": "Pearl Diver", "opening_hours": {"open_now": false}, "photos": [{"height": 1536, "html_attributions": ["<a href=\"https://maps.google.com/maps/contrib/103143966469342871167\">karimah white</a>"], "photo_reference": "CmRZAAAAXKlnLQZ63zH9Y1hMU-MCHnbssMCUpXGKOKWrso9nmrmMkijPyV8vYPqcBgzDccorf0eQ11huCvQBFrTZGavA8tfit5m5uuLOc1YJWkTQ3EF9u8rz47qihDQQmAW7IFAiEhAhE52-lPUHsdyhK9IST-5SGhRn-um5mo9ZH9vcfRDbX_cU7InXAA", "width": 2048}], "place_id": "ChIJUQrwU-BnZIgRdrkY-uVFpWg", "plus_code": {"compound_code": "57Q3+JC Nashville, TN, USA", "global_code": "868M57Q3+JC"}, "price_level": 2, "rating": 4.4, "reference": "ChIJUQrwU-BnZIgRdrkY-uVFpWg", "scope": "GOOGLE", "types": ["bar", "point_of_interest", "establishment"], "user_ratings_total": 286, "vicinity": "1008 Gallatin Avenue, Nashville"}, {"business_status": "OPERATIONAL", "geometry": {"location": {"lat": 36.1888474, "lng": -86.74582269999999}, "viewport": {"northeast": {"lat": 36.1902374302915, "lng": -86.74462296970849}, "southwest": {"lat": 36.1875394697085, "lng": -86.7473209302915}}}, "icon": "https://maps.gstatic.com/mapfiles/place_api/icons/v1/png_71/restaurant-71.png", "name": "The Urban Juicer", "opening_hours": {"open_now": true}, "photos": [{"height": 605, "html_attributions": ["<a href=\"https://maps.google.com/maps/contrib/110123273054155542193\">The Urban Juicer</a>"], "photo_reference": "CmRaAAAAi-u52KWWRejvDSxiQ0LiGpcHKQlCvGiaSIYeTmz79BDizqTY0W4vOnIyLFb5hJwRL1Wb5EPaOdaXJTyjnlND5s_jXn8tAgnEg0vXutzxJD9tCJ6gMyw-ESrJUSR-42gWEhDr-DahlQC0cnQZgScTG50qGhR4hLEx54wT67U1bsccOFSIBtlNsQ", "width": 611}], "place_id": "ChIJK3p2nNlnZIgRoA-uQeLrouU", "plus_code": {"compound_code": "57Q3+GM Nashville, TN, USA", "global_code": "868M57Q3+GM"}, "price_level": 2, "rating": 4.4, "reference": "ChIJK3p2nNlnZIgRoA-uQeLrouU", "scope": "GOOGLE", "types": ["food", "health", "point_of_interest", "store", "establishment"], "user_ratings_total": 119, "vicinity": "1009 Gallatin Avenue, Nashville"}, {"business_status": "OPERATIONAL", "geometry": {"location": {"lat": 36.1885168, "lng": -86.7465509}, "viewport": {"northeast": {"lat": 36.18983428029149, "lng": -86.7450875197085}, "southwest": {"lat": 36.1871363197085, "lng": -86.74778548029151}}}, "icon": "https://maps.gstatic.com/mapfiles/place_api/icons/v1/png_71/restaurant-71.png", "name": "Nomzilla! sushi et cetera", "opening_hours": {"open_now": true}, "photos": [{"height": 3024, "html_attributions": ["<a href=\"https://maps.google.com/maps/contrib/102179948168885277040\">Charles Weber</a>"], "photo_reference": "CmRaAAAA2Yncx8jx_qRxOjxnHCDuGkEx8tltaEvBLwdVsBcWDS0Ns4PcjmXQ_tqrPuFx8lIYw6pNY3-m25ImJ_woGfWPmecCw-iw4cXzqgSp_bpY_2-pFpni5gKxIwxOVcAGHvglEhByJ0Nb1m_nz8J49Mwx6Z3KGhS2lYkzxEytBU-HR-_2XVvEdGm_IA", "width": 4032}], "place_id": "ChIJG4AhtppmZIgRa3fWev10umw", "plus_code": {"compound_code": "57Q3+C9 Nashville, TN, USA", "global_code": "868M57Q3+C9"}, "price_level": 2, "rating": 4.4, "reference": "ChIJG4AhtppmZIgRa3fWev10umw", "scope": "GOOGLE", "types": ["restaurant", "food", "point_of_interest", "establishment"], "user_ratings_total": 340, "vicinity": "1000 Gallatin Avenue A, Nashville"}]}, {"mapped_location": "(36.12603, -86.7709)", "address": "491 Craighead St, Nashville", "results": [{"business_status": "OPERATIONAL", "geometry": {"location": {"lat": 36.126032, "lng": -86.77090400000002}, "viewport": {"northeast": {"lat": 36.1274316802915, "lng": -86.7696528197085}, "southwest": {"lat": 36.1247337197085, "lng": -86.77235078029152}}}, "icon": "https://maps.gstatic.com/mapfiles/place_api/icons/v1/png_71/generic_business-71.png", "name": "Gilley Screenprinting", "photos": [{"height": 1697, "html_attributions": ["<a href=\"https://maps.google.com/maps/contrib/107643110199528850763\">Jody May</a>"], "photo_reference": "CmRaAAAATXr4sxTGYw3MCH--sW0EOxv4RiE5Bz4-TihG6PeaodTptVtduU2R5k5rXa3ieUwZcUniyhwOAF8b0JlNoxlf_YLElJYXLwlziqXgKaJfXTet58jMQJk1wo9zT2_ELwGKEhDxA-v_NeZv-dOnkL49FofPGhRVI764G8JieS2jXO0gx18BWQI1LQ", "width": 2262}], "place_id": "ChIJUxa9bNplZIgRib_exx9NoSc", "plus_code": {"compound_code": "46GH+CJ Nashville, TN, USA", "global_code": "868M46GH+CJ"}, "rating": 4.6, "reference": "ChIJUxa9bNplZIgRib_exx9NoSc", "scope": "GOOGLE", "types": ["point_of_interest", "establishment"], "user_ratings_total": 10, "vicinity": "491 Craighead Street, Nashville"}, {"business_status": "OPERATIONAL", "geometry": {"location": {"lat": 36.1259988, "lng": -86.7713756}, "viewport": {"northeast": {"lat": 36.1274281802915, "lng": -86.77001226970849}, "southwest": {"lat": 36.1247302197085, "lng": -86.7727102302915}}}, "icon": "https://maps.gstatic.com/mapfiles/place_api/icons/v1/png_71/shopping-71.png", "name": "Ozark Automotive Distributors", "photos": [{"height": 1836, "html_attributions": ["<a href=\"https://maps.google.com/maps/contrib/103465901877530213620\">Justin Taylor</a>"], "photo_reference": "CmRaAAAAo5xBT7B80jWJXnXQ3rNuGjsYp1T1rOGwUDfFW7ChZ0Wf_E5YVOCI18ZwfK5hZvU70drVPzARDB8JPaBqoiGEVv_ntFbq2aeXV1VIBUsPr8FWYfhY7CzNX4eMCs8AITUjEhBtpOb22aumCDQ9iLaN47SLGhQxa8PKebokXzEeJSWo1Y_yoZjoSg", "width": 3264}], "place_id": "ChIJlQKxDdplZIgRlHkJkuWkEho", "plus_code": {"compound_code": "46GH+9C Nashville, TN, USA", "global_code": "868M46GH+9C"}, "rating": 3.9, "reference": "ChIJlQKxDdplZIgRlHkJkuWkEho", "scope": "GOOGLE", "types": ["car_repair", "point_of_interest", "establishment"], "user_ratings_total": 15, "vicinity": "485 Craighead Street #2333, Nashville"}, {"business_status": "OPERATIONAL", "geometry": {"location": {"lat": 36.125752, "lng": -86.77027799999999}, "viewport": {"northeast": {"lat": 36.1271031302915, "lng": -86.76901841970849}, "southwest": {"lat": 36.1244051697085, "lng": -86.7717163802915}}}, "icon": "https://maps.gstatic.com/mapfiles/place_api/icons/v1/png_71/generic_business-71.png", "name": "New Appearance Cabinet Inc", "photos": [{"height": 832, "html_attributions": ["<a href=\"https://maps.google.com/maps/contrib/107643110199528850763\">Jody May</a>"], "photo_reference": "CmRaAAAA0YUWYIyDS7NWs4FrAB1XikKPXmBFm6F2tuFD75M6axUssgaoR6RihGpLeo8C_jtHnX3NcAaVIKxAxLkpXxYNW3g-bBOctH2EeX02y1GvuXH_BRF6lD3JiGMMm4hK8i4REhD4OLAveluitW-fdH26UkN0GhSmhQCINIPmogQS7e2zTsXKFNmZ3Q", "width": 1758}], "place_id": "ChIJo4TiQ9plZIgR_2Mfz2Ds1jo", "plus_code": {"compound_code": "46GH+8V Nashville, TN, USA", "global_code": "868M46GH+8V"}, "reference": "ChIJo4TiQ9plZIgR_2Mfz2Ds1jo", "scope": "GOOGLE", "types": ["point_of_interest", "establishment"], "vicinity": "483 Craighead Street, Nashville"}, {"business_status": "OPERATIONAL", "geometry": {"location": {"lat": 36.126598, "lng": -86.7707672}, "viewport": {"northeast": {"lat": 36.1279499802915, "lng": -86.7693191697085}, "southwest": {"lat": 36.1252520197085, "lng": -86.7720171302915}}}, "icon": "https://maps.gstatic.com/mapfiles/place_api/icons/v1/png_71/generic_business-71.png", "name": "Import Auto Maintenance", "opening_hours": {"open_now": true}, "photos": [{"height": 1722, "html_attributions": ["<a href=\"https://maps.google.com/maps/contrib/106575166100253367655\">Import Auto Maintenance</a>"], "photo_reference": "CmRaAAAADM6NCZLgV7duOV14WzY_QiiJq7L6kJ1VjrJRorrbIsUJ72eNwLq4Cj5q9WrbuWcQRg9_4IvR7dALp_xer7TOxQ_lGMiHnq-8rrcLKjwqH3vor05SXrnhnK0JdrpxIl2YEhBYRBbX-j9p-hh-eQ0EzcqBGhQYhWv_Dx0A6IieXKxgTrSbFnGdsg", "width": 3849}], "place_id": "ChIJLyNIwpJmZIgRKrlDg5TZti0", "plus_code": {"compound_code": "46GH+JM Nashville, TN, USA", "global_code": "868M46GH+JM"}, "rating": 4.5, "reference": "ChIJLyNIwpJmZIgRKrlDg5TZti0", "scope": "GOOGLE", "types": ["car_repair", "point_of_interest", "establishment"], "user_ratings_total": 71, "vicinity": "490 Craighead Street, Nashville"}, {"business_status": "OPERATIONAL", "geometry": {"location": {"lat": 36.1263826, "lng": -86.77151339999999}, "viewport": {"northeast": {"lat": 36.12770203029149, "lng": -86.7701701197085}, "southwest": {"lat": 36.1250040697085, "lng": -86.7728680802915}}}, "icon": "https://maps.gstatic.com/mapfiles/place_api/icons/v1/png_71/generic_business-71.png", "name": "Ruben' tailor", "place_id": "ChIJyzDzC9plZIgRHvXOk_YM7uw", "plus_code": {"compound_code": "46GH+H9 Berry Hill, TN, USA", "global_code": "868M46GH+H9"}, "reference": "ChIJyzDzC9plZIgRHvXOk_YM7uw", "scope": "GOOGLE", "types": ["point_of_interest", "establishment"], "vicinity": "107, Craighead Street, Berry Hill"}]}, {"mapped_location": "(36.14233202784995, -86.81532019879607)", "address": "146 31st Ave S, Nashville", "results": [{"business_status": "OPERATIONAL", "geometry": {"location": {"lat": 36.1425093, "lng": -86.815091}, "viewport": {"northeast": {"lat": 36.1437878802915, "lng": -86.8136729197085}, "southwest": {"lat": 36.1410899197085, "lng": -86.8163708802915}}}, "icon": "https://maps.gstatic.com/mapfiles/place_api/icons/v1/png_71/generic_business-71.png", "name": "Regions Mortgage", "place_id": "ChIJUaKmUK5mZIgRCazAyslnC_4", "plus_code": {"compound_code": "45VM+2X Nashville, TN, USA", "global_code": "868M45VM+2X"}, "reference": "ChIJUaKmUK5mZIgRCazAyslnC_4", "scope": "GOOGLE", "types": ["finance", "point_of_interest", "establishment"], "vicinity": "Nashville"}, {"business_status": "OPERATIONAL", "geometry": {"location": {"lat": 36.14253190000001, "lng": -86.8150593}, "viewport": {"northeast": {"lat": 36.1439345302915, "lng": -86.8136492697085}, "southwest": {"lat": 36.1412365697085, "lng": -86.81634723029151}}}, "icon": "https://maps.gstatic.com/mapfiles/place_api/icons/v1/png_71/bank-71.png", "name": "Regions Bank", "opening_hours": {"open_now": true}, "photos": [{"height": 400, "html_attributions": ["<a href=\"https://maps.google.com/maps/contrib/113578695119537205292\">Regions Bank</a>"], "photo_reference": "CmRaAAAAf7czf8kKnY7ZO4a93DO_7A5snNQGPPEFccM4kekWaKGGeEdQSY1vWKWf_Vk4D2Uv1B_oyZO5v7bzt0kmUqXxqLRXSuvSo68DMz8IfCgy18VGjExRVC1W8EnHIHtD6rviEhAg8ro_l_OBywrOwdhmSp17GhRosJ45iuGhh6_PZn-HGSQ6eP7c3A", "width": 400}], "place_id": "ChIJifHHWq5mZIgRVad-lRo03-Y", "plus_code": {"compound_code": "45VM+2X Nashville, TN, USA", "global_code": "868M45VM+2X"}, "rating": 4, "reference": "ChIJifHHWq5mZIgRVad-lRo03-Y", "scope": "GOOGLE", "types": ["bank", "atm", "finance", "point_of_interest", "establishment"], "user_ratings_total": 10, "vicinity": "3021 West End Avenue, Nashville"}, {"business_status": "OPERATIONAL", "geometry": {"location": {"lat": 36.1425894, "lng": -86.8154969}, "viewport": {"northeast": {"lat": 36.1439163302915, "lng": -86.81412011970849}, "southwest": {"lat": 36.1412183697085, "lng": -86.81681808029151}}}, "icon": "https://maps.gstatic.com/mapfiles/place_api/icons/v1/png_71/cafe-71.png", "name": "Juice Cup", "place_id": "ChIJPWGengpnZIgRI7nHRERdfjg", "plus_code": {"compound_code": "45VM+2R Nashville, TN, USA", "global_code": "868M45VM+2R"}, "reference": "ChIJPWGengpnZIgRI7nHRERdfjg", "scope": "GOOGLE", "types": ["cafe", "food", "point_of_interest", "establishment"], "vicinity": "West End Avenue, Nashville"}, {"business_status": "OPERATIONAL", "geometry": {"location": {"lat": 36.1425894, "lng": -86.8154969}, "viewport": {"northeast": {"lat": 36.1439163302915, "lng": -86.81412011970849}, "southwest": {"lat": 36.1412183697085, "lng": -86.81681808029151}}}, "icon": "https://maps.gstatic.com/mapfiles/place_api/icons/v1/png_71/generic_business-71.png", "name": "Tri State Investigations", "opening_hours": {"open_now": true}, "place_id": "ChIJAQAAMPhmZIgRutaKB--_8rY", "plus_code": {"compound_code": "45VM+2R Nashville, TN, USA", "global_code": "868M45VM+2R"}, "reference": "ChIJAQAAMPhmZIgRutaKB--_8rY", "scope": "GOOGLE", "types": ["point_of_interest", "establishment"], "vicinity": "West End Avenue, Nashville"}, {"business_status": "OPERATIONAL", "geometry": {"location": {"lat": 36.1425421, "lng": -86.8150592}, "viewport": {"northeast": {"lat": 36.14394198029149, "lng": -86.81365236970849}, "southwest": {"lat": 36.14124401970849, "lng": -86.81635033029151}}}, "icon": "https://maps.gstatic.com/mapfiles/place_api/icons/v1/png_71/generic_business-71.png", "name": "Western Union", "opening_hours": {"open_now": true}, "photos": [{"height": 1000, "html_attributions": ["<a href=\"https://maps.google.com/maps/contrib/116575079651818812512\">Western Union</a>"], "photo_reference": "CmRaAAAAWFFBCO36C750KtWXR6o_ATT63tgOiTc7DtTk5k-X_CeF5jAucgsPjZi84hPlXJVBbFkH66DY-seEidHQMYtTRmiwO_Lg9pUZWvNV3OFT_VZnQq6qWKw25ei7VxaVHbFlEhBU06wzHln0AtHPlZ_UIRW8GhS48U-guTsenl3YT5lKnkrM3swvBA", "width": 1000}], "place_id": "ChIJn6lGV65mZIgR0rXLpZOT_LI", "plus_code": {"compound_code": "45VM+2X Nashville, TN, USA", "global_code": "868M45VM+2X"}, "rating": 5, "reference": "ChIJn6lGV65mZIgR0rXLpZOT_LI", "scope": "GOOGLE", "types": ["finance", "point_of_interest", "establishment"], "user_ratings_total": 1, "vicinity": "3021 West End Avenue, Nashville"}]}, {"mapped_location": "(36.24587515815926, -86.82614662488928)", "address": "3810 WHITES CREEK PIKE, Nashville", "results": [{"business_status": "OPERATIONAL", "geometry": {"location": {"lat": 36.2457541, "lng": -86.8251782}, "viewport": {"northeast": {"lat": 36.2473465802915, "lng": -86.8233939197085}, "southwest": {"lat": 36.2446486197085, "lng": -86.8260918802915}}}, "icon": "https://maps.gstatic.com/mapfiles/place_api/icons/v1/png_71/shopping-71.png", "name": "Bates Nursery and Garden Center", "opening_hours": {"open_now": true}, "photos": [{"height": 3006, "html_attributions": ["<a href=\"https://maps.google.com/maps/contrib/116604525126087534390\">Lydia B</a>"], "photo_reference": "CmRaAAAA1SOqsXWUqBb8yaqD66OdvkQrrF8DMSN0FHYcEq4XJJ3_6iMyDRZc5ZkoCDCWJKnfBA24ff7hybdBBIWatLVHMlN0vn9VrzuxeOs9yucNpm1YqIVOa1bc644ft7JHE4rUEhAAGBM4qSokaZLKH_hG5y0RGhQrlNOdUvT4eGULSQGA2M4jNL6mPQ", "width": 5344}], "place_id": "ChIJU2qYYHReZIgRDow7obgXKmc", "plus_code": {"compound_code": "65WF+8W Nashville, TN, USA", "global_code": "868M65WF+8W"}, "rating": 4.8, "reference": "ChIJU2qYYHReZIgRDow7obgXKmc", "scope": "GOOGLE", "types": ["general_contractor", "food", "point_of_interest", "store", "establishment"], "user_ratings_total": 171, "vicinity": "3810 Whites Creek Pike, Nashville"}, {"business_status": "OPERATIONAL", "geometry": {"location": {"lat": 36.2467508, "lng": -86.824666}, "viewport": {"northeast": {"lat": 36.2480936302915, "lng": -86.82332861970848}, "southwest": {"lat": 36.2453956697085, "lng": -86.8260265802915}}}, "icon": "https://maps.gstatic.com/mapfiles/place_api/icons/v1/png_71/civic_building-71.png", "name": "Greathouse", "place_id": "ChIJ4X1g0XBfZIgR1H2QswD-sn8", "plus_code": {"compound_code": "65WG+P4 Nashville, TN, USA", "global_code": "868M65WG+P4"}, "reference": "ChIJ4X1g0XBfZIgR1H2QswD-sn8", "scope": "GOOGLE", "types": ["point_of_interest", "establishment"], "vicinity": "3813 Tennessee 65, Nashville"}, {"business_status": "OPERATIONAL", "geometry": {"location": {"lat": 36.245304, "lng": -86.82810599999999}, "viewport": {"northeast": {"lat": 36.24660918029149, "lng": -86.8271238697085}, "southwest": {"lat": 36.2439112197085, "lng": -86.82982183029151}}}, "icon": "https://maps.gstatic.com/mapfiles/place_api/icons/v1/png_71/generic_business-71.png", "name": "Imaginary Records", "place_id": "ChIJ_wdvdHNeZIgR7Z379s12PU0", "plus_code": {"compound_code": "65WC+4Q Nashville, TN, USA", "global_code": "868M65WC+4Q"}, "reference": "ChIJ_wdvdHNeZIgR7Z379s12PU0", "scope": "GOOGLE", "types": ["point_of_interest", "establishment"], "vicinity": "5324 Buena Vista Pike, Nashville"}, {"business_status": "OPERATIONAL", "geometry": {"location": {"lat": 36.24750059999999, "lng": -86.8240347}, "viewport": {"northeast": {"lat": 36.24860538029149, "lng": -86.8231409197085}, "southwest": {"lat": 36.24590741970849, "lng": -86.82583888029151}}}, "icon": "https://maps.gstatic.com/mapfiles/place_api/icons/v1/png_71/generic_business-71.png", "name": "The Greathouse Company, LLC", "photos": [{"height": 3024, "html_attributions": ["<a href=\"https://maps.google.com/maps/contrib/109969187846881965974\">The Greathouse Company, LLC</a>"], "photo_reference": "CmRaAAAA99NZA4XXXEIDXr01hOvx4VL7ccfYywQ-JkHgINTZJRKqcLi7RvtgtKqxNrvFGacbpyoKqZyyuXdHiy79-ww9PQy6KzeqCN_KWm2nBFJTMnQ7c78tPoZ2LbIHhv4sDAagEhBACPk-LWSrfjoCWvR9dr86GhQeS_ek_BI8h5mjJPcOR9FxoM-wSg", "width": 4032}], "place_id": "ChIJPf-I-VJfZIgR16HjuFDmu78", "plus_code": {"compound_code": "65XG+29 Nashville, TN, USA", "global_code": "868M65XG+29"}, "reference": "ChIJPf-I-VJfZIgR16HjuFDmu78", "scope": "GOOGLE", "types": ["point_of_interest", "establishment"], "vicinity": "3825 Whites Creek Pike, Nashville"}, {"business_status": "OPERATIONAL", "geometry": {"location": {"lat": 36.24899839999999, "lng": -86.8255963}, "viewport": {"northeast": {"lat": 36.25016078029149, "lng": -86.8245937697085}, "southwest": {"lat": 36.2474628197085, "lng": -86.8272917302915}}}, "icon": "https://maps.gstatic.com/mapfiles/place_api/icons/v1/png_71/generic_business-71.png", "name": "Cedarwood Weddings", "opening_hours": {"open_now": true}, "photos": [{"height": 3017, "html_attributions": ["<a href=\"https://maps.google.com/maps/contrib/116908720690051910107\">Cedarwood Weddings</a>"], "photo_reference": "CmRaAAAAO-9cvsGKq5xKIyOv1_pBG5Dz1zS_e4urOZERJMpTj11mCo_kvSD3AacmDk2RxI4D3A-ZKE_SD1sZ-PSogu-_ekoa1IRe0oUqb-A4gG1olfMtbgC8Ds1vJb9KQDYO-z63EhC_w7KFGgeNcz_JUN5ugDouGhTSQCIFltSBd4AxbnsP4LDllt-6QA", "width": 4525}], "place_id": "ChIJ_Ur3lHZeZIgRYj7zIYSGAI8", "plus_code": {"compound_code": "65XF+HQ Nashville, TN, USA", "global_code": "868M65XF+HQ"}, "rating": 4.8, "reference": "ChIJ_Ur3lHZeZIgRYj7zIYSGAI8", "scope": "GOOGLE", "types": ["point_of_interest", "establishment"], "user_ratings_total": 63, "vicinity": "3831 Whites Creek Pike, Nashville"}]}, {"mapped_location": "(36.163069461606916, -86.78061110674591)", "address": "506 Church St, Nashville", "results": [{"business_status": "OPERATIONAL", "geometry": {"location": {"lat": 36.16313, "lng": -86.780627}, "viewport": {"northeast": {"lat": 36.1644183302915, "lng": -86.77923546970848}, "southwest": {"lat": 36.1617203697085, "lng": -86.7819334302915}}}, "icon": "https://maps.gstatic.com/mapfiles/place_api/icons/v1/png_71/generic_business-71.png", "name": "506 Lofts- Nashville Vacation Rentals", "opening_hours": {"open_now": true}, "photos": [{"height": 1080, "html_attributions": ["<a href=\"https://maps.google.com/maps/contrib/102628497301105457712\">506 Lofts- Nashville Vacation Rentals</a>"], "photo_reference": "CmRaAAAA8ghE1YWBaKAYmp8gq17aPdX28cMOQjDGSfRWxUBOxhEyxf3DICZk9ytCTT8Scj69j8zJyum4gdrn88Ju5mUhxbZz-QVuaua2JPia2lvbTkjkXeVs-xpoVbBQkAKhpPACEhATYODI0avyp1oZDWnGJDSXGhTmOrsm88kILTq9V0KQ-meQNaAurA", "width": 1920}], "place_id": "ChIJ2fN6YFhmZIgRgqnfIoQraqA", "plus_code": {"compound_code": "5679+7P Nashville, TN, USA", "global_code": "868M5679+7P"}, "rating": 5, "reference": "ChIJ2fN6YFhmZIgRgqnfIoQraqA", "scope": "GOOGLE", "types": ["real_estate_agency", "travel_agency", "lodging", "point_of_interest", "establishment"], "user_ratings_total": 107, "vicinity": "506 Church Street, Nashville"}, {"business_status": "OPERATIONAL", "geometry": {"location": {"lat": 36.16314499999999, "lng": -86.7806593}, "viewport": {"northeast": {"lat": 36.16442208029149, "lng": -86.7792598697085}, "southwest": {"lat": 36.1617241197085, "lng": -86.7819578302915}}}, "icon": "https://maps.gstatic.com/mapfiles/place_api/icons/v1/png_71/bar-71.png", "name": "Blend Bar with Davidoff Cigars", "opening_hours": {"open_now": true}, "photos": [{"height": 643, "html_attributions": ["<a href=\"https://maps.google.com/maps/contrib/115292560016500226283\">Blend Bar with Davidoff Cigars</a>"], "photo_reference": "CmRaAAAAXDyzM-YCIYQVTeh9UqmPtCcKMzAtFF5zuiG-eEv9OQ_a2aHcl0gEt13wSQo6cbzhIo7UhtphXPEvxlmeyDHm-J-yU7OZeSHeOwvz9N7kH9aY99hfxasaFebcY7fJHfKIEhDkbmVroytBUDAMO8WKWZG2GhT--ukocNbNWG6BHX5EG7WEoUt7TQ", "width": 1000}], "place_id": "ChIJQXiqilhmZIgR9ETBQZlAnX4", "plus_code": {"compound_code": "5679+7P Nashville, TN, USA", "global_code": "868M5679+7P"}, "price_level": 2, "rating": 4.6, "reference": "ChIJQXiqilhmZIgR9ETBQZlAnX4", "scope": "GOOGLE", "types": ["bar", "point_of_interest", "establishment"], "user_ratings_total": 241, "vicinity": "508 Church Street, Nashville"}, {"business_status": "OPERATIONAL", "geometry": {"location": {"lat": 36.16314529999999, "lng": -86.7805338}, "viewport": {"northeast": {"lat": 36.16444398029149, "lng": -86.7791495197085}, "southwest": {"lat": 36.1617460197085, "lng": -86.78184748029152}}}, "icon": "https://maps.gstatic.com/mapfiles/place_api/icons/v1/png_71/generic_business-71.png", "name": "Mayo Norris & Mayo-Ginder: Mayo-Ginder Monica A", "opening_hours": {"open_now": true}, "place_id": "ChIJjYUYWVhmZIgRoOJNihDD7Ek", "plus_code": {"compound_code": "5679+7Q Nashville, TN, USA", "global_code": "868M5679+7Q"}, "reference": "ChIJjYUYWVhmZIgRoOJNihDD7Ek", "scope": "GOOGLE", "types": ["lawyer", "point_of_interest", "establishment"], "vicinity": "500 Church Street # 580, Nashville"}, {"business_status": "OPERATIONAL", "geometry": {"location": {"lat": 36.16312499999999, "lng": -86.780778}, "viewport": {"northeast": {"lat": 36.16438908029149, "lng": -86.77936946970848}, "southwest": {"lat": 36.16169111970849, "lng": -86.78206743029149}}}, "icon": "https://maps.gstatic.com/mapfiles/place_api/icons/v1/png_71/restaurant-71.png", "name": "Tazza Restaurant", "opening_hours": {"open_now": true}, "photos": [{"height": 3024, "html_attributions": ["<a href=\"https://maps.google.com/maps/contrib/117207107028882982554\">Jamie Jefferson</a>"], "photo_reference": "CmRaAAAA-khC-xh8qTaWBXk0c4qsBRbtpAthkCp-ATbIf3Ur9NUNZqGzKnDqU7CcWkgHm4POYw0HayidkhwPGnUcYdTNUj2-cR1i-PlMjueBYIHG8yHNtW7Lg4hTLVta2OoBZMsyEhDgkk8QLSf2YVmj1f6rw55oGhRpmQjZnz9KQjqlXkPsyA7VbrGuCQ", "width": 3024}], "place_id": "ChIJ9Tfs3JFnZIgR4cDzOXr0Fd8", "plus_code": {"compound_code": "5679+7M Nashville, TN, USA", "global_code": "868M5679+7M"}, "rating": 3.9, "reference": "ChIJ9Tfs3JFnZIgR4cDzOXr0Fd8", "scope": "GOOGLE", "types": ["meal_delivery", "meal_takeaway", "restaurant", "food", "point_of_interest", "establishment"], "user_ratings_total": 51, "vicinity": "510 Church Street, Nashville"}, {"business_status": "OPERATIONAL", "geometry": {"location": {"lat": 36.1632224, "lng": -86.78052319999999}, "viewport": {"northeast": {"lat": 36.1644117802915, "lng": -86.77942661970847}, "southwest": {"lat": 36.1617138197085, "lng": -86.78212458029148}}}, "icon": "https://maps.gstatic.com/mapfiles/place_api/icons/v1/png_71/generic_business-71.png", "name": "ChargePoint Charging Station", "opening_hours": {"open_now": true}, "place_id": "ChIJGcE4XlhmZIgRkkWgFAdXxhk", "plus_code": {"compound_code": "5679+7Q Nashville, TN, USA", "global_code": "868M5679+7Q"}, "reference": "ChIJGcE4XlhmZIgRkkWgFAdXxhk", "scope": "GOOGLE", "types": ["point_of_interest", "establishment"], "vicinity": "505 Church Street, Nashville"}]}, {"mapped_location": "(36.06751789344436, -86.71849530249888)", "address": "4708 Nolensville Pike, Nashville", "results": [{"business_status": "OPERATIONAL", "geometry": {"location": {"lat": 36.0676689, "lng": -86.718257}, "viewport": {"northeast": {"lat": 36.0689472802915, "lng": -86.71704516970848}, "southwest": {"lat": 36.0662493197085, "lng": -86.7197431302915}}}, "icon": "https://maps.gstatic.com/mapfiles/place_api/icons/v1/png_71/generic_business-71.png", "name": "JB\u2019s Image Cuts", "opening_hours": {"open_now": true}, "photos": [{"height": 1136, "html_attributions": ["<a href=\"https://maps.google.com/maps/contrib/100306922560131439336\">JB\u2019s Image Cuts</a>"], "photo_reference": "CmRaAAAAchWH5lfb1ZDXnGcIFsxg3hgL2Il-UqMn4Oexx0inOkXnpwMXYRgfwUI83GjCl0-k0dg6jsQq8LCxYea1idlhQ96I8seb-u2RRiESFSJl1NuJ1PZQRWA54McqT-WO9jq9EhCnpu4cG7WWUXvNZ4kq-V9sGhRaew7AAAVtIGS2xaEUS8xCFkXF6A", "width": 640}], "place_id": "ChIJS8i25u5vZIgReWv-2Hlwlwc", "plus_code": {"compound_code": "379J+3M Nashville, TN, USA", "global_code": "868M379J+3M"}, "rating": 4.4, "reference": "ChIJS8i25u5vZIgReWv-2Hlwlwc", "scope": "GOOGLE", "types": ["hair_care", "health", "point_of_interest", "establishment"], "user_ratings_total": 9, "vicinity": "4712 Nolensville Pike, Nashville"}, {"business_status": "OPERATIONAL", "geometry": {"location": {"lat": 36.0676643, "lng": -86.718206}, "viewport": {"northeast": {"lat": 36.06893398029149, "lng": -86.71701101970848}, "southwest": {"lat": 36.0662360197085, "lng": -86.7197089802915}}}, "icon": "https://maps.gstatic.com/mapfiles/place_api/icons/v1/png_71/generic_business-71.png", "name": "Empire Barber & Salon", "opening_hours": {"open_now": true}, "photos": [{"height": 960, "html_attributions": ["<a href=\"https://maps.google.com/maps/contrib/106477781133362419981\">Empire Barber &amp; Salon</a>"], "photo_reference": "CmRaAAAA_4Mz60V535JzE2-POyeGg-80JfR7WLqenCNl1GYQgYeC2ciDXGqeCkz8dmRxnGAVyDcX4TSlD_FXtuIGCpdmL6B5y4fd65qqauCkuhMlUp3RL2IorOrU450aQ0EJ1M8pEhBe16dlIcpEUbpliZdg9-0TGhTDEldLZuEMujDXuZcgoMzUOvAMEA", "width": 467}], "place_id": "ChIJec6l2v1vZIgRCnCJ4np9p9g", "plus_code": {"compound_code": "379J+3P Nashville, TN, USA", "global_code": "868M379J+3P"}, "rating": 5, "reference": "ChIJec6l2v1vZIgRCnCJ4np9p9g", "scope": "GOOGLE", "types": ["hair_care", "health", "point_of_interest", "establishment"], "user_ratings_total": 9, "vicinity": "4712 Nolensville Pike, Nashville"}, {"business_status": "OPERATIONAL", "geometry": {"location": {"lat": 36.06767959999999, "lng": -86.71819339999999}, "viewport": {"northeast": {"lat": 36.06894478029149, "lng": -86.71700721970849}, "southwest": {"lat": 36.06624681970849, "lng": -86.7197051802915}}}, "icon": "https://maps.gstatic.com/mapfiles/place_api/icons/v1/png_71/generic_business-71.png", "name": "Delo Auto Glass", "opening_hours": {"open_now": true}, "photos": [{"height": 362, "html_attributions": ["<a href=\"https://maps.google.com/maps/contrib/114205794430327982232\">Delo Auto Glass</a>"], "photo_reference": "CmRaAAAAUWxzAOPqtk7-dBuM_mg1yl7-HKX6x04ZfLDrdZ9to-X4YaH33w5ctiw157ku6fNOPaZQF7CppVImD-2NJuCI-W14i5CknNQsEd7cYsnkwTxbFFsE2xImkpTuZPfBmJaeEhD5ZQJkUY-fh0gzJ5mKq3kcGhRiZPI8GPQ-mTZ8PIumYhex1FpzXg", "width": 408}], "place_id": "ChIJiSJIzrlvZIgRq7PkQEJ6uMw", "plus_code": {"compound_code": "379J+3P Nashville, TN, USA", "global_code": "868M379J+3P"}, "rating": 4.8, "reference": "ChIJiSJIzrlvZIgRq7PkQEJ6uMw", "scope": "GOOGLE", "types": ["car_repair", "point_of_interest", "establishment"], "user_ratings_total": 47, "vicinity": "4710B Nolensville Pike, Nashville"}, {"business_status": "OPERATIONAL", "geometry": {"location": {"lat": 36.06767959999999, "lng": -86.71819339999999}, "viewport": {"northeast": {"lat": 36.06894478029149, "lng": -86.71700721970849}, "southwest": {"lat": 36.06624681970849, "lng": -86.7197051802915}}}, "icon": "https://maps.gstatic.com/mapfiles/place_api/icons/v1/png_71/generic_business-71.png", "name": "Good Deal Auto Repair and Tires", "opening_hours": {"open_now": true}, "photos": [{"height": 2988, "html_attributions": ["<a href=\"https://maps.google.com/maps/contrib/107724891039368901333\">Good Deal Auto Repair and Tires</a>"], "photo_reference": "CmRaAAAATHcmj6C5TJDEqooHApvrWCkL1Tikfz8W5eelY3ol8575-JNqtReAKG-a9GXXJDYjwGukSDiytEAteNb_Mrtd17kbF3M5RL1yHvm6BJIYJ2t1cpUlzJNvjONjIDsgjQtTEhAuWpcnuVX7d76bdqpdAm_AGhTZSsWZ36gkNC_0F1mC7Ntzn8cVFw", "width": 5312}], "place_id": "ChIJVVVVVYVvZIgRqOpFxQ5huc8", "plus_code": {"compound_code": "379J+3P Nashville, TN, USA", "global_code": "868M379J+3P"}, "rating": 4.9, "reference": "ChIJVVVVVYVvZIgRqOpFxQ5huc8", "scope": "GOOGLE", "types": ["car_repair", "point_of_interest", "establishment"], "user_ratings_total": 193, "vicinity": "4710 B Nolensville Pike, Nashville"}, {"business_status": "OPERATIONAL", "geometry": {"location": {"lat": 36.0678037, "lng": -86.718341}, "viewport": {"northeast": {"lat": 36.0690757802915, "lng": -86.7171360697085}, "southwest": {"lat": 36.0663778197085, "lng": -86.71983403029151}}}, "icon": "https://maps.gstatic.com/mapfiles/place_api/icons/v1/png_71/generic_business-71.png", "name": "MoneyGram", "opening_hours": {"open_now": true}, "photos": [{"height": 2988, "html_attributions": ["<a href=\"https://maps.google.com/maps/contrib/102725794376836987210\">LeRoy Castle</a>"], "photo_reference": "CmRaAAAAO1z8i4ekK_bfioSk8lENzbWzzop5uQ9KrPKVa0y7OGRiVDYDaROgNk583PmbSavQZGDl6qp6_1XbITeSKKFmcwGyvR3D1uO959oc0KKGFKlKNPzdXdaqmGc-dj4SJnROEhBaYLuxhLa9lnmIQNKecDy1GhQOxVX6dCn_adeMM2g3qrThIOhOoA", "width": 5312}], "place_id": "ChIJXx9GCr9vZIgRXLJuFLB5RgQ", "plus_code": {"compound_code": "379J+4M Nashville, TN, USA", "global_code": "868M379J+4M"}, "rating": 5, "reference": "ChIJXx9GCr9vZIgRXLJuFLB5RgQ", "scope": "GOOGLE", "types": ["finance", "point_of_interest", "establishment"], "user_ratings_total": 2, "vicinity": "4706 Nolensville Pike, Nashville"}]}, {"mapped_location": "(36.08784, -86.78305)", "address": "Oak Hill, Nashville", "results": [{"business_status": "OPERATIONAL", "geometry": {"location": {"lat": 36.088254, "lng": -86.780453}, "viewport": {"northeast": {"lat": 36.0892557802915, "lng": -86.77928606970849}, "southwest": {"lat": 36.0865578197085, "lng": -86.78198403029151}}}, "icon": "https://maps.gstatic.com/mapfiles/place_api/icons/v1/png_71/generic_business-71.png", "name": "Tincup Design", "place_id": "ChIJTWpMQABlZIgR_9PVci-1NRQ", "plus_code": {"compound_code": "36Q9+8R Nashville, TN, USA", "global_code": "868M36Q9+8R"}, "reference": "ChIJTWpMQABlZIgR_9PVci-1NRQ", "scope": "GOOGLE", "types": ["point_of_interest", "establishment"], "vicinity": "872 Battery Lane, Nashville"}, {"business_status": "OPERATIONAL", "geometry": {"location": {"lat": 36.0856944, "lng": -86.7810767}, "viewport": {"northeast": {"lat": 36.0872213302915, "lng": -86.77969496970849}, "southwest": {"lat": 36.0845233697085, "lng": -86.7823929302915}}}, "icon": "https://maps.gstatic.com/mapfiles/place_api/icons/v1/png_71/generic_business-71.png", "name": "Kristin Vanzant Photography - Nashville Wedding Photographer", "opening_hours": {"open_now": true}, "photos": [{"height": 1365, "html_attributions": ["<a href=\"https://maps.google.com/maps/contrib/112696840102149807471\">Kristin Vanzant Photography - Nashville Wedding Photographer</a>"], "photo_reference": "CmRaAAAAjUymEv9kg_xv9XHcsEoAdpZNWK6rihXQfwqtotZxnXhYuJ_OJZggeoeEq43EdhdeXIeoeoNcwe-KMNMXFyjwM4U0OGXlmWyH3wVzGCuLSole4_3smSoo2FOSb3S5LyXBEhC9Jodrt2Sb95kK4WzxjKw6GhSDkcyh2fXwIyw0n_UMZELIvfla1g", "width": 2048}], "place_id": "ChIJV5tF6AFlZIgRpm3zzPhwib0", "plus_code": {"compound_code": "36P9+7H Oak Hill, TN, USA", "global_code": "868M36P9+7H"}, "reference": "ChIJV5tF6AFlZIgRpm3zzPhwib0", "scope": "GOOGLE", "types": ["point_of_interest", "establishment"], "vicinity": "903 Alder Drive, Oak Hill"}, {"business_status": "OPERATIONAL", "geometry": {"location": {"lat": 36.091714, "lng": -86.78555000000001}, "viewport": {"northeast": {"lat": 36.0933333802915, "lng": -86.7842098697085}, "southwest": {"lat": 36.0906354197085, "lng": -86.78690783029151}}}, "icon": "https://maps.gstatic.com/mapfiles/place_api/icons/v1/png_71/generic_business-71.png", "name": "PhotoBoothShots.com", "place_id": "ChIJ5QKLuFVkZIgRtFZpP4o52Qc", "plus_code": {"compound_code": "36R7+MQ Nashville, TN, USA", "global_code": "868M36R7+MQ"}, "reference": "ChIJ5QKLuFVkZIgRtFZpP4o52Qc", "scope": "GOOGLE", "types": ["point_of_interest", "establishment"], "vicinity": "911 Glendale Lane, Nashville"}, {"business_status": "OPERATIONAL", "geometry": {"location": {"lat": 36.0919353, "lng": -86.785608}, "viewport": {"northeast": {"lat": 36.0934440302915, "lng": -86.7842378197085}, "southwest": {"lat": 36.0907460697085, "lng": -86.7869357802915}}}, "icon": "https://maps.gstatic.com/mapfiles/place_api/icons/v1/png_71/generic_business-71.png", "name": "rkpowersphoto", "photos": [{"height": 620, "html_attributions": ["<a href=\"https://maps.google.com/maps/contrib/116512280440409785213\">rkpowersphoto</a>"], "photo_reference": "CmRaAAAAymRe68YemikCpTkU3bhpXpDvwaGczmTkFf53EphoIJzuaIeQlQojwtNLmlcyWrCorKNcODPHXcdDLxQQDtaXoyGvy0SPoRx8CntUdPeDz8vUUcG4cN-eSabVVF3J8LzYEhDZpqs9ng5JGRDPHfjbcFQ-GhSp_88Mafdu8rKdYZ5O0AS5VYOStw", "width": 925}], "place_id": "ChIJ5QKLuFVkZIgRT1MIhlopy0Q", "plus_code": {"compound_code": "36R7+QQ Nashville, TN, USA", "global_code": "868M36R7+QQ"}, "reference": "ChIJ5QKLuFVkZIgRT1MIhlopy0Q", "scope": "GOOGLE", "types": ["point_of_interest", "establishment"], "vicinity": "911 Glendale Lane, Nashville"}, {"business_status": "OPERATIONAL", "geometry": {"location": {"lat": 36.0886187, "lng": -86.78865110000001}, "viewport": {"northeast": {"lat": 36.08973378029149, "lng": -86.7872824697085}, "southwest": {"lat": 36.0870358197085, "lng": -86.78998043029151}}}, "icon": "https://maps.gstatic.com/mapfiles/place_api/icons/v1/png_71/shopping-71.png", "name": "Breathless Paper Co.", "place_id": "ChIJhaLPkvhkZIgRqkopj3eFfrY", "plus_code": {"compound_code": "36Q6+CG Nashville, TN, USA", "global_code": "868M36Q6+CG"}, "rating": 4, "reference": "ChIJhaLPkvhkZIgRqkopj3eFfrY", "scope": "GOOGLE", "types": ["point_of_interest", "store", "establishment"], "user_ratings_total": 2, "vicinity": "944 A Battery Lane, Nashville"}]}, {"mapped_location": "(36.18535461829931, -86.66857076129618)", "address": "3025 Fernbrook Ln, Nashville", "results": [{"business_status": "OPERATIONAL", "geometry": {"location": {"lat": 36.1846292, "lng": -86.6684432}, "viewport": {"northeast": {"lat": 36.1860148302915, "lng": -86.66694731970848}, "southwest": {"lat": 36.1833168697085, "lng": -86.66964528029149}}}, "icon": "https://maps.gstatic.com/mapfiles/place_api/icons/v1/png_71/generic_business-71.png", "name": "Lakeshore Heartland", "place_id": "ChIJc-dcUwZpZIgRnVpS6cD2i4k", "plus_code": {"compound_code": "58MJ+VJ Nashville, TN, USA", "global_code": "868M58MJ+VJ"}, "rating": 5, "reference": "ChIJc-dcUwZpZIgRnVpS6cD2i4k", "scope": "GOOGLE", "types": ["health", "point_of_interest", "establishment"], "user_ratings_total": 1, "vicinity": "3025 Fernbrook Lane, Nashville"}, {"business_status": "OPERATIONAL", "geometry": {"location": {"lat": 36.1846292, "lng": -86.6684432}, "viewport": {"northeast": {"lat": 36.1860148302915, "lng": -86.66694731970848}, "southwest": {"lat": 36.1833168697085, "lng": -86.66964528029149}}}, "icon": "https://maps.gstatic.com/mapfiles/place_api/icons/v1/png_71/generic_business-71.png", "name": "Lakeshore Estates Inc Heartland", "photos": [{"height": 3096, "html_attributions": ["<a href=\"https://maps.google.com/maps/contrib/112616430020064371753\">Mary Wood</a>"], "photo_reference": "CmRaAAAAp5F2Fpx82v6vR3PhqKgqdieXOYc3AkPUiIde4OR6zReibeCSArBss-crauQv4517VUXwX1LjhsIdFRN7IO8niscwG-_WTGcxzEyY1IRvY_86N8I6ThNad2bcUzVxTtDREhD6EA5BaMNhJmlszJmrRYVHGhS996Z0XaKRlP2tYLKh69bwuWWPvQ", "width": 4128}], "place_id": "ChIJpdrqWY9pZIgRqjiuR7qLhLQ", "plus_code": {"compound_code": "58MJ+VJ Nashville, TN, USA", "global_code": "868M58MJ+VJ"}, "rating": 4.3, "reference": "ChIJpdrqWY9pZIgRqjiuR7qLhLQ", "scope": "GOOGLE", "types": ["point_of_interest", "establishment"], "user_ratings_total": 24, "vicinity": "3025 Fernbrook Lane, Nashville"}, {"business_status": "OPERATIONAL", "geometry": {"location": {"lat": 36.1846292, "lng": -86.6684432}, "viewport": {"northeast": {"lat": 36.1860148302915, "lng": -86.66694731970848}, "southwest": {"lat": 36.1833168697085, "lng": -86.66964528029149}}}, "icon": "https://maps.gstatic.com/mapfiles/place_api/icons/v1/png_71/generic_business-71.png", "name": "Rehab Care Group", "place_id": "ChIJpdrqWY9pZIgRtttww_XsnRo", "plus_code": {"compound_code": "58MJ+VJ Nashville, TN, USA", "global_code": "868M58MJ+VJ"}, "reference": "ChIJpdrqWY9pZIgRtttww_XsnRo", "scope": "GOOGLE", "types": ["health", "point_of_interest", "establishment"], "vicinity": "3025 Fernbrook Lane, Nashville"}, {"business_status": "OPERATIONAL", "geometry": {"location": {"lat": 36.18462590000001, "lng": -86.6684264}, "viewport": {"northeast": {"lat": 36.1860097302915, "lng": -86.6669376197085}, "southwest": {"lat": 36.1833117697085, "lng": -86.66963558029151}}}, "icon": "https://maps.gstatic.com/mapfiles/place_api/icons/v1/png_71/generic_business-71.png", "name": "heartland", "place_id": "ChIJFYzGfo9pZIgR9_qmaZw-lOs", "plus_code": {"compound_code": "58MJ+VJ Nashville, TN, USA", "global_code": "868M58MJ+VJ"}, "rating": 4, "reference": "ChIJFYzGfo9pZIgR9_qmaZw-lOs", "scope": "GOOGLE", "types": ["health", "point_of_interest", "establishment"], "user_ratings_total": 1, "vicinity": "3025 Fernbrook Lane, Nashville"}, {"business_status": "OPERATIONAL", "geometry": {"location": {"lat": 36.18395989999999, "lng": -86.66835780000001}, "viewport": {"northeast": {"lat": 36.18527818029149, "lng": -86.6669324697085}, "southwest": {"lat": 36.18258021970849, "lng": -86.6696304302915}}}, "icon": "https://maps.gstatic.com/mapfiles/place_api/icons/v1/png_71/generic_business-71.png", "name": "Heartland Christian Tower", "place_id": "ChIJe9CJgoVpZIgRqxf58CoUZ28", "plus_code": {"compound_code": "58MJ+HM Nashville, TN, USA", "global_code": "868M58MJ+HM"}, "rating": 2, "reference": "ChIJe9CJgoVpZIgRqxf58CoUZ28", "scope": "GOOGLE", "types": ["health", "point_of_interest", "establishment"], "user_ratings_total": 1, "vicinity": "3027 Fernbrook Lane, Nashville"}]}, {"mapped_location": "(36.17594, -86.76832)", "address": "304 Oldham St, Nashville", "results": [{"business_status": "OPERATIONAL", "geometry": {"location": {"lat": 36.1759499, "lng": -86.76835220000001}, "viewport": {"northeast": {"lat": 36.1770823302915, "lng": -86.7673278197085}, "southwest": {"lat": 36.1743843697085, "lng": -86.7700257802915}}}, "icon": "https://maps.gstatic.com/mapfiles/place_api/icons/v1/png_71/generic_business-71.png", "name": "Bonded Filter Co", "opening_hours": {"open_now": true}, "photos": [{"height": 4032, "html_attributions": ["<a href=\"https://maps.google.com/maps/contrib/103847879845221814899\">eric sturdivant</a>"], "photo_reference": "CmRZAAAAzMTxBrTZ1YzxFe_sibErG5WZwzJE4DVo0oSLiWEXJ8sgE8ridVhatqyA-Pn03heYudrSYF2IBna2AuIIgLgy448wOHjV_shbvw9g5y2Pi1ndrpmd1yX-abP5qcQ63LUUEhAsHoue-G3VKEdZswQ_KgLnGhRTPEiskD7ClSuz-OL4ggIzIq-E6Q", "width": 3024}], "place_id": "ChIJUYxmhVJmZIgR7kI9yq_WJEI", "plus_code": {"compound_code": "56GJ+9M Nashville, TN, USA", "global_code": "868M56GJ+9M"}, "rating": 5, "reference": "ChIJUYxmhVJmZIgR7kI9yq_WJEI", "scope": "GOOGLE", "types": ["point_of_interest", "establishment"], "user_ratings_total": 4, "vicinity": "304 Oldham Street, Nashville"}, {"business_status": "OPERATIONAL", "geometry": {"location": {"lat": 36.17565299999999, "lng": -86.769617}, "viewport": {"northeast": {"lat": 36.17680548029149, "lng": -86.7681194197085}, "southwest": {"lat": 36.17410751970849, "lng": -86.7708173802915}}}, "icon": "https://maps.gstatic.com/mapfiles/place_api/icons/v1/png_71/generic_business-71.png", "name": "SealMaster", "opening_hours": {"open_now": true}, "photos": [{"height": 2304, "html_attributions": ["<a href=\"https://maps.google.com/maps/contrib/102025978106610042608\">thurman whitsey</a>"], "photo_reference": "CmRaAAAAw2xut02MNVo7ppQKA5q1iBq2Fxyia9_mtu6cE8mL1SM6aHj8BFzhyRA_fdHDtbxtZBbNwrUNr12AHQyVyfB7Tx85V5JnQDXoqm-l4guwVesTZvWqS9U3K2emMevVG_LgEhDnRIuZvjJoXOloDCVOmTjCGhROFDGMINr7WGOTbFDQ8Gj9--6JsA", "width": 4096}], "place_id": "ChIJYXaMj1JmZIgRTX_w2FqdcA4", "plus_code": {"compound_code": "56GJ+75 Nashville, TN, USA", "global_code": "868M56GJ+75"}, "rating": 4.8, "reference": "ChIJYXaMj1JmZIgRTX_w2FqdcA4", "scope": "GOOGLE", "types": ["general_contractor", "point_of_interest", "establishment"], "user_ratings_total": 8, "vicinity": "300 Oldham Street, Nashville"}, {"business_status": "OPERATIONAL", "geometry": {"location": {"lat": 36.1782764, "lng": -86.767817}, "viewport": {"northeast": {"lat": 36.17992643029149, "lng": -86.76641751970848}, "southwest": {"lat": 36.1772284697085, "lng": -86.7691154802915}}}, "icon": "https://maps.gstatic.com/mapfiles/place_api/icons/v1/png_71/generic_business-71.png", "name": "United Way Financial Independence Center", "place_id": "ChIJG882E8NnZIgR3Whb9fWPodg", "plus_code": {"compound_code": "56HJ+8V Nashville, TN, USA", "global_code": "868M56HJ+8V"}, "rating": 4, "reference": "ChIJG882E8NnZIgR3Whb9fWPodg", "scope": "GOOGLE", "types": ["point_of_interest", "establishment"], "user_ratings_total": 1, "vicinity": "302 Foster Street, Nashville"}, {"business_status": "OPERATIONAL", "geometry": {"location": {"lat": 36.1783469, "lng": -86.7678687}, "viewport": {"northeast": {"lat": 36.1799650802915, "lng": -86.76647456970848}, "southwest": {"lat": 36.1772671197085, "lng": -86.7691725302915}}}, "icon": "https://maps.gstatic.com/mapfiles/place_api/icons/v1/png_71/generic_business-71.png", "name": "Senior Ride Nashville", "place_id": "ChIJH3czZblnZIgRDUmv-RUPsvs", "plus_code": {"compound_code": "56HJ+8V Nashville, TN, USA", "global_code": "868M56HJ+8V"}, "reference": "ChIJH3czZblnZIgRDUmv-RUPsvs", "scope": "GOOGLE", "types": ["point_of_interest", "establishment"], "vicinity": "298 Foster Street, Nashville"}, {"business_status": "OPERATIONAL", "geometry": {"location": {"lat": 36.178361, "lng": -86.7678099}, "viewport": {"northeast": {"lat": 36.17996913029149, "lng": -86.76641746970849}, "southwest": {"lat": 36.1772711697085, "lng": -86.7691154302915}}}, "icon": "https://maps.gstatic.com/mapfiles/place_api/icons/v1/png_71/generic_business-71.png", "name": "Nashville Financial Empowerment Center", "opening_hours": {"open_now": true}, "photos": [{"height": 4032, "html_attributions": ["<a href=\"https://maps.google.com/maps/contrib/102006172674592852712\">Phyllis Fickling</a>"], "photo_reference": "CmRaAAAA3fmhb-35S6uZc2T3WEQCfndydNcUru8P6OFPK_Xzsv6x5n1Tf7WG21zolSjKuT61H2if9WHPW5TXobLNwwb82aXHufWTYwDO52wzcr5yFi_00xYykhacvllaiTsXh7gSEhDMcWrFm-IQjNwJUOR76jppGhRK3W-xQXXrvJ4oy2D95xUpv08A2A", "width": 3024}], "place_id": "ChIJSzjpAYZnZIgROw159bjUF8k", "plus_code": {"compound_code": "56HJ+8V Nashville, TN, USA", "global_code": "868M56HJ+8V"}, "rating": 4, "reference": "ChIJSzjpAYZnZIgROw159bjUF8k", "scope": "GOOGLE", "types": ["point_of_interest", "establishment"], "user_ratings_total": 13, "vicinity": "302 Foster Street, Nashville"}]}, {"mapped_location": "(36.16809, -86.88842)", "address": "7237 Cockrill Bend Blvd, Nashville", "results": [{"business_status": "OPERATIONAL", "geometry": {"location": {"lat": 36.168085, "lng": -86.888421}, "viewport": {"northeast": {"lat": 36.16909113029149, "lng": -86.88724476970849}, "southwest": {"lat": 36.1663931697085, "lng": -86.8899427302915}}}, "icon": "https://maps.gstatic.com/mapfiles/place_api/icons/v1/png_71/shopping-71.png", "name": "Cockrill Bend Outlet Store", "opening_hours": {"open_now": true}, "photos": [{"height": 4608, "html_attributions": ["<a href=\"https://maps.google.com/maps/contrib/102990660522742500522\">Byron Caldwell</a>"], "photo_reference": "CmRaAAAATyj1b3la0aEPfOXnxgSSKuulQBLde9kGGTW03EFMtg3I9GqFLnUKPZ80lAps-WuJg-V3gGPBpSkkd63E0NIyGQhVH0mDkP09JfKf1zPIwp9uMZxhOtIFH5G6GmDx3aZMEhD0wG1R3in1vOtJ4m7OYmbRGhRcDIGz0MG8zMxsnkJybgGDK7fmqw", "width": 3456}], "place_id": "ChIJKR6pHvJhZIgRR9KfhhkzzWY", "plus_code": {"compound_code": "5496+6J Nashville, TN, USA", "global_code": "868M5496+6J"}, "rating": 3.9, "reference": "ChIJKR6pHvJhZIgRR9KfhhkzzWY", "scope": "GOOGLE", "types": ["book_store", "furniture_store", "home_goods_store", "point_of_interest", "clothing_store", "store", "establishment"], "user_ratings_total": 12, "vicinity": "7237 Cockrill Bend Boulevard, Nashville"}, {"business_status": "OPERATIONAL", "geometry": {"location": {"lat": 36.1680077, "lng": -86.888071}, "viewport": {"northeast": {"lat": 36.16899768029149, "lng": -86.88690286970848}, "southwest": {"lat": 36.1662997197085, "lng": -86.8896008302915}}}, "icon": "https://maps.gstatic.com/mapfiles/place_api/icons/v1/png_71/generic_business-71.png", "name": "Alexander's Mobility Services", "opening_hours": {"open_now": true}, "photos": [{"height": 3024, "html_attributions": ["<a href=\"https://maps.google.com/maps/contrib/109271123106795966140\">Nino Munoz</a>"], "photo_reference": "CmRaAAAAz2v-uZ7kpUWm7zA5_5atILjL_PwJgTS9gjF3J36N9Eygls0SaRXwtJco3cs9gHkKLP3pEZumRtm3PTDr5-gi8K8EWBTXVdeVbqQ54NhIZ277s61rJIaQqca2Bj_Mfk2GEhCZgaU4dL29T173lTG-P32iGhSI5Hmg2-BK_gUTO9ibneMf1bk-XQ", "width": 4032}], "place_id": "ChIJl9ZhTdJhZIgRisUPVd3ohgQ", "plus_code": {"compound_code": "5496+6Q Nashville, TN, USA", "global_code": "868M5496+6Q"}, "rating": 3.8, "reference": "ChIJl9ZhTdJhZIgRisUPVd3ohgQ", "scope": "GOOGLE", "types": ["moving_company", "point_of_interest", "establishment"], "user_ratings_total": 47, "vicinity": "7235 Cockrill Bend Boulevard, Nashville"}, {"business_status": "OPERATIONAL", "geometry": {"location": {"lat": 36.1681661, "lng": -86.8877107}, "viewport": {"northeast": {"lat": 36.1695150802915, "lng": -86.8863617197085}, "southwest": {"lat": 36.1668171197085, "lng": -86.88905968029151}}}, "icon": "https://maps.gstatic.com/mapfiles/place_api/icons/v1/png_71/generic_business-71.png", "name": "Centurion Stone", "place_id": "ChIJQVVUcOqLZIgRH5FlfhxABkk", "plus_code": {"compound_code": "5496+7W Nashville, TN, USA", "global_code": "868M5496+7W"}, "reference": "ChIJQVVUcOqLZIgRH5FlfhxABkk", "scope": "GOOGLE", "types": ["storage", "point_of_interest", "establishment"], "vicinity": "7201 Cockrill Bend Boulevard, Nashville"}, {"business_status": "OPERATIONAL", "geometry": {"location": {"lat": 36.1681662, "lng": -86.8877107}, "viewport": {"northeast": {"lat": 36.1699975302915, "lng": -86.88615486970849}, "southwest": {"lat": 36.1672995697085, "lng": -86.8888528302915}}}, "icon": "https://maps.gstatic.com/mapfiles/place_api/icons/v1/png_71/shopping-71.png", "name": "Goodwill Outlet", "opening_hours": {"open_now": true}, "photos": [{"height": 4224, "html_attributions": ["<a href=\"https://maps.google.com/maps/contrib/112222658116439446589\">Admin -mD</a>"], "photo_reference": "CmRaAAAA75Sab-Ts1-gB5cvAxGECa3gcb9eYzgZzRgPcj54URADcsoApFC9wvealyI9xqkGPZ8jxTW8YJpQ89XBXCbSmUtwjRsVHXd9HeIoTRUC4WjTdt_TW7WkvxO_cfWnHBvR4EhDQm4ihnYeL3TLoTugXGyvQGhRD_6Cqz6_VhRBPzjHKbBCxJ3KJvg", "width": 5632}], "place_id": "ChIJdfGudW1hZIgRQMj8TBsOiLI", "plus_code": {"compound_code": "5496+7W Nashville, TN, USA", "global_code": "868M5496+7W"}, "rating": 4.1, "reference": "ChIJdfGudW1hZIgRQMj8TBsOiLI", "scope": "GOOGLE", "types": ["point_of_interest", "store", "establishment"], "user_ratings_total": 20, "vicinity": "7201 Cockrill Bend Boulevard, Nashville"}, {"business_status": "OPERATIONAL", "geometry": {"location": {"lat": 36.16948800000001, "lng": -86.88401119999999}, "viewport": {"northeast": {"lat": 36.1712614302915, "lng": -86.88249396970849}, "southwest": {"lat": 36.1685634697085, "lng": -86.8851919302915}}}, "icon": "https://maps.gstatic.com/mapfiles/place_api/icons/v1/png_71/generic_business-71.png", "name": "PENCIL (LP PENCIL Box)", "opening_hours": {"open_now": false}, "photos": [{"height": 487, "html_attributions": ["<a href=\"https://maps.google.com/maps/contrib/104392874342532461352\">PENCIL (LP PENCIL Box)</a>"], "photo_reference": "CmRaAAAAsDtpB9c6GgH_xCddoIjGOC3ylSxTg_qx0bpWx513KC3f-ixJdNgKnfsIuOohQELwu_UPpaqAnzKQQhJczF8OUlApYh45IuSpOOzbf6Wn_GZ1VH_BhlU06v9ezORkwNNWEhAkkFNJj59jRDjQRKry8YL6GhQHxhBwsJ6lw2GExr-SJDD4vN8Mug", "width": 650}], "place_id": "ChIJaTkoJAxhZIgR-MeUhil_cqM", "plus_code": {"compound_code": "5498+Q9 Nashville, TN, USA", "global_code": "868M5498+Q9"}, "rating": 5, "reference": "ChIJaTkoJAxhZIgR-MeUhil_cqM", "scope": "GOOGLE", "types": ["point_of_interest", "store", "establishment"], "user_ratings_total": 16, "vicinity": "7199 Cockrill Bend Boulevard, Nashville"}]}, {"mapped_location": "(36.18099433240661, -86.78960358531951)", "address": "1515 3rd Ave N, Nashville", "results": [{"business_status": "OPERATIONAL", "geometry": {"location": {"lat": 36.1803047, "lng": -86.7899081}, "viewport": {"northeast": {"lat": 36.1816505302915, "lng": -86.78846996970849}, "southwest": {"lat": 36.17895256970851, "lng": -86.7911679302915}}}, "icon": "https://maps.gstatic.com/mapfiles/place_api/icons/v1/png_71/generic_business-71.png", "name": "Nashville BCycle Station", "opening_hours": {"open_now": true}, "place_id": "ChIJH3e7DwNnZIgR_3VQ0iiDjzg", "plus_code": {"compound_code": "56J6+42 Nashville, TN, USA", "global_code": "868M56J6+42"}, "reference": "ChIJH3e7DwNnZIgR_3VQ0iiDjzg", "scope": "GOOGLE", "types": ["point_of_interest", "establishment"], "vicinity": "Magdeburg Greenway, Nashville"}, {"business_status": "OPERATIONAL", "geometry": {"location": {"lat": 36.181409, "lng": -86.788714}, "viewport": {"northeast": {"lat": 36.18274508029149, "lng": -86.7873949697085}, "southwest": {"lat": 36.18004711970849, "lng": -86.79009293029151}}}, "icon": "https://maps.gstatic.com/mapfiles/place_api/icons/v1/png_71/generic_business-71.png", "name": "Brasfield Gorrie General Constractors", "place_id": "ChIJNWZukANnZIgRS_UPhLGhQNc", "plus_code": {"compound_code": "56J6+HG Nashville, TN, USA", "global_code": "868M56J6+HG"}, "reference": "ChIJNWZukANnZIgRS_UPhLGhQNc", "scope": "GOOGLE", "types": ["point_of_interest", "establishment"], "vicinity": "1506 3rd Avenue North, Nashville"}, {"business_status": "OPERATIONAL", "geometry": {"location": {"lat": 36.180114, "lng": -86.789354}, "viewport": {"northeast": {"lat": 36.1814265802915, "lng": -86.78808936970849}, "southwest": {"lat": 36.1787286197085, "lng": -86.7907873302915}}}, "icon": "https://maps.gstatic.com/mapfiles/place_api/icons/v1/png_71/generic_business-71.png", "name": "Casella Interiors", "place_id": "ChIJZxbSqQNnZIgRhC0AYNdFve4", "plus_code": {"compound_code": "56J6+27 Nashville, TN, USA", "global_code": "868M56J6+27"}, "reference": "ChIJZxbSqQNnZIgRhC0AYNdFve4", "scope": "GOOGLE", "types": ["general_contractor", "point_of_interest", "establishment"], "vicinity": "1500 4th Avenue North #103, Nashville"}, {"business_status": "OPERATIONAL", "geometry": {"location": {"lat": 36.18034099999999, "lng": -86.790481}, "viewport": {"northeast": {"lat": 36.1819157802915, "lng": -86.7893844697085}, "southwest": {"lat": 36.17921781970851, "lng": -86.7920824302915}}}, "icon": "https://maps.gstatic.com/mapfiles/place_api/icons/v1/png_71/park-71.png", "name": "Morgan Recreation Center", "opening_hours": {"open_now": true}, "photos": [{"height": 2592, "html_attributions": ["<a href=\"https://maps.google.com/maps/contrib/102890367695899427642\">Francesca Warner Forbes</a>"], "photo_reference": "CmRaAAAAZr-re6cN7ELOs0goBweSdsbM1N_769coYLL5jxd5mTnwLvkw9rba5L1n7WJfxTLn4GhxWXH8ujLfnDr0MIuJu4kZwzB7QcDmTkDWHoDMOigiANpXcNBmHt8qox1V9oxnEhDOtvau9ItJiQUVyG1I-HFwGhQoAQJ1MZnymD_XsazOoe3phAtayA", "width": 1456}], "place_id": "ChIJk3sJdgNnZIgRMAT1yDc9o6Q", "plus_code": {"compound_code": "56J5+4R Nashville, TN, USA", "global_code": "868M56J5+4R"}, "rating": 4.4, "reference": "ChIJk3sJdgNnZIgRMAT1yDc9o6Q", "scope": "GOOGLE", "types": ["park", "point_of_interest", "establishment"], "user_ratings_total": 90, "vicinity": "411 Hume Street, Nashville"}, {"business_status": "OPERATIONAL", "geometry": {"location": {"lat": 36.1799971, "lng": -86.789354}, "viewport": {"northeast": {"lat": 36.1813226802915, "lng": -86.7880592197085}, "southwest": {"lat": 36.1786247197085, "lng": -86.79075718029151}}}, "icon": "https://maps.gstatic.com/mapfiles/place_api/icons/v1/png_71/generic_business-71.png", "name": "CMArchitects PLLC", "opening_hours": {"open_now": true}, "photos": [{"height": 854, "html_attributions": ["<a href=\"https://maps.google.com/maps/contrib/109285896150626758113\">CMArchitects PLLC</a>"], "photo_reference": "CmRaAAAACCjHilvkE0Ne4_a_01C2FEmwNNALnQLB0OrwkdcA9okTaEikynM8nLTcA0XjxonV7txB0P45J6ZDqPpQz5aPID-2rpvK-5WRArQtRgUhPs-oBJNyfjkFqEOW6_Y7mCe9EhDvVTvLfnZR7cD_HMisOp_iGhSuHo-ILTolbfMJeTb-3q5iBIxkMQ", "width": 1280}], "place_id": "ChIJZxbSqQNnZIgRceCgbuWfjTs", "plus_code": {"compound_code": "56H6+X7 Nashville, TN, USA", "global_code": "868M56H6+X7"}, "rating": 5, "reference": "ChIJZxbSqQNnZIgRceCgbuWfjTs", "scope": "GOOGLE", "types": ["point_of_interest", "establishment"], "user_ratings_total": 2, "vicinity": "1500 4th Avenue North Suite #101, Nashville"}]}, {"mapped_location": "(36.18294289999999, -86.8033505)", "address": "906 Coffee St, Nashville", "results": [{"business_status": "OPERATIONAL", "geometry": {"location": {"lat": 36.183382, "lng": -86.803878}, "viewport": {"northeast": {"lat": 36.1846842302915, "lng": -86.8027073197085}, "southwest": {"lat": 36.1819862697085, "lng": -86.80540528029151}}}, "icon": "https://maps.gstatic.com/mapfiles/place_api/icons/v1/png_71/generic_business-71.png", "name": "Humble Beginnings Housing", "opening_hours": {"open_now": true}, "place_id": "ChIJJ89tMCJnZIgRBXm2rQykzYs", "plus_code": {"compound_code": "55MW+9C Nashville, TN, USA", "global_code": "868M55MW+9C"}, "rating": 5, "reference": "ChIJJ89tMCJnZIgRBXm2rQykzYs", "scope": "GOOGLE", "types": ["health", "point_of_interest", "establishment"], "user_ratings_total": 1, "vicinity": "1906 10th Avenue North, Nashville"}, {"business_status": "OPERATIONAL", "geometry": {"location": {"lat": 36.18394800000001, "lng": -86.802599}, "viewport": {"northeast": {"lat": 36.1852462802915, "lng": -86.80143776970849}, "southwest": {"lat": 36.1825483197085, "lng": -86.80413573029149}}}, "icon": "https://maps.gstatic.com/mapfiles/place_api/icons/v1/png_71/generic_business-71.png", "name": "SNM Cleaning Services", "opening_hours": {"open_now": true}, "photos": [{"height": 4160, "html_attributions": ["<a href=\"https://maps.google.com/maps/contrib/102025978106610042608\">thurman whitsey</a>"], "photo_reference": "CmRaAAAAHvTIMvy7HB-YljWwWvALQ2mvdepHpcP-RWwPwXAH9F4GD6Ekhf2AYf7dtjsK1X2pCj1HfryZIdxCblRSam8HbwULLUl0R2F24XTE1zMr-M6bMu_PT0Hmp2RI4VnLgLPcEhDew_FtIgXGn0PC_Tk2Wwb_GhR0AVFiE8U5fm3E3XVeqlTmxUwzrw", "width": 3120}], "place_id": "ChIJG0NRbSJnZIgRydd0HzxFBds", "plus_code": {"compound_code": "55MW+HX Nashville, TN, USA", "global_code": "868M55MW+HX"}, "rating": 5, "reference": "ChIJG0NRbSJnZIgRydd0HzxFBds", "scope": "GOOGLE", "types": ["point_of_interest", "establishment"], "user_ratings_total": 1, "vicinity": "1916 1/2, 1526, 9th Avenue North, Nashville"}, {"business_status": "OPERATIONAL", "geometry": {"location": {"lat": 36.1832631, "lng": -86.80503949999999}, "viewport": {"northeast": {"lat": 36.1846219302915, "lng": -86.8036539197085}, "southwest": {"lat": 36.1819239697085, "lng": -86.8063518802915}}}, "icon": "https://maps.gstatic.com/mapfiles/place_api/icons/v1/png_71/worship_general-71.png", "name": "Christ Christian Fellowship Church", "photos": [{"height": 1152, "html_attributions": ["<a href=\"https://maps.google.com/maps/contrib/118159644217585558777\">Brianna Hackett</a>"], "photo_reference": "CmRaAAAAib5O_NOEkwSEgIuBN3l0w29TygkL3soKcg7YHiWtYJXepGy65KaZcrUBXrZ9P4Yu0FNq06OknR6PqDwWssdVyABFzWz_zxNWS7nkPX8iRYTYcu1zkoM9i5AD-RqAhD26EhCAkxQNP1OLZ9kukfJjpSlvGhTU6jPQWjma6uIbIjJhdJNIS-xCPg", "width": 2048}], "place_id": "ChIJiWcQ0CNnZIgRRe8omH78ens", "plus_code": {"compound_code": "55MV+8X Nashville, TN, USA", "global_code": "868M55MV+8X"}, "reference": "ChIJiWcQ0CNnZIgRRe8omH78ens", "scope": "GOOGLE", "types": ["church", "place_of_worship", "point_of_interest", "establishment"], "vicinity": "1901 Owen Street, Nashville"}, {"business_status": "OPERATIONAL", "geometry": {"location": {"lat": 36.1833844, "lng": -86.80542}, "viewport": {"northeast": {"lat": 36.1846967802915, "lng": -86.80420931970849}, "southwest": {"lat": 36.1819988197085, "lng": -86.8069072802915}}}, "icon": "https://maps.gstatic.com/mapfiles/place_api/icons/v1/png_71/worship_general-71.png", "name": "North Nashville Church of God", "place_id": "ChIJ7-bcxCNnZIgRWqZrntqZv3Y", "plus_code": {"compound_code": "55MV+9R Nashville, TN, USA", "global_code": "868M55MV+9R"}, "rating": 4, "reference": "ChIJ7-bcxCNnZIgRWqZrntqZv3Y", "scope": "GOOGLE", "types": ["church", "place_of_worship", "point_of_interest", "establishment"], "user_ratings_total": 1, "vicinity": "Nashville"}, {"business_status": "OPERATIONAL", "geometry": {"location": {"lat": 36.1845, "lng": -86.804332}, "viewport": {"northeast": {"lat": 36.1859098802915, "lng": -86.80300626970849}, "southwest": {"lat": 36.1832119197085, "lng": -86.8057042302915}}}, "icon": "https://maps.gstatic.com/mapfiles/place_api/icons/v1/png_71/generic_business-71.png", "name": "Swifts Tabernacle Baptist Ch", "photos": [{"height": 1944, "html_attributions": ["<a href=\"https://maps.google.com/maps/contrib/101485186280535552047\">Mika Bentley</a>"], "photo_reference": "CmRaAAAA6x649cuIecy5btxFr_S3y4WvFipZkJ7wq-HfqTM8QMIGvHKxh0iseq-gJMHBzRv6uPNfQ2HURZQdq7CmBz6zV8skSI1qN5Grj61g05bdrUDVbp_oep1TfAbPzhHiNXyhEhAI4aUuyPxwFESCfZ1W_gWJGhTTYLgvU91QPQO7daDMsYKlW1-Olg", "width": 2592}], "place_id": "ChIJo4EETSJnZIgRmayzEvLCAQ4", "plus_code": {"compound_code": "55MW+Q7 Nashville, TN, USA", "global_code": "868M55MW+Q7"}, "rating": 5, "reference": "ChIJo4EETSJnZIgRmayzEvLCAQ4", "scope": "GOOGLE", "types": ["place_of_worship", "point_of_interest", "establishment"], "user_ratings_total": 5, "vicinity": "905 Clay Street, Nashville"}]}, {"mapped_location": "(36.27897, -86.70846)", "address": "1108 Gallatin Pike N, Madison", "results": [{"business_status": "OPERATIONAL", "geometry": {"location": {"lat": 36.27897129999999, "lng": -86.7084627}, "viewport": {"northeast": {"lat": 36.2803961802915, "lng": -86.70736651970849}, "southwest": {"lat": 36.2776982197085, "lng": -86.7100644802915}}}, "icon": "https://maps.gstatic.com/mapfiles/place_api/icons/v1/png_71/shopping-71.png", "name": "Discount Motors, Inc.", "opening_hours": {"open_now": true}, "place_id": "ChIJy3hVSgxDZIgR2E4e6fv6QGY", "plus_code": {"compound_code": "77HR+HJ Nashville, TN, USA", "global_code": "868M77HR+HJ"}, "rating": 4.3, "reference": "ChIJy3hVSgxDZIgR2E4e6fv6QGY", "scope": "GOOGLE", "types": ["car_dealer", "point_of_interest", "store", "establishment"], "user_ratings_total": 42, "vicinity": "1108 Gallatin Pike North #2738, Madison"}, {"business_status": "OPERATIONAL", "geometry": {"location": {"lat": 36.2791394, "lng": -86.70841510000001}, "viewport": {"northeast": {"lat": 36.2805700302915, "lng": -86.7072994697085}, "southwest": {"lat": 36.2778720697085, "lng": -86.70999743029151}}}, "icon": "https://maps.gstatic.com/mapfiles/place_api/icons/v1/png_71/generic_business-71.png", "name": "Thomasson Dental, PLLC", "opening_hours": {"open_now": true}, "photos": [{"height": 4000, "html_attributions": ["<a href=\"https://maps.google.com/maps/contrib/113216581179704578314\">Thomasson Dental, PLLC</a>"], "photo_reference": "CmRaAAAA-zh1a5r-Wf-X5GyKhFUpHdP066SNWiWv2On8ALYmOg4eTTZCGDgBwRq6grC_gP_jjik8SWQp36mZGMpnIIfda2AjjApcjw5vpVWT5BwRz9ixe8b8RWBac4q9incIBtb5EhBrq7tuj7RK1oluILzEIDYoGhSqWq8SsUUCS7N4K2MIW8c6DhJH2g", "width": 6000}], "place_id": "ChIJm-WWrulCZIgRoszIWGmuN5U", "plus_code": {"compound_code": "77HR+MJ Nashville, TN, USA", "global_code": "868M77HR+MJ"}, "rating": 5, "reference": "ChIJm-WWrulCZIgRoszIWGmuN5U", "scope": "GOOGLE", "types": ["dentist", "doctor", "insurance_agency", "health", "point_of_interest", "establishment"], "user_ratings_total": 158, "vicinity": "1114 Gallatin Pike North, Madison"}, {"business_status": "OPERATIONAL", "geometry": {"location": {"lat": 36.2791485, "lng": -86.7084273}, "viewport": {"northeast": {"lat": 36.28057658029149, "lng": -86.70730446970849}, "southwest": {"lat": 36.2778786197085, "lng": -86.7100024302915}}}, "icon": "https://maps.gstatic.com/mapfiles/place_api/icons/v1/png_71/generic_business-71.png", "name": "Dr. Arnulfo A. Agbunag, MD", "place_id": "ChIJ5VYNvD5dZIgRlSWmGtvOTsI", "plus_code": {"compound_code": "77HR+MJ Nashville, TN, USA", "global_code": "868M77HR+MJ"}, "reference": "ChIJ5VYNvD5dZIgRlSWmGtvOTsI", "scope": "GOOGLE", "types": ["doctor", "health", "point_of_interest", "establishment"], "vicinity": "1114 Gallatin Pike North, Madison"}, {"business_status": "OPERATIONAL", "geometry": {"location": {"lat": 36.2787147, "lng": -86.7087384}, "viewport": {"northeast": {"lat": 36.2801195802915, "lng": -86.70757566970849}, "southwest": {"lat": 36.2774216197085, "lng": -86.7102736302915}}}, "icon": "https://maps.gstatic.com/mapfiles/place_api/icons/v1/png_71/generic_business-71.png", "name": "Meineke Car Care Center", "opening_hours": {"open_now": true}, "photos": [{"height": 2988, "html_attributions": ["<a href=\"https://maps.google.com/maps/contrib/104328593776683753436\">Elicia Jackson</a>"], "photo_reference": "CmRaAAAA48mz4CSt3IHjisP9Fz77dwWXiSjBDYDWx09OSFQI-DeYHDZTh1a2H1oYJ7KqYOXeRt7LcC78tzRbbX5QPqeCJR_o67-ZPDSs9BdwRwDOWnfsfCKGUY8gC5uEYPQpW3GWEhAnhSFrpqPbATO5HyExlaE4GhSIZJX9Y3z_aj6ib8j3t_3mk_gHDw", "width": 3984}], "place_id": "ChIJ36RSNAxDZIgRcAdPNwD2Rpg", "plus_code": {"compound_code": "77HR+FG Nashville, TN, USA", "global_code": "868M77HR+FG"}, "rating": 4.2, "reference": "ChIJ36RSNAxDZIgRcAdPNwD2Rpg", "scope": "GOOGLE", "types": ["car_repair", "point_of_interest", "store", "establishment"], "user_ratings_total": 125, "vicinity": "1106 North, Gallatin Pike North, Madison"}, {"business_status": "OPERATIONAL", "geometry": {"location": {"lat": 36.2795992, "lng": -86.7082586}, "viewport": {"northeast": {"lat": 36.2807920302915, "lng": -86.7070051697085}, "southwest": {"lat": 36.2780940697085, "lng": -86.7097031302915}}}, "icon": "https://maps.gstatic.com/mapfiles/place_api/icons/v1/png_71/school-71.png", "name": "Child Care", "place_id": "ChIJLdyeTgxDZIgRSruTQB5-i_A", "plus_code": {"compound_code": "77HR+RM Nashville, TN, USA", "global_code": "868M77HR+RM"}, "reference": "ChIJLdyeTgxDZIgRSruTQB5-i_A", "scope": "GOOGLE", "types": ["point_of_interest", "establishment"], "vicinity": "1 Mile Parkway, Madison"}]}, {"mapped_location": "(36.32681255018167, -86.71074650087346)", "address": "211 DEPOT ST, Goodlettsville", "results": [{"business_status": "OPERATIONAL", "geometry": {"location": {"lat": 36.3269019, "lng": -86.7106542}, "viewport": {"northeast": {"lat": 36.32832958029149, "lng": -86.70932351970849}, "southwest": {"lat": 36.3256316197085, "lng": -86.71202148029151}}}, "icon": "https://maps.gstatic.com/mapfiles/place_api/icons/v1/png_71/generic_business-71.png", "name": "Total Filtration Services Inc", "place_id": "ChIJW_Rpr_JEZIgRQf_s_pdCmIg", "plus_code": {"compound_code": "87GQ+QP Goodlettsville, TN, USA", "global_code": "868M87GQ+QP"}, "reference": "ChIJW_Rpr_JEZIgRQf_s_pdCmIg", "scope": "GOOGLE", "types": ["car_repair", "general_contractor", "point_of_interest", "establishment"], "vicinity": "211 Depot Street, Goodlettsville"}, {"business_status": "OPERATIONAL", "geometry": {"location": {"lat": 36.326538, "lng": -86.7108993}, "viewport": {"northeast": {"lat": 36.3281247802915, "lng": -86.7096032697085}, "southwest": {"lat": 36.3254268197085, "lng": -86.71230123029152}}}, "icon": "https://maps.gstatic.com/mapfiles/place_api/icons/v1/png_71/generic_business-71.png", "name": "CMI Equipment Sales", "opening_hours": {"open_now": true}, "photos": [{"height": 3024, "html_attributions": ["<a href=\"https://maps.google.com/maps/contrib/109247708444568413922\">CMI Equipment Sales</a>"], "photo_reference": "CmRaAAAALhv8VyWccOLksJcqNsVFNtJqyD19qz9GqG7BJ1eIva5lVpChoodtUyh_rpA04kugN8MRGzBKCAzDpjholD_f6IDoN8D7qwckpEFkUoKKC1fVrXDFTIYYYiQDFsjE04e3EhD78pBqHPBWWDjXz2y9Q_MKGhTSn1BjeikmLrRuzetrz4gCuMca_g", "width": 4032}], "place_id": "ChIJAe6Y-41nZIgRzuqMF9s9mzY", "plus_code": {"compound_code": "87GQ+JJ Goodlettsville, TN, USA", "global_code": "868M87GQ+JJ"}, "rating": 4.7, "reference": "ChIJAe6Y-41nZIgRzuqMF9s9mzY", "scope": "GOOGLE", "types": ["point_of_interest", "establishment"], "user_ratings_total": 7, "vicinity": "211 Depot Street, Goodlettsville"}, {"business_status": "OPERATIONAL", "geometry": {"location": {"lat": 36.3272918, "lng": -86.7106294}, "viewport": {"northeast": {"lat": 36.32853293029149, "lng": -86.7092553697085}, "southwest": {"lat": 36.3258349697085, "lng": -86.71195333029151}}}, "icon": "https://maps.gstatic.com/mapfiles/place_api/icons/v1/png_71/generic_business-71.png", "name": "Triple H Machine LLC", "place_id": "ChIJyVZivPJEZIgRIg4BuYhpcFI", "plus_code": {"compound_code": "87GQ+WP Goodlettsville, TN, USA", "global_code": "868M87GQ+WP"}, "rating": 1, "reference": "ChIJyVZivPJEZIgRIg4BuYhpcFI", "scope": "GOOGLE", "types": ["point_of_interest", "establishment"], "user_ratings_total": 1, "vicinity": "212 Depot Street, Goodlettsville"}, {"business_status": "OPERATIONAL", "geometry": {"location": {"lat": 36.3258932, "lng": -86.71040149999999}, "viewport": {"northeast": {"lat": 36.32709328029149, "lng": -86.70900771970848}, "southwest": {"lat": 36.32439531970849, "lng": -86.71170568029149}}}, "icon": "https://maps.gstatic.com/mapfiles/place_api/icons/v1/png_71/generic_business-71.png", "name": "AXS Points", "opening_hours": {"open_now": true}, "photos": [{"height": 2988, "html_attributions": ["<a href=\"https://maps.google.com/maps/contrib/118288137617782942214\">richard peart</a>"], "photo_reference": "CmRaAAAACZXbsSIIZekzH08BAo-yFy6MLw-Nt2_N0USRnAeuiUohavQH-UzwvfcuItq37cQ3D1gx0hiaLSx4MybBpwHg9Dj4REPiG0Ef4Cx1LHrMIJ_ZWZpjanWQ11nssB6e9KIFEhBi1gKCStNJmWGnoE4iXYGTGhRJ6m10f7lUTm7-YzZecssxrAuPVg", "width": 5312}], "place_id": "ChIJ3QMbSY1EZIgRO57OypdYU3w", "plus_code": {"compound_code": "87GQ+9R Goodlettsville, TN, USA", "global_code": "868M87GQ+9R"}, "rating": 5, "reference": "ChIJ3QMbSY1EZIgRO57OypdYU3w", "scope": "GOOGLE", "types": ["point_of_interest", "establishment"], "user_ratings_total": 1, "vicinity": "210 Connell Street, Goodlettsville"}, {"business_status": "OPERATIONAL", "geometry": {"location": {"lat": 36.3258932, "lng": -86.71040149999999}, "viewport": {"northeast": {"lat": 36.32709328029149, "lng": -86.70900771970848}, "southwest": {"lat": 36.32439531970849, "lng": -86.71170568029149}}}, "icon": "https://maps.gstatic.com/mapfiles/place_api/icons/v1/png_71/generic_business-71.png", "name": "Perfection Molders Inc", "place_id": "ChIJ3ZQPOI1EZIgRHfstzI04VSg", "plus_code": {"compound_code": "87GQ+9R Goodlettsville, TN, USA", "global_code": "868M87GQ+9R"}, "reference": "ChIJ3ZQPOI1EZIgRHfstzI04VSg", "scope": "GOOGLE", "types": ["point_of_interest", "establishment"], "vicinity": "210 Connell Street, Goodlettsville"}]}, {"mapped_location": "(36.29159, -86.69331)", "address": "629 Myatt Dr, Madison", "results": [{"business_status": "OPERATIONAL", "geometry": {"location": {"lat": 36.2915856, "lng": -86.6933078}, "viewport": {"northeast": {"lat": 36.2928185802915, "lng": -86.69192101970849}, "southwest": {"lat": 36.2901206197085, "lng": -86.6946189802915}}}, "icon": "https://maps.gstatic.com/mapfiles/place_api/icons/v1/png_71/shopping-71.png", "name": "America's Motor Sports", "opening_hours": {"open_now": true}, "photos": [{"height": 4160, "html_attributions": ["<a href=\"https://maps.google.com/maps/contrib/115366853891408762998\">Cindy Grinder</a>"], "photo_reference": "CmRaAAAAm52A4RbJ1_KuIna6p4CO_U19ZC6KYGC79Hrf6Q24byu9ZErJzBVRxTM3TVdhsq3POYELOU5DWDlkfE4dFRpTEyJeIMYDCm3j5ejjCn5kc0Xc_qayyFLq1UL80fHbpllxEhCGHNuvlL_EzOlAgzK8YcmKGhRC6yVyahoPg8iX1UWR_kpvOmXQ8w", "width": 2340}], "place_id": "ChIJ49AF75pDZIgRH76Mr0pYqs8", "plus_code": {"compound_code": "78R4+JM Nashville, TN, USA", "global_code": "868M78R4+JM"}, "rating": 4.4, "reference": "ChIJ49AF75pDZIgRH76Mr0pYqs8", "scope": "GOOGLE", "types": ["car_repair", "point_of_interest", "store", "establishment"], "user_ratings_total": 277, "vicinity": "629 Myatt Drive, Madison"}, {"business_status": "OPERATIONAL", "geometry": {"location": {"lat": 36.2908472, "lng": -86.69269589999999}, "viewport": {"northeast": {"lat": 36.2922133302915, "lng": -86.69137981970849}, "southwest": {"lat": 36.2895153697085, "lng": -86.69407778029151}}}, "icon": "https://maps.gstatic.com/mapfiles/place_api/icons/v1/png_71/worship_general-71.png", "name": "Edenwold Baptist Church", "photos": [{"height": 4096, "html_attributions": ["<a href=\"https://maps.google.com/maps/contrib/114932154930496830323\">Charnita Douglas</a>"], "photo_reference": "CmRaAAAA5dbVybuuFaOp-Z7xHEU1Vkohyego06RA-paRo-X3-HEgHAOkaNHDsvvnp4XopoPWlvM8x-A79ZBSQpUgDFz7J4ukt6WWfoF0Jnt0eNYiRka9tvow9bFAOjGk5i15eLJbEhDrTHo8IiGWwlPuwBQSNdf4GhSUMELdp9HDhanqjzuGSHcPBCT2TQ", "width": 3072}], "place_id": "ChIJpy9V9JpDZIgRvXPcWFweBzM", "plus_code": {"compound_code": "78R4+8W Nashville, TN, USA", "global_code": "868M78R4+8W"}, "rating": 4.8, "reference": "ChIJpy9V9JpDZIgRvXPcWFweBzM", "scope": "GOOGLE", "types": ["church", "place_of_worship", "point_of_interest", "establishment"], "user_ratings_total": 4, "vicinity": "619 Myatt Drive, Nashville"}, {"business_status": "OPERATIONAL", "geometry": {"location": {"lat": 36.2907883, "lng": -86.6919241}, "viewport": {"northeast": {"lat": 36.2920145802915, "lng": -86.6905198697085}, "southwest": {"lat": 36.2893166197085, "lng": -86.6932178302915}}}, "icon": "https://maps.gstatic.com/mapfiles/place_api/icons/v1/png_71/worship_general-71.png", "name": "Miracle Temple Church", "opening_hours": {"open_now": false}, "photos": [{"height": 990, "html_attributions": ["<a href=\"https://maps.google.com/maps/contrib/100528136841792011953\">Miracle Temple Church</a>"], "photo_reference": "CmRaAAAA3iVWiOzKnIC6iXgCf8CJZALnCCyka1syReC5OUvJjOYpuvXXkAYKOhTbDqEiMkiichcjrK2SnqjUOINOidieV_C2_qYd7916EmwEW9bXDQXKubkj_CAhPhP-7dIy_xjhEhBZsDwDD9CclnZDfgQugiUFGhSqzj3l01niUbneciORqP6xSyT5sQ", "width": 2280}], "place_id": "ChIJ61rah5pDZIgRz4EOWOenO3Y", "plus_code": {"compound_code": "78R5+86 Nashville, TN, USA", "global_code": "868M78R5+86"}, "rating": 5, "reference": "ChIJ61rah5pDZIgRz4EOWOenO3Y", "scope": "GOOGLE", "types": ["church", "place_of_worship", "point_of_interest", "establishment"], "user_ratings_total": 26, "vicinity": "1335 Plum Street, Madison"}, {"business_status": "OPERATIONAL", "geometry": {"location": {"lat": 36.2926667, "lng": -86.694391}, "viewport": {"northeast": {"lat": 36.2939814302915, "lng": -86.6932209197085}, "southwest": {"lat": 36.2912834697085, "lng": -86.6959188802915}}}, "icon": "https://maps.gstatic.com/mapfiles/place_api/icons/v1/png_71/generic_business-71.png", "name": "Northridge Surgery Center", "opening_hours": {"open_now": true}, "place_id": "ChIJbw-LKJtDZIgRNVOh4XlUFfo", "plus_code": {"compound_code": "78V4+36 Nashville, TN, USA", "global_code": "868M78V4+36"}, "rating": 4, "reference": "ChIJbw-LKJtDZIgRNVOh4XlUFfo", "scope": "GOOGLE", "types": ["doctor", "health", "point_of_interest", "establishment"], "user_ratings_total": 14, "vicinity": "647 Myatt Drive, Madison"}, {"business_status": "OPERATIONAL", "geometry": {"location": {"lat": 36.290715, "lng": -86.695111}, "viewport": {"northeast": {"lat": 36.2922676802915, "lng": -86.6931776197085}, "southwest": {"lat": 36.2895697197085, "lng": -86.6958755802915}}}, "icon": "https://maps.gstatic.com/mapfiles/place_api/icons/v1/png_71/generic_business-71.png", "name": "Waste Management - Rivergate Recycling Center", "opening_hours": {"open_now": true}, "photos": [{"height": 620, "html_attributions": ["<a href=\"https://maps.google.com/maps/contrib/113059361010397387039\">Waste Management - Rivergate Recycling Center</a>"], "photo_reference": "CmRaAAAA1vMk6f_BAYf-dR7_5iDLSZ_UJxs3zSBIISXcPE9w2HIIYs0UrvDsboTWqKVPx9fohVy8Zezxepqw8DajOGE4Tjtpy-rJasn5QIoX-GhRn4j6-EXBpLcvTSFj0UUgQo3GEhCuX2Jtz1iA2OCNbMO5RW9VGhThM7TMcs5lLRNkHAsToHaPWtcvzA", "width": 1100}], "place_id": "ChIJaQuAPZtDZIgR_ljwH4IDfhk", "plus_code": {"compound_code": "78R3+7X Nashville, TN, USA", "global_code": "868M78R3+7X"}, "rating": 4.4, "reference": "ChIJaQuAPZtDZIgR_ljwH4IDfhk", "scope": "GOOGLE", "types": ["point_of_interest", "store", "establishment"], "user_ratings_total": 5, "vicinity": "630 Myatt Drive, Madison"}]}, {"mapped_location": "(36.16802816160907, -86.81869260674591)", "address": "2622 Jefferson St, Nashville", "results": [{"business_status": "OPERATIONAL", "geometry": {"location": {"lat": 36.167987, "lng": -86.81853199999999}, "viewport": {"northeast": {"lat": 36.1693046302915, "lng": -86.81717706970849}, "southwest": {"lat": 36.1666066697085, "lng": -86.81987503029151}}}, "icon": "https://maps.gstatic.com/mapfiles/place_api/icons/v1/png_71/generic_business-71.png", "name": "Jefferson St & 27th Ave WB", "place_id": "ChIJYZs9atJmZIgRy6zBhTbcfSw", "plus_code": {"compound_code": "559J+5H Nashville, TN, USA", "global_code": "868M559J+5H"}, "reference": "ChIJYZs9atJmZIgRy6zBhTbcfSw", "scope": "GOOGLE", "types": ["transit_station", "point_of_interest", "establishment"], "vicinity": "United States"}, {"business_status": "OPERATIONAL", "geometry": {"location": {"lat": 36.16778409999999, "lng": -86.81846809999999}, "viewport": {"northeast": {"lat": 36.1692046802915, "lng": -86.81713266970849}, "southwest": {"lat": 36.1665067197085, "lng": -86.81983063029149}}}, "icon": "https://maps.gstatic.com/mapfiles/place_api/icons/v1/png_71/shopping-71.png", "name": "THE WEAVE ZONE", "opening_hours": {"open_now": true}, "photos": [{"height": 1536, "html_attributions": ["<a href=\"https://maps.google.com/maps/contrib/107322215717981269926\">THE WEAVE ZONE</a>"], "photo_reference": "CmRaAAAAtLDtiq-6qiOAypNdloMBHfnmI13lnluC9bhxiV3ec4BhSb8G8Y3KUn4Kuy03xmwGZxNMhmgJiaIU45Wk1rCXuuadxUqstW4hPO0oDCbbJp3_j8PL2befVs4ZK0opcGO7EhBuGBYoaFoBGOFaTgvT5slKGhQBmidDjnh2gghnRQB0gTxt5llx3w", "width": 2048}], "place_id": "ChIJRW-Qa9JmZIgReLBRyWe3Ck8", "plus_code": {"compound_code": "559J+4J Nashville, TN, USA", "global_code": "868M559J+4J"}, "rating": 4, "reference": "ChIJRW-Qa9JmZIgReLBRyWe3Ck8", "scope": "GOOGLE", "types": ["point_of_interest", "store", "establishment"], "user_ratings_total": 56, "vicinity": "2623 Jefferson Street, Nashville"}, {"business_status": "OPERATIONAL", "geometry": {"location": {"lat": 36.167799, "lng": -86.818981}, "viewport": {"northeast": {"lat": 36.1691803302915, "lng": -86.8176384697085}, "southwest": {"lat": 36.1664823697085, "lng": -86.8203364302915}}}, "icon": "https://maps.gstatic.com/mapfiles/place_api/icons/v1/png_71/generic_business-71.png", "name": "Jefferson St & 27th Ave EB", "place_id": "ChIJkxttZtJmZIgR2LSYgLDs4k8", "plus_code": {"compound_code": "559J+4C Nashville, TN, USA", "global_code": "868M559J+4C"}, "reference": "ChIJkxttZtJmZIgR2LSYgLDs4k8", "scope": "GOOGLE", "types": ["transit_station", "point_of_interest", "establishment"], "vicinity": "United States"}, {"business_status": "OPERATIONAL", "geometry": {"location": {"lat": 36.16786269999999, "lng": -86.8183365}, "viewport": {"northeast": {"lat": 36.16925283029149, "lng": -86.8169953197085}, "southwest": {"lat": 36.16655486970849, "lng": -86.8196932802915}}}, "icon": "https://maps.gstatic.com/mapfiles/place_api/icons/v1/png_71/generic_business-71.png", "name": "Unbelievable Cutz & Style", "opening_hours": {"open_now": true}, "photos": [{"height": 1600, "html_attributions": ["<a href=\"https://maps.google.com/maps/contrib/113239577463885711358\">Unbelievable Cutz &amp; Style</a>"], "photo_reference": "CmRaAAAAwYsdVlI7wn8_R8ZK_VLMvkYXuHZKttm4YkgH7KFmMn-1ev8Ah5tgdjpFp5pDBKTVuA6EzyWmldITadS88azCBI6XNx46zo4wKcbisJG4PIwM9Y12i9uD3kOL9P5cR7WeEhBULWOseTdNzW6x5XzT_BE0GhTWI4slWCkIF4UJwIH5FTjRCzO83g", "width": 1200}], "place_id": "ChIJP5M1E9JmZIgRxVhlqO4Jbz8", "plus_code": {"compound_code": "559J+4M Nashville, TN, USA", "global_code": "868M559J+4M"}, "rating": 4.8, "reference": "ChIJP5M1E9JmZIgRxVhlqO4Jbz8", "scope": "GOOGLE", "types": ["hair_care", "health", "point_of_interest", "establishment"], "user_ratings_total": 43, "vicinity": "2619 Jefferson Street b, Nashville"}, {"business_status": "OPERATIONAL", "geometry": {"location": {"lat": 36.1676747, "lng": -86.8188978}, "viewport": {"northeast": {"lat": 36.1691218802915, "lng": -86.8175683697085}, "southwest": {"lat": 36.16642391970851, "lng": -86.8202663302915}}}, "icon": "https://maps.gstatic.com/mapfiles/place_api/icons/v1/png_71/generic_business-71.png", "name": "Na-Jeal Hair & Nail Studio", "photos": [{"height": 1080, "html_attributions": ["<a href=\"https://maps.google.com/maps/contrib/113158870311399620543\">Christina M</a>"], "photo_reference": "CmRaAAAAn4VwyWpc-eq7YxAbOQcGieGllOI1mBvCTuXQas3xfWIObYl3GE_c85QINrqPZRSnGitBN_Iho8jGEkVbvh2LE3jxtcx5IOwI4bPwFmz0KAmxdC0n-MQMOWKTeScPGY5bEhBCcqsPA9heecz0f6VrF5XxGhT3hRKArBPViiSmJmTBf-5TbWXytw", "width": 1080}], "place_id": "ChIJdQ98adJmZIgRSAt7CC_6wIE", "plus_code": {"compound_code": "559J+3C Nashville, TN, USA", "global_code": "868M559J+3C"}, "rating": 4.7, "reference": "ChIJdQ98adJmZIgRSAt7CC_6wIE", "scope": "GOOGLE", "types": ["beauty_salon", "point_of_interest", "establishment"], "user_ratings_total": 28, "vicinity": "2701 Jefferson Street # 102, Nashville"}]}, {"mapped_location": "(36.17025, -86.67552)", "address": "2602 Lebanon Pike, Nashville", "results": [{"business_status": "OPERATIONAL", "geometry": {"location": {"lat": 36.1701763, "lng": -86.67562939999999}, "viewport": {"northeast": {"lat": 36.1713644302915, "lng": -86.67426086970848}, "southwest": {"lat": 36.1686664697085, "lng": -86.6769588302915}}}, "icon": "https://maps.gstatic.com/mapfiles/place_api/icons/v1/png_71/school-71.png", "name": "Westerfield Academy of Music", "opening_hours": {"open_now": true}, "photos": [{"height": 260, "html_attributions": ["<a href=\"https://maps.google.com/maps/contrib/117328002871955437441\">Westerfield Academy of Music</a>"], "photo_reference": "CmRaAAAAutin2PhyPKSZJcpE4G3qZO7uRXedk95QglKD0-DgbkR2Omsm2wz471EGMJ16pF0iUlC6lnYCjTk3yNOYKAENClKqTsO_L67ct46YjwqpQ88cvmIsx8w3HDH4w--L-QafEhCJ6XyNPnEiQ5HTQNQP0S7PGhRhbU55nGB1M_njKTuGXLhCcGwuLw", "width": 534}], "place_id": "ChIJ06qvVEJpZIgR3O7d1TOyK1k", "plus_code": {"compound_code": "58CF+3P Nashville, TN, USA", "global_code": "868M58CF+3P"}, "rating": 5, "reference": "ChIJ06qvVEJpZIgR3O7d1TOyK1k", "scope": "GOOGLE", "types": ["school", "point_of_interest", "establishment"], "user_ratings_total": 1, "vicinity": "2600 Lebanon Pike suite c, Nashville"}, {"business_status": "OPERATIONAL", "geometry": {"location": {"lat": 36.1701897, "lng": -86.67564449999999}, "viewport": {"northeast": {"lat": 36.17137058029149, "lng": -86.6742750697085}, "southwest": {"lat": 36.1686726197085, "lng": -86.6769730302915}}}, "icon": "https://maps.gstatic.com/mapfiles/place_api/icons/v1/png_71/generic_business-71.png", "name": "United Chiropractic Donelson", "place_id": "ChIJWVxRmnZpZIgRsr-Y2X3M0U4", "plus_code": {"compound_code": "58CF+3P Nashville, TN, USA", "global_code": "868M58CF+3P"}, "reference": "ChIJWVxRmnZpZIgRsr-Y2X3M0U4", "scope": "GOOGLE", "types": ["health", "point_of_interest", "establishment"], "vicinity": "2600 Lebanon Pike # B, Nashville"}, {"business_status": "OPERATIONAL", "geometry": {"location": {"lat": 36.17018700000001, "lng": -86.675664}, "viewport": {"northeast": {"lat": 36.17136843029149, "lng": -86.67429461970849}, "southwest": {"lat": 36.16867046970849, "lng": -86.67699258029151}}}, "icon": "https://maps.gstatic.com/mapfiles/place_api/icons/v1/png_71/generic_business-71.png", "name": "Roy Arnold - State Farm Insurance Agent", "opening_hours": {"open_now": true}, "photos": [{"height": 720, "html_attributions": ["<a href=\"https://maps.google.com/maps/contrib/104661953670366787001\">Roy Arnold - State Farm Insurance Agent</a>"], "photo_reference": "CmRaAAAA4q0e0jc-Zs9suXMAiQ5KwrGC5fum-bgBZ-DNxFgnp6Eu-UFa1xhSkiNwG9vZi5TL3A1SHjdWcybo7bro0ADxxKkAAZKQpq5aerUXZTvfh8QovQEzKMBh2SOi29TU7WPFEhCM8OCY7KqYr6lx4QocGHqQGhRdM_G49jm347qrHkq9qLKQpXy2ug", "width": 720}], "place_id": "ChIJWVxRmnZpZIgRh4HZDmm7AEw", "plus_code": {"compound_code": "58CF+3P Nashville, TN, USA", "global_code": "868M58CF+3P"}, "rating": 4.2, "reference": "ChIJWVxRmnZpZIgRh4HZDmm7AEw", "scope": "GOOGLE", "types": ["insurance_agency", "point_of_interest", "establishment"], "user_ratings_total": 24, "vicinity": "2600 Lebanon Pike a, Nashville"}, {"business_status": "OPERATIONAL", "geometry": {"location": {"lat": 36.1700939, "lng": -86.675579}, "viewport": {"northeast": {"lat": 36.1713247802915, "lng": -86.67421561970849}, "southwest": {"lat": 36.1686268197085, "lng": -86.6769135802915}}}, "icon": "https://maps.gstatic.com/mapfiles/place_api/icons/v1/png_71/generic_business-71.png", "name": "Dr. Don Lounsbury - Chiropractor", "opening_hours": {"open_now": false}, "photos": [{"height": 1440, "html_attributions": ["<a href=\"https://maps.google.com/maps/contrib/116884047038145063228\">Mighty Rasing</a>"], "photo_reference": "CmRaAAAAyPJMiaP_ftmFeIzkyWkzuscxtXhKfMLsfbxNzfPs7O-K6IhP8m5Ng4dDrHQ1UdLLBks5G_HnK3CBjIcqnOQZStcm9j1YgP2f2VPGKUsAMP7WNB5HMQNSemAzg51jjXfkEhC64V3aepLVU73CsMkzZs4dGhSpV52JRgQg4r8VpnNMFc-VCoTjfQ", "width": 2560}], "place_id": "ChIJWVxRmnZpZIgRKnd-UNPo-Hk", "plus_code": {"compound_code": "58CF+2Q Nashville, TN, USA", "global_code": "868M58CF+2Q"}, "rating": 5, "reference": "ChIJWVxRmnZpZIgRKnd-UNPo-Hk", "scope": "GOOGLE", "types": ["health", "point_of_interest", "establishment"], "user_ratings_total": 33, "vicinity": "2600 Lebanon Pike, Nashville"}, {"business_status": "OPERATIONAL", "geometry": {"location": {"lat": 36.170428, "lng": -86.6753447}, "viewport": {"northeast": {"lat": 36.17150128029149, "lng": -86.67397051970849}, "southwest": {"lat": 36.1688033197085, "lng": -86.6766684802915}}}, "icon": "https://maps.gstatic.com/mapfiles/place_api/icons/v1/png_71/shopping-71.png", "name": "Greene Military", "opening_hours": {"open_now": true}, "photos": [{"height": 1224, "html_attributions": ["<a href=\"https://maps.google.com/maps/contrib/111752282474991743771\">pecosROB</a>"], "photo_reference": "CmRaAAAA0MQxdcvabVLVeAYs6q2nAwdv8wzedMplWtvJap8cHX_ezGYqK2jMbUnxTU_204g2MGj0mzoQpY-TCkcZg_cpBjFtNas08414lTtAfQ4L-VriMVfMecW2Ye94mf2JqWfPEhBd2l8vVRGyjSEy_go01fPDGhR5KShoGFB9w19nSqXbel7q-8IT_Q", "width": 1632}], "place_id": "ChIJxwjZj3ZpZIgR70L1AX6hU3k", "plus_code": {"compound_code": "58CF+5V Nashville, TN, USA", "global_code": "868M58CF+5V"}, "rating": 4.1, "reference": "ChIJxwjZj3ZpZIgR70L1AX6hU3k", "scope": "GOOGLE", "types": ["shoe_store", "point_of_interest", "store", "establishment"], "user_ratings_total": 311, "vicinity": "2602 Lebanon Pike, Nashville"}]}, {"mapped_location": "(36.17118, -86.87134)", "address": "6609 Centennial Blvd, Nashville", "results": [{"business_status": "OPERATIONAL", "geometry": {"location": {"lat": 36.1720809, "lng": -86.87189479999999}, "viewport": {"northeast": {"lat": 36.1734583802915, "lng": -86.87068196970849}, "southwest": {"lat": 36.1707604197085, "lng": -86.8733799302915}}}, "icon": "https://maps.gstatic.com/mapfiles/place_api/icons/v1/png_71/civic_building-71.png", "name": "Tennessee Warehousing and Distribution", "place_id": "ChIJu7SyN65hZIgR5CZCmh7Vh90", "plus_code": {"compound_code": "54CH+R6 Nashville, TN, USA", "global_code": "868M54CH+R6"}, "reference": "ChIJu7SyN65hZIgR5CZCmh7Vh90", "scope": "GOOGLE", "types": ["local_government_office", "point_of_interest", "establishment"], "vicinity": "6500 Centennial Boulevard, Nashville"}, {"business_status": "OPERATIONAL", "geometry": {"location": {"lat": 36.1699201, "lng": -86.8708991}, "viewport": {"northeast": {"lat": 36.1714164802915, "lng": -86.8696691197085}, "southwest": {"lat": 36.1687185197085, "lng": -86.87236708029151}}}, "icon": "https://maps.gstatic.com/mapfiles/place_api/icons/v1/png_71/civic_building-71.png", "name": "TDOT Region 3 HQ Bldg A", "place_id": "ChIJVyzMya9hZIgRHVu9zkzYpPM", "plus_code": {"compound_code": "549H+XJ Nashville, TN, USA", "global_code": "868M549H+XJ"}, "reference": "ChIJVyzMya9hZIgRHVu9zkzYpPM", "scope": "GOOGLE", "types": ["local_government_office", "point_of_interest", "establishment"], "vicinity": "Nashville"}, {"business_status": "OPERATIONAL", "geometry": {"location": {"lat": 36.1693399, "lng": -86.8706691}, "viewport": {"northeast": {"lat": 36.1710823802915, "lng": -86.86963781970849}, "southwest": {"lat": 36.1683844197085, "lng": -86.8723357802915}}}, "icon": "https://maps.gstatic.com/mapfiles/place_api/icons/v1/png_71/generic_business-71.png", "name": "Region 3 TMC", "place_id": "ChIJkQXcla9hZIgR9UOrF25w08k", "plus_code": {"compound_code": "549H+PP Nashville, TN, USA", "global_code": "868M549H+PP"}, "rating": 4.6, "reference": "ChIJkQXcla9hZIgR9UOrF25w08k", "scope": "GOOGLE", "types": ["point_of_interest", "establishment"], "user_ratings_total": 7, "vicinity": "Nashville"}, {"business_status": "OPERATIONAL", "geometry": {"location": {"lat": 36.1728757, "lng": -86.8735001}, "viewport": {"northeast": {"lat": 36.1742689802915, "lng": -86.8720696697085}, "southwest": {"lat": 36.1715710197085, "lng": -86.8747676302915}}}, "icon": "https://maps.gstatic.com/mapfiles/place_api/icons/v1/png_71/civic_building-71.png", "name": "The Centennial Driver Services Center", "place_id": "ChIJc319u7FhZIgRC58BmZ8EiVw", "plus_code": {"compound_code": "54FG+5H Nashville, TN, USA", "global_code": "868M54FG+5H"}, "rating": 2, "reference": "ChIJc319u7FhZIgRC58BmZ8EiVw", "scope": "GOOGLE", "types": ["local_government_office", "point_of_interest", "establishment"], "user_ratings_total": 24, "vicinity": "6604 Centennial Boulevard, Nashville"}, {"business_status": "OPERATIONAL", "geometry": {"location": {"lat": 36.1690366, "lng": -86.87305339999999}, "viewport": {"northeast": {"lat": 36.1703635302915, "lng": -86.87201071970848}, "southwest": {"lat": 36.1676655697085, "lng": -86.87470868029149}}}, "icon": "https://maps.gstatic.com/mapfiles/place_api/icons/v1/png_71/civic_building-71.png", "name": "Tennessee Department of Transportation - Region 3", "photos": [{"height": 3024, "html_attributions": ["<a href=\"https://maps.google.com/maps/contrib/117164745547994007624\">Jordan 234</a>"], "photo_reference": "CmRaAAAAJh1lIa6F4Bx0CHIOPjfCYMIj7O8Ot_T7Ysokt_Zns7u--1YiVEpXyAyxTdPXqGoCz8nHuux9h3YZamI3zt9oZkvswSr4VDr11dL5bTFgimmzXVFtexTT6pyi-YQOehqPEhC7qoWQJtcklDKnVFZlOATOGhSz551YH-QBlFRhFnej2wlQ3kPqvA", "width": 4032}], "place_id": "ChIJHfbtELBhZIgRRh7v7DUCkk0", "plus_code": {"compound_code": "549G+JQ Nashville, TN, USA", "global_code": "868M549G+JQ"}, "rating": 3.6, "reference": "ChIJHfbtELBhZIgRRh7v7DUCkk0", "scope": "GOOGLE", "types": ["local_government_office", "point_of_interest", "establishment"], "user_ratings_total": 25, "vicinity": "6601 Centennial Boulevard, Nashville"}]}, {"mapped_location": "(36.06463, -86.63052)", "address": "821 Hamilton Crossing, Antioch", "results": [{"business_status": "OPERATIONAL", "geometry": {"location": {"lat": 36.0646311, "lng": -86.63051879999999}, "viewport": {"northeast": {"lat": 36.0660383802915, "lng": -86.62924246970849}, "southwest": {"lat": 36.0633404197085, "lng": -86.6319404302915}}}, "icon": "https://maps.gstatic.com/mapfiles/place_api/icons/v1/png_71/civic_building-71.png", "name": "Elwood Staffing", "opening_hours": {"open_now": true}, "photos": [{"height": 3024, "html_attributions": ["<a href=\"https://maps.google.com/maps/contrib/102934067098254772769\">Lisa Marie Knox</a>"], "photo_reference": "CmRaAAAA7HnIDl4eMtP45wxsS3o8F7WsBHobUOOPomfmwpOfloPHplhr0v_P95FEDo-M8XFT3EoC7YejYTZKxNMcZKctITA9vka5OkoDt_JO8x1GNjt6sbZtIPFxPUM_UIa48P7BEhCXkJq4yU3CHCODbujSnYYcGhRFOafpUPCX_J0Ei_rk-3incEu8zQ", "width": 4032}], "place_id": "ChIJjc2r88xtZIgRZgBwRaFhToc", "plus_code": {"compound_code": "3979+VQ Nashville, TN, USA", "global_code": "868M3979+VQ"}, "rating": 3.9, "reference": "ChIJjc2r88xtZIgRZgBwRaFhToc", "scope": "GOOGLE", "types": ["point_of_interest", "establishment"], "user_ratings_total": 66, "vicinity": "821 Hamilton Crossing, Antioch"}, {"business_status": "OPERATIONAL", "geometry": {"location": {"lat": 36.0646008, "lng": -86.6305858}, "viewport": {"northeast": {"lat": 36.06599638029149, "lng": -86.62930806970849}, "southwest": {"lat": 36.0632984197085, "lng": -86.6320060302915}}}, "icon": "https://maps.gstatic.com/mapfiles/place_api/icons/v1/png_71/generic_business-71.png", "name": "Domino's Pizza", "opening_hours": {"open_now": true}, "photos": [{"height": 682, "html_attributions": ["<a href=\"https://maps.google.com/maps/contrib/116979145405103130569\">Domino&#39;s Pizza</a>"], "photo_reference": "CmRaAAAABtyUe212SQVGF0DMLjSkIeZJ8tJ62x5KP-exIO0l1xbcsmmxsJDK7xfMym4RdPACkTL5d1d8SXr8ovEth2uug5NLztCZ-wsRjzEkHuqLw4zbgr6Ss4OPvmq73M2i2sj3EhCkYBg4luqvXf9KrEYyqytPGhT9E7F_6qFhLTvxH4fH4fiQVVhFZQ", "width": 1024}], "place_id": "ChIJh40OBg5uZIgR9ffJCGdT468", "plus_code": {"compound_code": "3979+RQ Nashville, TN, USA", "global_code": "868M3979+RQ"}, "price_level": 1, "rating": 2.8, "reference": "ChIJh40OBg5uZIgR9ffJCGdT468", "scope": "GOOGLE", "types": ["meal_delivery", "meal_takeaway", "restaurant", "food", "point_of_interest", "establishment"], "user_ratings_total": 347, "vicinity": "823 Hamilton Crossing, Antioch"}, {"business_status": "OPERATIONAL", "geometry": {"location": {"lat": 36.0647195, "lng": -86.6305193}, "viewport": {"northeast": {"lat": 36.0661047302915, "lng": -86.6292155197085}, "southwest": {"lat": 36.0634067697085, "lng": -86.6319134802915}}}, "icon": "https://maps.gstatic.com/mapfiles/place_api/icons/v1/png_71/shopping-71.png", "name": "Cato Fashions", "opening_hours": {"open_now": true}, "place_id": "ChIJjfp-Ub1tZIgRq9xhLBWtPX4", "plus_code": {"compound_code": "3979+VQ Nashville, TN, USA", "global_code": "868M3979+VQ"}, "price_level": 2, "rating": 4.5, "reference": "ChIJjfp-Ub1tZIgRq9xhLBWtPX4", "scope": "GOOGLE", "types": ["point_of_interest", "clothing_store", "store", "establishment"], "user_ratings_total": 89, "vicinity": "Shopping Center, 819 Hamilton Crossing, Antioch"}, {"business_status": "OPERATIONAL", "geometry": {"location": {"lat": 36.064813, "lng": -86.630248}, "viewport": {"northeast": {"lat": 36.0662383302915, "lng": -86.62895801970849}, "southwest": {"lat": 36.06354036970851, "lng": -86.6316559802915}}}, "icon": "https://maps.gstatic.com/mapfiles/place_api/icons/v1/png_71/restaurant-71.png", "name": "Steak Plus Pizza", "opening_hours": {"open_now": true}, "photos": [{"height": 1200, "html_attributions": ["<a href=\"https://maps.google.com/maps/contrib/108175828466289756903\">Steak Plus Pizza</a>"], "photo_reference": "CmRaAAAAabOZ0IR-aXtVWnsfjw-9Vkt5ZNemjCzXYyxZ2QkOpv0KIs_X_xoBrhUWILwMY_DLK_gdKvej8LwF9oFpuw-XOe-6nrWRZtTzMCXH8GwK9rg7V-XlkqpmhKDYVjmxA2SvEhDns_CmTcgvAIe9b4Bd24LoGhQJDdqSEB8D0fPla1-CQ2znT4Wd4A", "width": 1920}], "place_id": "ChIJpX5ks6JtZIgRt6Tgg_oTSdE", "plus_code": {"compound_code": "3979+WW Nashville, TN, USA", "global_code": "868M3979+WW"}, "rating": 3.5, "reference": "ChIJpX5ks6JtZIgRt6Tgg_oTSdE", "scope": "GOOGLE", "types": ["meal_delivery", "restaurant", "food", "point_of_interest", "store", "establishment"], "user_ratings_total": 251, "vicinity": "811 Hamilton Crossing, Antioch"}, {"business_status": "OPERATIONAL", "geometry": {"location": {"lat": 36.06488969999999, "lng": -86.630198}, "viewport": {"northeast": {"lat": 36.0662660802915, "lng": -86.62880496970848}, "southwest": {"lat": 36.06356811970851, "lng": -86.6315029302915}}}, "icon": "https://maps.gstatic.com/mapfiles/place_api/icons/v1/png_71/generic_business-71.png", "name": "A Harris Dental", "opening_hours": {"open_now": true}, "place_id": "ChIJZ-L4pKJtZIgRyrGYBCLlcZY", "plus_code": {"compound_code": "3979+XW Nashville, TN, USA", "global_code": "868M3979+XW"}, "rating": 3.8, "reference": "ChIJZ-L4pKJtZIgRyrGYBCLlcZY", "scope": "GOOGLE", "types": ["dentist", "health", "point_of_interest", "establishment"], "user_ratings_total": 13, "vicinity": "809 Hamilton Church Road, Antioch"}]}, {"mapped_location": "(36.15056, -86.69497)", "address": "2115 Elm Hill Pike, Nashville", "results": [{"business_status": "OPERATIONAL", "geometry": {"location": {"lat": 36.1501819, "lng": -86.6947168}, "viewport": {"northeast": {"lat": 36.15151323029151, "lng": -86.6934282197085}, "southwest": {"lat": 36.14881526970851, "lng": -86.6961261802915}}}, "icon": "https://maps.gstatic.com/mapfiles/place_api/icons/v1/png_71/generic_business-71.png", "name": "Breon Hair Salon", "opening_hours": {"open_now": true}, "photos": [{"height": 1153, "html_attributions": ["<a href=\"https://maps.google.com/maps/contrib/110596712065197724612\">Breon Hair Salon</a>"], "photo_reference": "CmRZAAAArL2r4i_1HTMSqAwskhbgYDrBEoAAV86Hc81G5jQ9XH_SEGOmdTuHBSEYgzgSP3hJQ3TywAcsTFwKy5BRSqX3t0aHrApRJ2cdChYjYa8a_3pDWwr5l0tRXrr_F9Uq7EKEEhC98SjuGdFMRpJBU4X5HJaDGhTddbZiGuGJa_5VIGIQJk4PG-pXOA", "width": 2048}], "place_id": "ChIJ8afYTiJpZIgRLEKd-pJwS20", "plus_code": {"compound_code": "5824+34 Nashville, TN, USA", "global_code": "868M5824+34"}, "rating": 4.8, "reference": "ChIJ8afYTiJpZIgRLEKd-pJwS20", "scope": "GOOGLE", "types": ["beauty_salon", "hair_care", "point_of_interest", "establishment"], "user_ratings_total": 209, "vicinity": "2115 Elm Hill Pike, Nashville"}, {"business_status": "OPERATIONAL", "geometry": {"location": {"lat": 36.150716, "lng": -86.693687}, "viewport": {"northeast": {"lat": 36.1520374302915, "lng": -86.69233446970851}, "southwest": {"lat": 36.1493394697085, "lng": -86.69503243029152}}}, "icon": "https://maps.gstatic.com/mapfiles/place_api/icons/v1/png_71/generic_business-71.png", "name": "Elm Hill Pike & Wanda Dr WB", "place_id": "ChIJ2aoF9yJpZIgRWKV0c7h1GlU", "plus_code": {"compound_code": "5824+7G Nashville, TN, USA", "global_code": "868M5824+7G"}, "reference": "ChIJ2aoF9yJpZIgRWKV0c7h1GlU", "scope": "GOOGLE", "types": ["transit_station", "point_of_interest", "establishment"], "vicinity": "United States"}, {"business_status": "OPERATIONAL", "geometry": {"location": {"lat": 36.1506, "lng": -86.693653}, "viewport": {"northeast": {"lat": 36.1519763302915, "lng": -86.69230746970851}, "southwest": {"lat": 36.1492783697085, "lng": -86.69500543029152}}}, "icon": "https://maps.gstatic.com/mapfiles/place_api/icons/v1/png_71/generic_business-71.png", "name": "Elm Hill Pike & Wanda Dr EB", "place_id": "ChIJ2aoF9yJpZIgRon6TW6qkzKY", "plus_code": {"compound_code": "5824+6G Nashville, TN, USA", "global_code": "868M5824+6G"}, "reference": "ChIJ2aoF9yJpZIgRon6TW6qkzKY", "scope": "GOOGLE", "types": ["transit_station", "point_of_interest", "establishment"], "vicinity": "United States"}, {"business_status": "OPERATIONAL", "geometry": {"location": {"lat": 36.14952720000001, "lng": -86.6959504}, "viewport": {"northeast": {"lat": 36.1507512802915, "lng": -86.69456271970849}, "southwest": {"lat": 36.14805331970851, "lng": -86.69726068029149}}}, "icon": "https://maps.gstatic.com/mapfiles/place_api/icons/v1/png_71/worship_general-71.png", "name": "Scenic View Baptist Church", "photos": [{"height": 4160, "html_attributions": ["<a href=\"https://maps.google.com/maps/contrib/109932394481703521157\">Aquafina237</a>"], "photo_reference": "CmRaAAAABk01lZ81tm6fa8Vx39i-Y7memVNtdXXVAQP5eiLpf0SdLKlcANqF6BLactoyxuE95QKH0RaVNssAyipF-KJpsQf79pbe7pGEQguOSwcgQ7AdP7VHnTGDR5Fjsimy0ydOEhAGWJY3ylZqhBrkNP4jpmUHGhRhmhH7dbvyFpCxqWrHI-JkbGyMAg", "width": 2340}], "place_id": "ChIJL3Gp0iNpZIgReWAMIWPayJg", "plus_code": {"compound_code": "48X3+RJ Nashville, TN, USA", "global_code": "868M48X3+RJ"}, "rating": 4.8, "reference": "ChIJL3Gp0iNpZIgReWAMIWPayJg", "scope": "GOOGLE", "types": ["church", "place_of_worship", "point_of_interest", "establishment"], "user_ratings_total": 5, "vicinity": "2111 Elm Hill Pike, Nashville"}, {"business_status": "OPERATIONAL", "geometry": {"location": {"lat": 36.15049500000001, "lng": -86.696659}, "viewport": {"northeast": {"lat": 36.15182843029149, "lng": -86.69530826970849}, "southwest": {"lat": 36.1491304697085, "lng": -86.6980062302915}}}, "icon": "https://maps.gstatic.com/mapfiles/place_api/icons/v1/png_71/generic_business-71.png", "name": "Elm Hill Pike & Wanda Dr WB", "place_id": "ChIJefr9hCFpZIgRjW7ng2NA-E8", "plus_code": {"compound_code": "5823+58 Nashville, TN, USA", "global_code": "868M5823+58"}, "reference": "ChIJefr9hCFpZIgRjW7ng2NA-E8", "scope": "GOOGLE", "types": ["transit_station", "point_of_interest", "establishment"], "vicinity": "United States"}]}, {"mapped_location": "(36.14497980000001, -86.70895139999999)", "address": "1725 Elm Hill Pike, Nashville", "results": [{"business_status": "OPERATIONAL", "geometry": {"location": {"lat": 36.1449799, "lng": -86.7089513}, "viewport": {"northeast": {"lat": 36.1463317802915, "lng": -86.70756996970849}, "southwest": {"lat": 36.1436338197085, "lng": -86.7102679302915}}}, "icon": "https://maps.gstatic.com/mapfiles/place_api/icons/v1/png_71/restaurant-71.png", "name": "Chairman's Choice Foods", "place_id": "ChIJgaeDANtoZIgR23Rbf3RYuao", "plus_code": {"compound_code": "47VR+XC Nashville, TN, USA", "global_code": "868M47VR+XC"}, "rating": 4, "reference": "ChIJgaeDANtoZIgR23Rbf3RYuao", "scope": "GOOGLE", "types": ["restaurant", "food", "point_of_interest", "establishment"], "user_ratings_total": 2, "vicinity": "1725 Elm Hill Pike, Nashville"}, {"business_status": "OPERATIONAL", "geometry": {"location": {"lat": 36.1454572, "lng": -86.7090722}, "viewport": {"northeast": {"lat": 36.1467200302915, "lng": -86.70770926970849}, "southwest": {"lat": 36.1440220697085, "lng": -86.71040723029151}}}, "icon": "https://maps.gstatic.com/mapfiles/place_api/icons/v1/png_71/shopping-71.png", "name": "LMG Nashville", "opening_hours": {"open_now": true}, "photos": [{"height": 480, "html_attributions": ["<a href=\"https://maps.google.com/maps/contrib/113267173997896395756\">LMG Nashville</a>"], "photo_reference": "CmRaAAAAvTJT9A5XhDmXvvyQRVsIOdEM7KF7eD5EnAB6C3SHsmMnRZKPXzctWw3PnDdEzRDZH2gVZvwQHvqxmuKSCfgeqlSHoUbkYnXXkp81HomhNNb6v3B8bcRuCgEhuV28mv_aEhCDxOO7ifSO2LCXx3A3CK12GhSqNjntIGzVPNTUUC2EnTq56b0e8g", "width": 700}], "place_id": "ChIJiYjlCEVmZIgRbtfoL6YNP2g", "plus_code": {"compound_code": "47WR+59 Nashville, TN, USA", "global_code": "868M47WR+59"}, "rating": 4.9, "reference": "ChIJiYjlCEVmZIgRbtfoL6YNP2g", "scope": "GOOGLE", "types": ["electronics_store", "home_goods_store", "point_of_interest", "store", "establishment"], "user_ratings_total": 8, "vicinity": "1674 Elm Hill Pike, Nashville"},